house_address,house_rental_area,house_orientation,house_layout,house_floor,house_rental_price,house_id,house_update_time,house_longitude,house_latitude,house_rental_method,house_tag,house_elevator,house_parking,house_water,house_electricity,house_gas,house_heating,create_time,city
武侯-武侯立交-置信巴厘岛A区,86.96㎡,东,3室1厅1卫,中楼层（13层）,3000 元/月,CD2783298870594519040,2021-06-27,104.007702,30.634621,整租,//权属核验/随时看房/,有,暂无数据,民水,民电,有,自采暖,2021-07-02 17:24:59,成都
武侯-五大花园-龙湖金楠天街,78.26㎡,东南,2室1厅1卫,高楼层（24层）,2800 元/月,CD2782530916893851648,2021-06-29,104.001737,30.653101,整租,//权属核验/精装/随时看房/,有,租用车位,民水,民电,有,自采暖,2021-07-02 17:25:04,成都
武侯-新双楠-中铁骑士公馆,69.86㎡,东,2室1厅1卫,低楼层（18层）,2600 元/月,CD2813125273925992448,2021-06-29,103.996215,30.625912,整租,//权属核验/精装/,有,租用车位,民水,民电,有,暂无数据,2021-07-02 17:25:12,成都
武侯-双楠-月光琉域,75.61㎡,南,2室1厅1卫,低楼层（17层）,3100 元/月,CD2783282992419192832,2021-06-28,104.03473054,30.64604515,整租,/权属核验/近地铁/精装/,有,租用车位,民水,民电,有,自采暖,2021-07-02 17:25:16,成都
武侯-高升桥-罗浮世家一期,173.41㎡,西南,4室2厅2卫,中楼层（14层）,6000 元/月,CD2783305758832599040,2021-06-27,104.044692,30.643764,整租,/权属核验/精装/双卫生间/,有,暂无数据,民水,民电,有,暂无数据,2021-07-02 17:25:22,成都
武侯-新双楠-保利花园三期,113.00㎡,南北,2室2厅2卫,高楼层（15层）,5000 元/月,CD2783842606465941504,2021-06-27,103.99778796,30.62539794,整租,/权属核验/近地铁/精装/双卫生间/,有,暂无数据,民水,民电,有,自采暖,2021-07-02 17:25:27,成都
武侯-丽都-优客联邦三期,93.73㎡,东南,3室1厅1卫,低楼层（18层）,3800 元/月,CD2783215190714892288,2021-06-27,104.037631,30.637797,整租,/权属核验/精装/,有,租用车位,民水,民电,有,自采暖,2021-07-02 17:25:36,成都
武侯-丽都-中粮香颂丽都,76.96㎡,东南东北,3室2厅1卫,高楼层（19层）,3900 元/月,CD2812867999177392128,2021-06-27,104.039321,30.628869,整租,/权属核验/近地铁/精装/,有,租用车位,民水,民电,有,暂无数据,2021-07-02 17:25:45,成都
武侯-武侯立交-中华名园三期C区,130.49㎡,东南,3室2厅2卫,低楼层（16层）,3800 元/月,CD2813631997086539776,2021-06-29,104.007771,30.640956,整租,//权属核验/精装/双卫生间/随时看房/,有,租用车位,民水,民电,有,自采暖,2021-07-02 17:25:52,成都
武侯-川大-好望角,36.56㎡,西,1室0厅1卫,中楼层（6层）,1800 元/月,CD2813131837222682624,2021-06-27,104.092974,30.643535,整租,/权属核验/精装/,有,暂无数据,民水,民电,有,暂无数据,2021-07-02 17:25:55,成都
武侯-草金立交-美泉悦府,115.55㎡,南,3室1厅2卫,中楼层（18层）,3000 元/月,CD2813804549587353600,2021-06-30,103.977568,30.646636,整租,//权属核验/近地铁/精装/双卫生间/随时看房/,无,租用车位,民水,民电,有,暂无数据,2021-07-02 17:25:59,成都
武侯-草金立交-武青嘉苑,79.31㎡,南,3室1厅1卫,高楼层（6层）,2300 元/月,CD2813669667430998016,2021-07-01,103.998495,30.640121,整租,//权属核验/,无,租用车位,民水,民电,有,自采暖,2021-07-02 17:26:08,成都
武侯-丽都-优客联邦一期,54.14㎡,东南,2室1厅1卫,中楼层（15层）,2700 元/月,CD2813192124110217216,2021-06-27,104.03824234,30.63947438,整租,/权属核验/近地铁/精装/,有,暂无数据,民水,民电,有,暂无数据,2021-07-02 17:26:11,成都
武侯-外双楠-鹭岛国际三期,91.00㎡,西南,2室1厅1卫,中楼层（15层）,3600 元/月,CD2813192454772097024,2021-06-27,104.016718,30.652062,整租,/权属核验/近地铁/精装/,有,租用车位,民水,民电,有,自采暖,2021-07-02 17:26:15,成都
武侯-棕北-首航欣程,38.15㎡,西南,1室0厅0卫,地下室,300 元/月,CD2784638633708363776,2021-06-27,104.076521,30.627637,整租,/权属核验/近地铁/,无,暂无数据,暂无数据,暂无数据,无,自采暖,2021-07-02 17:26:23,成都
武侯-丽都-优客联邦一期,64.20㎡,东南,1室1厅1卫,高楼层（15层）,2600 元/月,CD2813189725111205888,2021-06-27,104.03824234,30.63947438,整租,/权属核验/近地铁/精装/,有,租用车位,民水,民电,有,暂无数据,2021-07-02 17:26:31,成都
武侯-丽都-红城,94.25㎡,东北,3室2厅2卫,低楼层（18层）,3500 元/月,CD2814322719565553664,2021-06-30,104.033353,30.632489,整租,/权属核验/精装/双卫生间/,有,暂无数据,民水,民电,有,自采暖,2021-07-02 17:26:39,成都
武侯-棕北-首航欣程,69.91㎡,南,2室2厅1卫,低楼层（32层）,3500 元/月,CD2813849868068724736,2021-06-29,104.076521,30.627637,整租,/权属核验/精装/,有,租用车位,民水,民电,有,自采暖,2021-07-02 17:26:45,成都
武侯-红牌楼-武侯国际花园,66.61㎡,西南,1室1厅1卫,低楼层（13层）,2300 元/月,CD2814533954857091072,2021-06-27,104.022701,30.642236,整租,/权属核验/月租/,有,暂无数据,民水,民电,有,自采暖,2021-07-02 17:26:53,成都
武侯-五大花园-园中园北苑,138.00㎡,东南,3室1厅2卫,高楼层（7层）,2500 元/月,CD2814507000002781184,2021-06-30,104.007832,30.650989,整租,/权属核验/双卫生间/随时看房/,无,暂无数据,民水,民电,有,自采暖,2021-07-02 17:27:02,成都
武侯-外双楠-嘉瑞苑二期,186.68㎡,南,4室2厅2卫,高楼层（6层）,4800 元/月,CD2731877580725551104,2021-06-27,104.02111509,30.65541985,整租,/权属核验/近地铁/精装/双卫生间/随时看房/,无,暂无数据,民水,民电,有,自采暖,2021-07-02 17:27:10,成都
武侯-火车南站-保利天悦,67.35㎡,东南,1室1厅1卫,低楼层（41层）,5000 元/月,CD2805648603438661632,2021-06-10,104.0878479628,30.622664447059,整租,/权属核验/公寓/精装/随时看房/,有,免费使用,民水,民电,有,自采暖,2021-07-02 17:27:16,成都
武侯-双楠-金科双楠天都,63.03㎡,东南南,1室1厅1卫,中楼层（17层）,4300 元/月,CD2736088816862633984,2021-06-27,104.034178,30.646455,整租,/权属核验/近地铁/随时看房/,有,暂无数据,商水,民电,有,自采暖,2021-07-02 17:27:25,成都
武侯-火车南站-中国水电泛悦国际,82.00㎡,东南,3室2厅1卫,高楼层（34层）,4800 元/月,CD2805887244613713920,2021-06-10,104.08621041567,30.618686317983,整租,/权属核验/公寓/精装/,有,免费使用,民水,民电,有,自采暖,2021-07-02 17:27:28,成都
武侯-武侯立交-金楠缤纷,66.28㎡,西南,2室1厅1卫,高楼层（16层）,1300 元/月,CD2650663594077208576,2021-06-23,104.007361,30.64303,整租,/权属核验/,有,暂无数据,民水,民电,有,自采暖,2021-07-02 17:27:35,成都
武侯-火车南站-保利天悦,79.00㎡,东南,2室2厅1卫,中楼层（41层）,6500 元/月,CD2805933357555793920,2021-06-17,104.0878479628,30.622664447059,整租,/权属核验/公寓/精装/随时看房/,有,租用车位,民水,民电,有,集中供暖,2021-07-02 17:27:40,成都
武侯-桐梓林-首座,172.72㎡,南北,3室2厅2卫,低楼层（29层）,8800 元/月,CD2649759670771916800,2021-06-26,104.072856,30.619156,整租,/权属核验/近地铁/精装/双卫生间/,有,暂无数据,民水,民电,有,自采暖,2021-07-02 17:27:44,成都
武侯-桐梓林-桐梓林欧城,88.67㎡,南,2室2厅2卫,低楼层（22层）,4300 元/月,CD2646302138657423360,2021-06-27,104.067457,30.61725,整租,/权属核验/近地铁/精装/双卫生间/随时看房/,有,暂无数据,民水,民电,有,暂无数据,2021-07-02 17:27:51,成都
武侯-桐梓林-桐梓林欧城,56.66㎡,东,1室1厅1卫,中楼层（20层）,3000 元/月,CD2652805593881903104,2021-06-27,104.067457,30.61725,整租,/权属核验/精装/,有,暂无数据,民水,民电,有,暂无数据,2021-07-02 17:27:58,成都
武侯-双楠-锦宏宝润苑,44.84㎡,东南,2室1厅1卫,高楼层（12层）,3000 元/月,CD2737636515651002368,2021-06-27,104.039212,30.64788,整租,/权属核验/精装/随时看房/,有,租用车位,民水,民电,有,自采暖,2021-07-02 17:28:04,成都
武侯-双楠-楠宝石,56.03㎡,西,1室1厅1卫,中楼层（15层）,1900 元/月,CD2738299084040306688,2021-06-29,104.029216,30.65183,整租,//权属核验/随时看房/,有,租用车位,民水,民电,有,自采暖,2021-07-02 17:28:11,成都
武侯-火车南站-保利天悦,94.60㎡,东南,2室2厅1卫,高楼层（41层）,6800 元/月,CD2781110973526704128,2021-06-08,104.0878479628,30.622664447059,整租,/权属核验/公寓/精装/随时看房/,有,免费使用,民水,民电,有,自采暖,2021-07-02 17:28:20,成都
武侯-武侯立交-中粮祥云一期,212.85㎡,南,4室2厅2卫,高楼层（18层）,10000 元/月,CD2738384774308831232,2021-06-28,104.013763,30.635208,整租,/权属核验/近地铁/双卫生间/随时看房/,有,租用车位,民水,民电,有,自采暖,2021-07-02 17:28:25,成都
武侯-火车南站-保利天悦,55.70㎡,东南,1室1厅1卫,高楼层（41层）,5200 元/月,CD2780296991618637824,2021-06-10,104.0878479628,30.622664447059,整租,/权属核验/公寓/精装/随时看房/,有,租用车位,民水,民电,有,自采暖,2021-07-02 17:28:31,成都
武侯-五大花园-中央花园新城市别墅,224.00㎡,南,6室3厅4卫,低楼层（3层）,8500 元/月,CD2645710852128784384,2021-06-29,104.008224,30.646582,整租,/权属核验/随时看房/,无,租用车位,暂无数据,暂无数据,暂无数据,暂无数据,2021-07-02 17:28:36,成都
武侯-双楠-碧云天,182.50㎡,东南,3室2厅2卫,低楼层（5层）,4200 元/月,CD2661576583139303424,2021-06-27,104.03765606,30.64661354,整租,/权属核验/近地铁/双卫生间/随时看房/,无,暂无数据,民水,民电,有,自采暖,2021-07-02 17:28:40,成都
武侯-红牌楼-新界三期,121.78㎡,南,3室1厅2卫,中楼层（8层）,3500 元/月,CD2740413882441924608,2021-06-29,104.02013,30.634113,整租,//权属核验/近地铁/双卫生间/随时看房/,有,暂无数据,民水,民电,有,自采暖,2021-07-02 17:28:45,成都
武侯-丽都-红城,38.43㎡,东南,1室1厅1卫,高楼层（17层）,1800 元/月,CD2741328940123045888,2021-06-30,104.033353,30.632489,整租,/权属核验/精装/,有,暂无数据,民水,民电,有,自采暖,2021-07-02 17:28:53,成都
武侯-航空路-锦官新城东区,337.35㎡,南北,5室3厅4卫,中楼层（4层）,22000 元/月,CD2655120789451579392,2021-06-27,104.07966178,30.62441568,整租,/权属核验/近地铁/精装/,无,暂无数据,民水,民电,有,自采暖,2021-07-02 17:28:57,成都
武侯-桐梓林-首座,126.40㎡,南,2室2厅2卫,高楼层（29层）,6000 元/月,CD2668207996496257024,2021-06-30,104.072856,30.619156,整租,/权属核验/近地铁/精装/双卫生间/,有,暂无数据,民水,民电,有,自采暖,2021-07-02 17:29:05,成都
武侯-川音-锦江花园城,222.00㎡,北,7室1厅1卫,中楼层（29层）,6000 元/月,CD2667300828678987776,2021-06-27,104.086067,30.649697,整租,/权属核验/近地铁/,有,暂无数据,民水,民电,有,自采暖,2021-07-02 17:29:11,成都
武侯-火车南站-保利天悦,68.08㎡,东南,1室1厅1卫,中楼层（41层）,5000 元/月,CD2781105731377053696,2021-06-10,104.0878479628,30.622664447059,整租,/权属核验/公寓/精装/随时看房/,有,免费使用,民水,民电,有,自采暖,2021-07-02 17:29:13,成都
武侯-航空路-华尔兹广场(武侯),60.76㎡,南,1室1厅1卫,低楼层（24层）,2900 元/月,CD2668619810837381120,2021-06-27,104.07817754,30.62249227,整租,/权属核验/近地铁/随时看房/,有,暂无数据,民水,民电,有,暂无数据,2021-07-02 17:29:16,成都
武侯-火车南站-绿地GIC,106.00㎡,南,3室2厅2卫,高楼层（45层）,6800 元/月,CD2759439820425003008,2021-06-10,104.08579710788,30.625414612543,整租,/权属核验/公寓/精装/双卫生间/,有,租用车位,民水,民电,有,集中供暖,2021-07-02 17:29:19,成都
武侯-棕北-保利中心,71.77㎡,南北,2室1厅1卫,高楼层（21层）,6000 元/月,CD2668210444996984832,2021-06-29,104.077419,30.630663,整租,/权属核验/近地铁/精装/随时看房/,有,暂无数据,民水,民电,有,自采暖,2021-07-02 17:29:24,成都
武侯-火车南站-绿地GIC,106.00㎡,南,3室2厅2卫,低楼层（45层）,6800 元/月,CD2759439819670568960,2021-06-10,104.08579710788,30.625414612543,整租,/权属核验/公寓/精装/双卫生间/,有,租用车位,民水,民电,有,自采暖,2021-07-02 17:29:32,成都
武侯-川音-凯悦新城,52.11㎡,东南,1室1厅1卫,高楼层（12层）,2200 元/月,CD2665895302410027008,2021-06-27,104.08859,30.642812,整租,//权属核验/近地铁/随时看房/,有,暂无数据,民水,民电,有,暂无数据,2021-07-02 17:29:38,成都
武侯-火车南站-绿地GIC,82.00㎡,东南,2室2厅1卫,高楼层（45层）,5500 元/月,CD2805820113956651008,2021-06-10,104.08579710788,30.625414612543,整租,/权属核验/公寓/精装/,有,租用车位,民水,民电,有,自采暖,2021-07-02 17:29:44,成都
武侯-棕北-保利中心,154.00㎡,西南,5室2厅2卫,高楼层（37层）,6000 元/月,CD2742794763571822592,2021-06-27,104.077419,30.630663,整租,/权属核验/精装/双卫生间/随时看房/,有,暂无数据,民水,民电,有,自采暖,2021-07-02 17:29:47,成都
武侯-火车南站-保利天悦,55.74㎡,东南,1室1厅1卫,中楼层（41层）,5500 元/月,CD2805642725456879616,2021-06-10,104.0878479628,30.622664447059,整租,/权属核验/公寓/精装/随时看房/,有,免费使用,民水,民电,有,自采暖,2021-07-02 17:29:50,成都
武侯-桐梓林-桐梓林欧城,89.24㎡,南,2室2厅1卫,中楼层（21层）,4200 元/月,CD2742823855793119232,2021-06-27,104.067457,30.61725,整租,/权属核验/近地铁/精装/,有,租用车位,民水,民电,有,暂无数据,2021-07-02 17:29:56,成都
武侯-高升桥-罗马假日广场,48.93㎡,南,1室0厅1卫,中楼层（11层）,1900 元/月,CD2744145753965871104,2021-06-27,104.049289,30.643934,整租,/权属核验/近地铁/随时看房/,有,租用车位,民水,民电,无,暂无数据,2021-07-02 17:29:59,成都
武侯-华西-锦宏阁,134.81㎡,南北,3室2厅2卫,中楼层（17层）,4600 元/月,CD2744276191099240448,2021-06-15,104.052478,30.644113,整租,/权属核验/精装/双卫生间/,有,暂无数据,民水,民电,有,自采暖,2021-07-02 17:30:05,成都
武侯-火车南站-中国水电泛悦国际,82.00㎡,北,3室2厅1卫,中楼层（34层）,4800 元/月,CD2805887245377617920,2021-06-10,104.0862221557,30.618295055155,整租,/权属核验/公寓/精装/随时看房/,有,免费使用,民水,民电,有,集中供暖,2021-07-02 17:30:12,成都
武侯-武侯立交-中华名园二期,89.00㎡,东,3室1厅1卫,高楼层（16层）,2700 元/月,CD2744714415051120640,2021-06-15,104.009217,30.640381,整租,/权属核验/精装/,有,暂无数据,民水,民电,有,自采暖,2021-07-02 17:30:17,成都
武侯-川音-海会花园,135.00㎡,南,3室2厅2卫,低楼层（7层）,3600 元/月,CD2745607186716557312,2021-06-27,104.090899,30.643877,整租,/权属核验/双卫生间/随时看房/,有,暂无数据,民水,民电,有,暂无数据,2021-07-02 17:30:25,成都
武侯-武侯立交-红帆蓝调,67.00㎡,东南,1室1厅1卫,中楼层（16层）,1700 元/月,CD2744752330703372288,2021-06-28,104.012369,30.637737,整租,/权属核验/近地铁/随时看房/,有,暂无数据,商水,商电,无,暂无数据,2021-07-02 17:30:30,成都
武侯-双楠-百草苑,82.54㎡,东南,4室2厅2卫,低楼层（7层）,3500 元/月,CD2672483767544979456,2021-06-07,104.040068,30.648134,整租,/权属核验/近地铁/双卫生间/随时看房/,无,租用车位,民水,民电,有,自采暖,2021-07-02 17:30:38,成都
武侯-簇桥-西派城D区,165.00㎡,东南,4室2厅2卫,中楼层（9层）,5500 元/月,CD2676127190609313792,2021-06-19,103.98953,30.618675,整租,/权属核验/精装/双卫生间/,有,暂无数据,暂无数据,暂无数据,有,暂无数据,2021-07-02 17:30:46,成都
武侯-火车南站-中国水电泛悦国际,82.00㎡,东南,3室2厅1卫,中楼层（34层）,4800 元/月,CD2805887244035440640,2021-06-10,104.0862221557,30.618295055155,整租,/权属核验/公寓/精装/,有,免费使用,民水,民电,有,集中供暖,2021-07-02 17:30:51,成都
武侯-五大花园-清水苑,74.42㎡,西北北,3室2厅2卫,低楼层（22层）,3000 元/月,CD2670830237566377984,2021-06-28,103.997197,30.659542,整租,/权属核验/双卫生间/,有,暂无数据,民水,民电,有,暂无数据,2021-07-02 17:31:00,成都
武侯-火车南站-保利天悦,55.86㎡,东南,1室1厅1卫,高楼层（41层）,5000 元/月,CD2780282891576549376,2021-06-10,104.0878479628,30.622664447059,整租,/权属核验/公寓/精装/随时看房/,有,租用车位,民水,民电,有,自采暖,2021-07-02 17:31:04,成都
武侯-外双楠-白兰地,80.00㎡,南,2室1厅1卫,低楼层（19层）,2600 元/月,CD2673147149445251072,2021-06-08,104.020968,30.65743,整租,/权属核验/近地铁/,有,暂无数据,民水,民电,有,暂无数据,2021-07-02 17:31:13,成都
武侯-丽都-丽都帝景,92.00㎡,西南,3室1厅1卫,低楼层（15层）,3500 元/月,CD2745517490795978752,2021-06-30,104.0362108,30.62899063,整租,//权属核验/随时看房/,有,租用车位,民水,民电,有,自采暖,2021-07-02 17:31:18,成都
武侯-棕北-首航欣程,71.77㎡,东南,2室1厅1卫,中楼层（29层）,3800 元/月,CD2747832039737925632,2021-06-02,104.076521,30.627637,整租,/权属核验/近地铁/精装/,有,暂无数据,民水,民电,有,暂无数据,2021-07-02 17:31:25,成都
武侯-桐梓林-首座,127.96㎡,南,2室1厅2卫,中楼层（29层）,10000 元/月,CD2748455005760520192,2021-06-27,104.072856,30.619156,整租,/权属核验/精装/双卫生间/,有,暂无数据,民水,民电,有,自采暖,2021-07-02 17:31:31,成都
武侯-航空路-时代阳光花园,76.22㎡,北,2室1厅1卫,中楼层（7层）,3200 元/月,CD2747810911241904128,2021-06-27,104.0799065,30.62208731,整租,/权属核验/近地铁/精装/随时看房/,无,租用车位,民水,民电,有,自采暖,2021-07-02 17:31:34,成都
武侯-五大花园-翠堤春晓,128.00㎡,东南,3室2厅2卫,低楼层（6层）,4200 元/月,CD2748411076700798976,2021-06-27,104.011293,30.664935,整租,/权属核验/近地铁/双卫生间/,无,暂无数据,民水,民电,有,自采暖,2021-07-02 17:31:43,成都
武侯-火车南站-中国水电泛悦国际,72.00㎡,东南,3室1厅1卫,高楼层（34层）,3700 元/月,CD2746205926338854912,2021-06-26,104.085104,30.618703,整租,/权属核验/精装/,有,租用车位,民水,民电,有,暂无数据,2021-07-02 17:31:51,成都
武侯-火车南站-保利天悦,55.86㎡,东南,1室1厅1卫,中楼层（41层）,5000 元/月,CD2780276608659881984,2021-06-10,104.0878479628,30.622664447059,整租,/权属核验/公寓/精装/随时看房/,有,免费使用,民水,民电,有,自采暖,2021-07-02 17:31:57,成都
武侯-外双楠-双楠融域,127.75㎡,西,4室2厅2卫,中楼层（6层）,4500 元/月,CD2672519266699583488,2021-06-29,104.02419943,30.64800432,整租,/权属核验/近地铁/精装/双卫生间/,无,暂无数据,民水,民电,有,自采暖,2021-07-02 17:32:06,成都
武侯-火车南站-保利天悦,239.44㎡,东南,4室2厅3卫,高楼层（43层）,18000 元/月,CD2805660173946068992,2021-06-29,104.08809112256,30.622972232607,整租,/权属核验/公寓/精装/随时看房/,无,免费使用,民水,民电,有,自采暖,2021-07-02 17:32:12,成都
武侯-外双楠-鹭岛国际一二期,143.67㎡,南,3室2厅2卫,低楼层（11层）,6100 元/月,CD2682758130093531136,2021-07-01,104.017929,30.65095,整租,/权属核验/近地铁/精装/双卫生间/随时看房/,有,租用车位,民水,民电,有,自采暖,2021-07-02 17:32:18,成都
武侯-火车南站-绿地GIC,82.00㎡,东南,2室2厅1卫,低楼层（45层）,5500 元/月,CD2805820113604329472,2021-06-10,104.08522064595,30.625424985579,整租,/权属核验/公寓/精装/,有,租用车位,民水,民电,有,自采暖,2021-07-02 17:32:25,成都
武侯-双楠-金科双楠天都,37.05㎡,东南,1室0厅0卫,中楼层（17层）,2800 元/月,CD2683379866782670848,2021-06-27,104.034178,30.646455,整租,/权属核验/近地铁/精装/,有,暂无数据,商水,民电,有,自采暖,2021-07-02 17:32:28,成都
武侯-火车南站-保利天悦,55.00㎡,东南,1室2厅1卫,低楼层（41层）,5000 元/月,CD2805933355081154560,2021-06-10,104.0878479628,30.622664447059,整租,/权属核验/公寓/精装/随时看房/,有,免费使用,民水,民电,有,集中供暖,2021-07-02 17:32:35,成都
武侯-川音-凯悦新城,33.07㎡,东南,1室0厅1卫,低楼层（12层）,1900 元/月,CD2676717836835504128,2021-06-27,104.08859,30.642812,整租,//权属核验/近地铁/随时看房/,有,暂无数据,民水,民电,有,暂无数据,2021-07-02 17:32:43,成都
武侯-丽都-红城,43.34㎡,东南,2室1厅1卫,中楼层（18层）,2500 元/月,CD2816821316496400384,2021-06-27,104.033353,30.632489,整租,/权属核验/新上/精装/,有,租用车位,民水,民电,有,自采暖,2021-07-02 17:32:51,成都
武侯-双楠-月光琉域,79.13㎡,东南,2室1厅1卫,中楼层（17层）,3300 元/月,CD2790608120647254016,2021-06-27,104.03473054,30.64604515,整租,//权属核验/近地铁/随时看房/,有,租用车位,民水,民电,有,自采暖,2021-07-02 17:32:59,成都
武侯-航空路-双发金英汇,62.82㎡,南,2室1厅1卫,低楼层（18层）,3800 元/月,CD2791255384726446080,2021-06-08,104.08357473,30.61968939,整租,/权属核验/精装/,有,租用车位,民水,民电,有,暂无数据,2021-07-02 17:33:04,成都
武侯-五大花园-会所花园,8.00㎡,南,5室1厅2卫,低楼层（16层）,610 元/月,CD2489840609163493376,2021-06-29,104.0088930666,30.653978579308,合租,/权属核验/公寓/近地铁/精装/押一付一/随时看房/,有,租用车位,民水,民电,有,暂无数据,2021-07-02 17:33:06,成都
武侯-桐梓林-首座,125.98㎡,南,2室2厅2卫,中楼层（29层）,7200 元/月,CD2790645082414653440,2021-06-27,104.072856,30.619156,整租,/权属核验/精装/双卫生间/,有,暂无数据,民水,民电,有,自采暖,2021-07-02 17:33:10,成都
武侯-簇桥-龙湖紫都城,40.89㎡,东南,1室1厅1卫,中楼层（11层）,3100 元/月,CD2791818567933501440,2021-06-26,103.989413,30.627094,整租,/权属核验/近地铁/精装/,无,暂无数据,商水,商电,有,暂无数据,2021-07-02 17:33:13,成都
武侯-武侯立交-中华名园二期,89.00㎡,南北,3室2厅1卫,低楼层（16层）,3000 元/月,CD2791170592148029440,2021-06-30,104.009217,30.640381,整租,/权属核验/,有,暂无数据,民水,民电,有,自采暖,2021-07-02 17:33:15,成都
武侯-桐梓林-首座,128.34㎡,南,2室2厅2卫,高楼层（29层）,8000 元/月,CD2791425476177444864,2021-06-27,104.072856,30.619156,整租,/权属核验/精装/双卫生间/,有,暂无数据,民水,民电,有,自采暖,2021-07-02 17:33:23,成都
武侯-新双楠-金隅珑熙汇,49.00㎡,南,1室1厅1卫,中楼层（16层）,2400 元/月,CD2791267004693356544,2021-06-30,104.003206,30.627293,整租,//权属核验/近地铁/精装/,有,暂无数据,商水,商电,无,暂无数据,2021-07-02 17:33:32,成都
武侯-双楠-蜀馨苑A区,12.00㎡,南,4室1厅1卫,高楼层（7层）,750 元/月,CD2621623405497024512,2021-06-29,104.03451206474,30.653780634867,合租,/权属核验/公寓/精装/押一付一/随时看房/,无,租用车位,民水,民电,有,暂无数据,2021-07-02 17:33:41,成都
武侯-草金立交-榕苑,90.36㎡,东,3室2厅1卫,低楼层（7层）,2400 元/月,CD2792750038362112000,2021-07-01,103.998578,30.641795,整租,//权属核验/随时看房/,无,暂无数据,民水,民电,有,自采暖,2021-07-02 17:33:48,成都
武侯-武侯祠-彩虹花园,16.00㎡,南,5室1厅1卫,低楼层（7层）,950 元/月,CD2506471593312518144,2021-06-29,104.05947187677,30.657773657958,合租,/权属核验/公寓/精装/押一付一/随时看房/,无,租用车位,民水,民电,有,暂无数据,2021-07-02 17:33:50,成都
武侯-川音-莱茵河畔,193.58㎡,北,4室2厅2卫,低楼层（32层）,6500 元/月,CD2792628356335026176,2021-06-27,104.090854,30.646546,整租,/权属核验/双卫生间/随时看房/,有,暂无数据,民水,民电,有,暂无数据,2021-07-02 17:33:56,成都
武侯-红牌楼-南棠蜜邸,58.85㎡,东东南,2室1厅1卫,高楼层（15层）,3200 元/月,CD2817245953898323968,2021-06-29,104.034715,30.640782,整租,//权属核验/新上/精装/随时看房/,有,租用车位,民水,民电,有,暂无数据,2021-07-02 17:34:05,成都
武侯-丽都-维港,86.54㎡,东南,2室1厅1卫,高楼层（18层）,3400 元/月,CD2817523534908637184,2021-06-29,104.037225,30.629623,整租,/权属核验/新上/近地铁/精装/,有,暂无数据,民水,民电,有,自采暖,2021-07-02 17:34:08,成都
武侯-丽都-中粮香颂丽都,84.94㎡,东南,3室1厅1卫,低楼层（19层）,3800 元/月,CD2817464992608567296,2021-06-27,104.039321,30.628869,整租,/权属核验/新上/近地铁/精装/,有,暂无数据,民水,民电,有,暂无数据,2021-07-02 17:34:17,成都
武侯-双楠-月光琉域,101.94㎡,西南,2室2厅1卫,中楼层（17层）,3600 元/月,CD2817927189256224768,2021-07-01,104.03473054,30.64604515,整租,//权属核验/新上/近地铁/精装/随时看房/,有,租用车位,民水,民电,有,自采暖,2021-07-02 17:34:22,成都
武侯-双楠-巴黎阳光,123.10㎡,西北,3室2厅2卫,低楼层（7层）,4200 元/月,CD2817981479445856256,2021-06-29,104.039857,30.646755,整租,/权属核验/新上/近地铁/精装/双卫生间/,有,暂无数据,民水,民电,有,自采暖,2021-07-02 17:34:27,成都
武侯-丽都-置信丽都花园A区,153.95㎡,东南,4室2厅2卫,中楼层（7层）,5200 元/月,CD2792109701477965824,2021-06-27,104.041302,30.636649,整租,//权属核验/精装/双卫生间/随时看房/,无,租用车位,民水,民电,有,自采暖,2021-07-02 17:34:30,成都
武侯-双楠-富港花园,9.00㎡,南,5室1厅2卫,高楼层（17层）,600 元/月,CD2739055349951897600,2021-06-29,104.03098294676,30.651525139947,合租,/权属核验/公寓/精装/押一付一/随时看房/,有,租用车位,民水,民电,有,暂无数据,2021-07-02 17:34:36,成都
武侯-航空路-商鼎国际,65.39㎡,东南,1室1厅1卫,高楼层（28层）,3500 元/月,CD2792111773665468416,2021-06-27,104.07393757,30.62465649,整租,/权属核验/近地铁/,有,暂无数据,民水,民电,有,自采暖,2021-07-02 17:34:39,成都
武侯-双楠-双楠华苑,16.00㎡,南,4室1厅2卫,中楼层（7层）,999 元/月,CD2739059168253591552,2021-06-29,104.03302848496,30.649645512307,合租,/权属核验/公寓/精装/押一付一/随时看房/,无,租用车位,民水,民电,有,暂无数据,2021-07-02 17:34:44,成都
武侯-丽都-优客联邦一期,63.04㎡,东南,2室1厅1卫,低楼层（16层）,2900 元/月,CD2792838002966274048,2021-06-27,104.03824234,30.63947438,整租,/权属核验/近地铁/精装/,有,租用车位,民水,民电,有,暂无数据,2021-07-02 17:34:50,成都
武侯-双楠-富港花园,16.00㎡,南,5室1厅2卫,高楼层（17层）,899 元/月,CD2793429718362767360,2021-06-29,104.03098294676,30.651525139947,合租,/权属核验/公寓/精装/押一付一/随时看房/,有,租用车位,民水,民电,有,暂无数据,2021-07-02 17:34:58,成都
武侯-五大花园-晶楠天地,93.00㎡,东南,4室2厅2卫,中楼层（10层）,8600 元/月,CD2762137250417885184,2021-06-07,104.01421,30.645186,整租,/权属核验/近地铁/精装/双卫生间/,有,租用车位,民水,民电,有,暂无数据,2021-07-02 17:35:02,成都
武侯-外双楠-顺达苑,12.00㎡,南,5室1厅2卫,低楼层（7层）,850 元/月,CD2804159339114807296,2021-06-29,104.026048,30.646251,合租,/权属核验/公寓/近地铁/精装/押一付一/随时看房/,无,租用车位,民水,民电,有,暂无数据,2021-07-02 17:35:07,成都
武侯-广福桥-瑞金广场,165.92㎡,南,1室0厅0卫,高楼层（16层）,6000 元/月,CD2486772406396657664,2021-06-27,104.04704153,30.64850049,整租,/权属核验/近地铁/,有,暂无数据,民水,民电,有,自采暖,2021-07-02 17:35:12,成都
武侯-广福桥-风华庭,19.00㎡,南,4室1厅2卫,中楼层（11层）,1050 元/月,CD2805786321186979840,2021-06-29,104.04126304475,30.648118368766,合租,/权属核验/公寓/精装/独立阳台/押一付一/随时看房/,有,租用车位,民水,民电,有,暂无数据,2021-07-02 17:35:16,成都
武侯-桐梓林-首座,126.50㎡,南,2室1厅2卫,低楼层（29层）,5200 元/月,CD2689050712314757120,2021-06-27,104.072856,30.619156,整租,/权属核验/近地铁/精装/双卫生间/随时看房/,有,租用车位,民水,民电,有,自采暖,2021-07-02 17:35:23,成都
武侯-双楠-百花公寓,15.00㎡,南,4室1厅2卫,中楼层（7层）,950 元/月,CD2687615678043144192,2021-06-29,104.03921108173,30.655176204599,合租,/权属核验/公寓/精装/押一付一/随时看房/,无,租用车位,民水,民电,有,暂无数据,2021-07-02 17:35:29,成都
武侯-玉林-华宇蓉国府,114.20㎡,北,3室1厅2卫,高楼层（33层）,6100 元/月,CD2690566471217848320,2021-06-27,104.071518,30.634446,整租,/权属核验/近地铁/精装/双卫生间/随时看房/,有,租用车位,民水,民电,有,自采暖,2021-07-02 17:35:38,成都
武侯-川音-临江路9号,71.75㎡,南,3室1厅1卫,高楼层（6层）,4000 元/月,CD2694045049116958720,2021-06-26,104.079347,30.649539,整租,/权属核验/精装/随时看房/,无,暂无数据,民水,民电,有,暂无数据,2021-07-02 17:35:42,成都
武侯-双楠-富港花园,20.00㎡,南,5室1厅2卫,高楼层（17层）,1199 元/月,CD2813609572500520960,2021-06-29,104.03098294676,30.651525139947,合租,/权属核验/公寓/独立卫生间/精装/押一付一/随时看房/,有,租用车位,民水,民电,有,暂无数据,2021-07-02 17:35:50,成都
武侯-外双楠-云影苑,100.00㎡,北,2室1厅1卫,高楼层（7层）,3500 元/月,CD2695615739897061376,2021-06-26,104.02451,30.652711,整租,/权属核验/精装/,无,租用车位,民水,民电,有,自采暖,2021-07-02 17:35:55,成都
武侯-外双楠-鹭岛国际三期,141.68㎡,南,3室2厅2卫,中楼层（17层）,6500 元/月,CD2334033584341655552,2021-06-28,104.016718,30.652062,整租,/权属核验/近地铁/精装/双卫生间/,有,租用车位,民水,民电,有,自采暖,2021-07-02 17:36:03,成都
武侯-外双楠-西藏花园,104.00㎡,东,3室1厅1卫,中楼层（6层）,2600 元/月,CD2315809769384329216,2021-06-27,104.018738,30.654546,整租,/权属核验/近地铁/,无,暂无数据,民水,民电,有,暂无数据,2021-07-02 17:36:08,成都
武侯-航空路-商鼎国际,145.08㎡,南北,1室1厅0卫,中楼层（28层）,10999 元/月,CD2312307248879378432,2021-06-30,104.07393757,30.62465649,整租,/权属核验/近地铁/精装/,有,暂无数据,商水,商电,无,自采暖,2021-07-02 17:36:14,成都
武侯-桐梓林-首座,230.78㎡,南北,4室1厅3卫,高楼层（29层）,13000 元/月,CD2287460654740938752,2021-06-27,104.072856,30.619156,整租,/权属核验/近地铁/随时看房/,有,租用车位,民水,民电,有,自采暖,2021-07-02 17:36:22,成都
武侯-川音-华西美庐,74.81㎡,南北,3室2厅2卫,高楼层（28层）,9000 元/月,CD2694954093834936320,2021-06-27,104.073334,30.645082,整租,/权属核验/近地铁/双卫生间/,有,暂无数据,民水,民电,有,自采暖,2021-07-02 17:36:28,成都
武侯-火车南站-保利天悦,94.00㎡,南,2室1厅1卫,低楼层（41层）,6800 元/月,CD2805853847334166528,2021-06-10,104.0878479628,30.622664447059,整租,/权属核验/公寓/精装/随时看房/,有,免费使用,民水,民电,有,集中供暖,2021-07-02 17:36:35,成都
武侯-外双楠-鹭岛国际一二期,273.00㎡,东南,4室2厅4卫,中楼层（11层）,16000 元/月,CD2696368477928955904,2021-06-27,104.017929,30.65095,整租,/权属核验/近地铁/精装/,有,暂无数据,民水,民电,有,自采暖,2021-07-02 17:36:43,成都
武侯-新双楠-华宇楠苑,72.82㎡,东南,3室1厅1卫,低楼层（11层）,3500 元/月,CD2298573954945916928,2021-07-01,104.001841,30.632119,整租,/权属核验/新上/近地铁/精装/随时看房/,有,暂无数据,民水,民电,有,自采暖,2021-07-02 17:36:49,成都
武侯-火车南站-绿地GIC贰期,146.00㎡,东,4室2厅2卫,高楼层（39层）,4300 元/月,CD2302843020754042880,2021-06-24,104.085365,30.623668,整租,/权属核验/近地铁/双卫生间/随时看房/,有,租用车位,民水,民电,有,暂无数据,2021-07-02 17:36:57,成都
武侯-川音-锦江花园城,88.85㎡,西北,2室1厅1卫,中楼层（29层）,4000 元/月,CD2352884541053468672,2021-06-27,104.086067,30.649697,整租,/权属核验/近地铁/,有,租用车位,民水,民电,有,自采暖,2021-07-02 17:37:03,成都
武侯-五大花园-中央花园二期,10.00㎡,东,1室0厅0卫,高楼层（7层）,500 元/月,CD2471488383508561920,2021-06-23,104.00496152,30.65968976,合租,/权属核验/,无,暂无数据,民水,民电,有,自采暖,2021-07-02 17:37:08,成都
武侯-外双楠-花间兰庭,73.00㎡,东南,2室1厅1卫,高楼层（14层）,3000 元/月,CD2469648303176810496,2021-06-26,104.02044838,30.65004233,整租,/权属核验/近地铁/精装/,有,暂无数据,民水,民电,有,自采暖,2021-07-02 17:37:16,成都
武侯-桐梓林-桐梓林欧城,177.02㎡,西,4室3厅2卫,低楼层（21层）,11000 元/月,CD2701265098487365632,2021-06-20,104.067457,30.61725,整租,/权属核验/近地铁/精装/双卫生间/随时看房/,有,暂无数据,民水,民电,有,暂无数据,2021-07-02 17:37:20,成都
武侯-火车南站-保利天悦,55.86㎡,南,1室1厅1卫,高楼层（41层）,5000 元/月,CD2805882082851553280,2021-06-10,104.0878479628,30.622664447059,整租,/权属核验/公寓/精装/随时看房/,有,免费使用,民水,民电,有,集中供暖,2021-07-02 17:37:27,成都
武侯-航空路-华尔兹广场(武侯),41.32㎡,南,1室0厅1卫,低楼层（24层）,2600 元/月,CD2699225251392798720,2021-06-27,104.07817754,30.62249227,整租,//权属核验/近地铁/精装/随时看房/,有,租用车位,民水,民电,有,暂无数据,2021-07-02 17:37:35,成都
武侯-火车南站-保利天悦,95.00㎡,南,2室2厅1卫,中楼层（41层）,6800 元/月,CD2805900966094970880,2021-06-10,104.0878479628,30.622664447059,整租,/权属核验/公寓/精装/随时看房/,有,免费使用,民水,民电,有,集中供暖,2021-07-02 17:37:40,成都
武侯-丽都-优客联邦二期,75.07㎡,东南,2室1厅1卫,中楼层（17层）,2600 元/月,CD2702749901179330560,2021-06-27,104.03692235,30.63833776,整租,/权属核验/近地铁/随时看房/,有,租用车位,民水,民电,有,暂无数据,2021-07-02 17:37:45,成都
武侯-火车南站-保利天悦,55.00㎡,南,1室1厅1卫,低楼层（41层）,4600 元/月,CD2805893340724199424,2021-06-10,104.0878479628,30.622664447059,整租,/权属核验/公寓/精装/随时看房/,有,免费使用,民水,民电,有,集中供暖,2021-07-02 17:37:51,成都
武侯-棕北-人民南路四段9号院,69.00㎡,北,3室0厅1卫,中楼层（7层）,2500 元/月,CD2699119969354399744,2021-06-27,104.079191,30.638264,整租,/权属核验/随时看房/,无,暂无数据,民水,民电,有,暂无数据,2021-07-02 17:37:55,成都
武侯-火车南站-保利天悦,55.76㎡,南,1室1厅1卫,中楼层（41层）,5600 元/月,CD2783616985937231872,2021-06-10,104.0878479628,30.622664447059,整租,/权属核验/公寓/精装/随时看房/,有,租用车位,民水,民电,有,自采暖,2021-07-02 17:38:04,成都
武侯-火车南站-美丽南庭,118.00㎡,东,3室1厅1卫,中楼层（11层）,3500 元/月,CD2428761419844960256,2021-06-27,104.085481,30.613396,整租,/权属核验/近地铁/随时看房/,有,租用车位,民水,民电,有,自采暖,2021-07-02 17:38:07,成都
武侯-火车南站-保利天悦,57.27㎡,南,1室1厅1卫,中楼层（41层）,5600 元/月,CD2783847860687609856,2021-06-10,104.0878479628,30.622664447059,整租,/权属核验/公寓/精装/随时看房/,有,租用车位,民水,民电,有,自采暖,2021-07-02 17:38:14,成都
武侯-华西-金茂礼都,63.38㎡,东南,2室1厅1卫,低楼层（28层）,4000 元/月,CD2756364090317750272,2021-07-01,104.061527,30.643802,整租,/权属核验/精装/随时看房/,有,租用车位,民水,民电,有,自采暖,2021-07-02 17:38:24,成都
武侯-外双楠-西藏阳光苑,136.06㎡,东,3室1厅2卫,中楼层（7层）,3300 元/月,CD2703424426246152192,2021-06-27,104.025707,30.64984,整租,/权属核验/近地铁/双卫生间/,无,租用车位,民水,民电,有,自采暖,2021-07-02 17:38:27,成都
武侯-红牌楼-银泰香樟林,79.61㎡,西南,2室1厅1卫,低楼层（17层）,2900 元/月,CD2704368612848189440,2021-06-11,104.031293,30.642606,整租,/权属核验/近地铁/随时看房/,有,暂无数据,民水,民电,有,暂无数据,2021-07-02 17:38:33,成都
武侯-外双楠-丽景华庭二期,41.48㎡,东南,1室0厅1卫,低楼层（16层）,1900 元/月,CD2700662877517250560,2021-06-26,104.017511,30.657217,整租,/权属核验/近地铁/精装/,有,暂无数据,民水,民电,有,自采暖,2021-07-02 17:38:42,成都
武侯-桐梓林-桐梓林欧城,88.14㎡,南,2室1厅1卫,低楼层（22层）,4200 元/月,CD2702988288893403136,2021-07-01,104.067457,30.61725,整租,/权属核验/精装/随时看房/,有,暂无数据,民水,民电,有,暂无数据,2021-07-02 17:38:45,成都
武侯-川音-华西美庐,140.00㎡,北,3室2厅2卫,高楼层（28层）,5800 元/月,CD2705045718074400768,2021-06-27,104.073334,30.645082,整租,/权属核验/近地铁/双卫生间/随时看房/,有,暂无数据,民水,民电,有,自采暖,2021-07-02 17:38:51,成都
武侯-丽都-时代丽都美语,91.20㎡,西南,3室2厅1卫,中楼层（11层）,3400 元/月,CD2708015574822428672,2021-06-27,104.038701,30.631565,整租,/权属核验/近地铁/精装/,有,暂无数据,民水,民电,有,自采暖,2021-07-02 17:38:55,成都
武侯-棕北-盛隆街3号,91.74㎡,南,3室2厅1卫,中楼层（6层）,3100 元/月,CD2707922084918460416,2021-06-15,104.077813,30.628217,整租,/权属核验/近地铁/精装/,无,租用车位,民水,民电,有,暂无数据,2021-07-02 17:38:58,成都
武侯-华西-金茂礼都,33.96㎡,东南,1室0厅0卫,低楼层（28层）,1650 元/月,CD2760174982989889536,2021-06-30,104.061527,30.643802,整租,/权属核验/精装/,有,租用车位,民水,民电,有,自采暖,2021-07-02 17:39:03,成都
武侯-火车南站-保利天悦,67.43㎡,南,1室1厅1卫,中楼层（41层）,5600 元/月,CD2783855444416790528,2021-06-10,104.0878479628,30.622664447059,整租,/权属核验/公寓/精装/随时看房/,有,租用车位,民水,民电,有,自采暖,2021-07-02 17:39:09,成都
武侯-五大花园-红运花园佳苑,144.00㎡,西北,3室2厅2卫,高楼层（7层）,2900 元/月,CD2759270952545296384,2021-06-27,104.01239,30.654554,整租,/权属核验/近地铁/双卫生间/,无,租用车位,民水,民电,有,暂无数据,2021-07-02 17:39:16,成都
武侯-桐梓林-桐梓林欧城,53.33㎡,东,1室1厅1卫,高楼层（20层）,2900 元/月,CD2633305389554204672,2021-06-27,104.067457,30.61725,整租,/权属核验/近地铁/精装/,有,暂无数据,民水,民电,有,暂无数据,2021-07-02 17:39:22,成都
武侯-高升桥-罗浮世家二期,115.15㎡,东南,3室2厅2卫,高楼层（17层）,3900 元/月,CD2738205218679832576,2021-06-27,104.044699,30.642207,整租,/权属核验/近地铁/精装/双卫生间/,有,租用车位,民水,民电,有,自采暖,2021-07-02 17:39:27,成都
武侯-航空路-商鼎国际,75.00㎡,西,2室1厅1卫,低楼层（28层）,4100 元/月,CD2676163371354824704,2021-06-20,104.07393757,30.62465649,整租,/权属核验/近地铁/精装/,有,租用车位,民水,民电,有,自采暖,2021-07-02 17:39:34,成都
武侯-簇桥-龙湖紫都城,40.00㎡,东东南,1室0厅0卫,中楼层（11层）,1700 元/月,CD2688368088206295040,2021-06-27,103.989413,30.627094,整租,/权属核验/近地铁/,无,暂无数据,商水,商电,有,暂无数据,2021-07-02 17:39:38,成都
武侯-火车南站-保利天悦,57.46㎡,东,1室0厅1卫,低楼层（42层）,5000 元/月,CD2755791667603972096,2021-07-01,104.088721,30.622587,整租,/权属核验/精装/,有,暂无数据,民水,民电,有,暂无数据,2021-07-02 17:39:46,成都
武侯-火车南站-保利天悦,94.66㎡,东,2室2厅1卫,低楼层（42层）,7000 元/月,CD2755756921544769536,2021-06-03,104.088721,30.622587,未知,/权属核验/精装/,有,暂无数据,民水,民电,有,暂无数据,2021-07-02 17:39:48,成都
武侯-火车南站-保利天悦,57.00㎡,南,1室1厅1卫,中楼层（41层）,4800 元/月,CD2805898041658449920,2021-06-10,104.0878479628,30.622664447059,整租,/权属核验/公寓/精装/随时看房/,有,免费使用,民水,民电,有,集中供暖,2021-07-02 17:39:56,成都
武侯-桐梓林-兴彩苑,143.00㎡,北,3室2厅2卫,中楼层（20层）,4000 元/月,CD2407162693497651200,2021-06-30,104.07322806,30.61734829,整租,/权属核验/近地铁/双卫生间/,有,暂无数据,民水,民电,有,自采暖,2021-07-02 17:40:03,成都
武侯-火车南站-保利天悦,95.00㎡,东南,2室2厅1卫,低楼层（41层）,6800 元/月,CD2805169698269315072,2021-06-09,104.0878479628,30.622664447059,整租,/权属核验/公寓/精装/随时看房/,有,免费使用,民水,民电,有,集中供暖,2021-07-02 17:40:10,成都
武侯-桐梓林-芳草地,98.00㎡,南,2室1厅1卫,中楼层（7层）,3500 元/月,CD2469564453864620032,2021-06-30,104.070411,30.61991,整租,/权属核验/近地铁/,无,暂无数据,民水,民电,有,自采暖,2021-07-02 17:40:19,成都
武侯-火车南站-保利天悦,55.00㎡,南,1室1厅1卫,中楼层（41层）,5000 元/月,CD2805866585636470784,2021-06-10,104.0878479628,30.622664447059,整租,/权属核验/公寓/精装/随时看房/,有,免费使用,民水,民电,有,集中供暖,2021-07-02 17:40:25,成都
武侯-外双楠-云影苑,102.00㎡,南西北,3室1厅1卫,低楼层（7层）,3500 元/月,CD2758044873348628480,2021-06-27,104.02451,30.652711,整租,/权属核验/精装/,无,暂无数据,民水,民电,有,自采暖,2021-07-02 17:40:29,成都
武侯-外双楠-溢阳绿城,88.24㎡,东南,2室1厅1卫,中楼层（6层）,2800 元/月,CD2704909300383350784,2021-07-02,104.02269275679,30.653033258951,整租,/权属核验/公寓/近地铁/精装/,有,租用车位,民水,民电,有,自采暖,2021-07-02 17:40:37,成都
武侯-红牌楼-太平盛世D区,15.00㎡,西南,5室1厅1卫,中楼层（13层）,900 元/月,CD2715245133997285376,2021-07-01,104.02995617647,30.639782187483,合租,/公寓/近地铁/精装/押一付一/随时看房/,有,免费使用,民水,民电,有,集中供暖,2021-07-02 17:40:42,成都
武侯-红牌楼-太平盛世D区,10.00㎡,西南,5室1厅1卫,中楼层（13层）,610 元/月,CD2423135862822289408,2021-07-01,104.02995617647,30.639782187483,合租,/公寓/近地铁/精装/独立阳台/押一付一/随时看房/,有,免费使用,民水,民电,有,集中供暖,2021-07-02 17:40:46,成都
武侯-红牌楼-花样年华四期,79.76㎡,东南,2室2厅2卫,高楼层（6层）,2500 元/月,CD2786933018944872448,2021-06-27,104.032638,30.644145,整租,/权属核验/精装/双卫生间/,无,租用车位,民水,民电,有,暂无数据,2021-07-02 17:40:51,成都
武侯-五大花园-中央花园二期,8.00㎡,南,5室1厅2卫,高楼层（7层）,599 元/月,CD2780316553751560192,2021-07-01,104.00323371247,30.659086420713,合租,/权属核验/公寓/月租/精装/押一付一/随时看房/,无,租用车位,民水,民电,有,自采暖,2021-07-02 17:40:56,成都
武侯-五大花园-双景秀庭,12.00㎡,南,4室1厅1卫,低楼层（12层）,800 元/月,CD2780341896064024576,2021-07-01,104.01141238059,30.656571994935,合租,/权属核验/公寓/月租/近地铁/随时看房/,有,租用车位,民水,民电,有,自采暖,2021-07-02 17:41:05,成都
武侯-五大花园-邻里中央,34.21㎡,东南,1室0厅1卫,中楼层（8层）,1600 元/月,CD2786934196235403264,2021-06-29,104.00997,30.646316,整租,/权属核验/精装/,有,租用车位,商水,商电,有,暂无数据,2021-07-02 17:41:09,成都
武侯-武侯立交-中粮祥云二期,90.58㎡,南,2室1厅1卫,中楼层（17层）,3600 元/月,CD2786995438199242752,2021-06-28,104.012666,30.636516,整租,//权属核验/随时看房/,有,租用车位,民水,民电,有,自采暖,2021-07-02 17:41:15,成都
武侯-棕北-盘谷花园,144.32㎡,南,3室1厅2卫,低楼层（18层）,4700 元/月,CD2761441916251291648,2021-06-27,104.074401,30.628961,整租,/权属核验/双卫生间/随时看房/,有,租用车位,民水,民电,有,暂无数据,2021-07-02 17:41:18,成都
武侯-五大花园-皇家别墅,172.92㎡,南,5室2厅3卫,低楼层（2层）,6850 元/月,CD2760916398506254336,2021-06-29,104.007355,30.666051,整租,/权属核验/精装/随时看房/,无,暂无数据,民水,民电,有,自采暖,2021-07-02 17:41:27,成都
武侯-高升桥-营盛大厦,44.35㎡,东南,1室0厅1卫,中楼层（12层）,2300 元/月,CD2760072636326756352,2021-06-27,104.043446,30.638303,整租,/权属核验/精装/,有,租用车位,民水,民电,有,暂无数据,2021-07-02 17:41:34,成都
武侯-川音-锦江花园城,149.31㎡,东南,2室1厅1卫,中楼层（29层）,4000 元/月,CD2157805123772874752,2021-06-27,104.086067,30.649697,整租,/权属核验/近地铁/随时看房/,有,租用车位,民水,民电,有,自采暖,2021-07-02 17:41:41,成都
武侯-高升桥-红牌楼北街6号,10.00㎡,南,4室1厅1卫,高楼层（8层）,700 元/月,CD2780297891640508416,2021-07-01,104.04088109478,30.642601367818,合租,/权属核验/公寓/月租/近地铁/精装/随时看房/,无,租用车位,民水,民电,有,自采暖,2021-07-02 17:41:46,成都
武侯-五大花园-互盛佳苑,95.00㎡,西南,3室1厅1卫,高楼层（17层）,3500 元/月,CD2787771570331066368,2021-06-27,104.008685,30.656189,整租,/权属核验/近地铁/随时看房/,有,暂无数据,民水,民电,有,自采暖,2021-07-02 17:41:51,成都
武侯-桐梓林-桐梓林欧城,150.26㎡,南北,4室2厅1卫,高楼层（21层）,14000 元/月,CD2788229054191910912,2021-06-29,104.067457,30.61725,整租,/权属核验/近地铁/精装/随时看房/,有,暂无数据,民水,民电,有,暂无数据,2021-07-02 17:41:59,成都
武侯-丽都-优地B区,83.69㎡,东南,2室2厅1卫,高楼层（17层）,3000 元/月,CD2787082483546456064,2021-06-27,104.034736,30.637919,整租,/权属核验/近地铁/精装/,有,暂无数据,民水,民电,有,自采暖,2021-07-02 17:42:02,成都
武侯-新双楠-保利花园一期,76.95㎡,东南,2室1厅1卫,中楼层（16层）,2400 元/月,CD2789182811062673408,2021-06-30,104.001386,30.628011,整租,/权属核验/,有,暂无数据,民水,民电,有,自采暖,2021-07-02 17:42:08,成都
武侯-双楠-金科双楠天都,36.54㎡,东南,1室0厅1卫,高楼层（17层）,2200 元/月,CD2788933713688805376,2021-06-27,104.034178,30.646455,整租,/权属核验/近地铁/随时看房/,有,暂无数据,商水,民电,有,自采暖,2021-07-02 17:42:16,成都
武侯-川大-棕榈花园,137.00㎡,南,4室2厅2卫,高楼层（18层）,4200 元/月,CD2789017524816052224,2021-07-01,104.08495,30.627004,整租,/权属核验/精装/双卫生间/,有,暂无数据,民水,民电,有,暂无数据,2021-07-02 17:42:22,成都
武侯-川大-棕东小区,164.21㎡,东南,4室1厅1卫,低楼层（7层）,4800 元/月,CD2788476621223632896,2021-06-26,104.088074,30.631494,整租,/权属核验/随时看房/,有,租用车位,民水,民电,有,自采暖,2021-07-02 17:42:25,成都
武侯-五大花园-龙湖金楠天街,12.00㎡,东,4室1厅2卫,中楼层（24层）,600 元/月,CD2663873783793713152,2021-06-16,104.00147783618,30.652246920848,合租,/权属核验/公寓/月租/精装/押一付一/随时看房/,有,免费使用,民水,民电,有,集中供暖,2021-07-02 17:42:33,成都
武侯-航空路-新华苑(武侯),77.33㎡,南,2室1厅1卫,中楼层（8层）,3000 元/月,CD2788955380263157760,2021-06-27,104.07513073,30.61810177,整租,//权属核验/近地铁/随时看房/,有,暂无数据,暂无数据,暂无数据,有,暂无数据,2021-07-02 17:42:42,成都
武侯-华西-洗面桥街23号,51.48㎡,东,2室1厅1卫,高楼层（6层）,2400 元/月,CD2789108782721417216,2021-06-27,104.060648,30.644206,整租,//权属核验/近地铁/随时看房/,无,暂无数据,民水,民电,有,暂无数据,2021-07-02 17:42:46,成都
武侯-川音-望江华庭,15.00㎡,西南,4室1厅2卫,中楼层（28层）,1200 元/月,CD2674686051058196480,2021-06-28,104.08713942754,30.646840546889,合租,/公寓/精装/独立阳台/随时看房/,有,免费使用,民水,民电,有,暂无数据,2021-07-02 17:42:52,成都
武侯-红牌楼-九峰国际,41.28㎡,东南,2室1厅1卫,低楼层（18层）,2400 元/月,CD2788962515864780800,2021-06-27,104.030992,30.636027,整租,/权属核验/精装/,有,租用车位,民水,民电,有,自采暖,2021-07-02 17:42:58,成都
武侯-玉林-玉林品上,38.72㎡,南,1室0厅1卫,低楼层（27层）,2300 元/月,CD2788459556865581056,2021-06-27,104.067023,30.638035,整租,/权属核验/精装/,有,暂无数据,民水,民电,有,暂无数据,2021-07-02 17:43:07,成都
武侯-五大花园-中央花园精一区,15.00㎡,东南,5室1厅1卫,高楼层（6层）,650 元/月,CD2800686298543955968,2021-06-23,104.0033664268,30.657793432283,合租,/权属核验/公寓/精装/随时看房/,无,租用车位,民水,民电,有,自采暖,2021-07-02 17:43:13,成都
武侯-火车南站-中国水电泛悦国际,76.55㎡,西北,3室2厅1卫,低楼层（31层）,2800 元/月,CD2759562324779212800,2021-06-26,104.085104,30.618703,整租,/权属核验/随时看房/,有,暂无数据,民水,民电,有,暂无数据,2021-07-02 17:43:22,成都
武侯-棕北-保利中心,71.74㎡,东南,1室0厅1卫,低楼层（21层）,6800 元/月,CD2763610314854637568,2021-06-22,104.077419,30.630663,整租,/权属核验/近地铁/随时看房/,有,暂无数据,民水,民电,有,自采暖,2021-07-02 17:43:31,成都
武侯-五大花园-晋阳市场,10.00㎡,南,4室1厅1卫,高楼层（8层）,650 元/月,CD2801526237674618880,2021-07-01,104.007704,30.65497,合租,/权属核验/公寓/月租/近地铁/精装/随时看房/,无,租用车位,民水,民电,无,自采暖,2021-07-02 17:43:34,成都
武侯-红牌楼-怡顺苑,10.00㎡,南,4室1厅1卫,中楼层（8层）,700 元/月,CD2801611128978022400,2021-07-01,104.033353,30.645399,合租,/权属核验/公寓/月租/近地铁/精装/随时看房/,无,租用车位,民水,民电,有,自采暖,2021-07-02 17:43:43,成都
武侯-红牌楼-东原印长江,160.00㎡,南北,3室2厅2卫,高楼层（8层）,10000 元/月,CD2762146478372683776,2021-06-27,104.028655,30.637141,整租,/权属核验/精装/双卫生间/随时看房/,无,暂无数据,暂无数据,暂无数据,有,暂无数据,2021-07-02 17:43:47,成都
武侯-棕北-保利中心,71.77㎡,南,1室0厅1卫,高楼层（21层）,6000 元/月,CD2761684484972879872,2021-06-27,104.077419,30.630663,整租,/权属核验/近地铁/随时看房/,有,暂无数据,民水,民电,有,自采暖,2021-07-02 17:43:51,成都
武侯-丽都-下一站都市,82.77㎡,东南,2室1厅1卫,中楼层（17层）,3000 元/月,CD2816518045382475776,2021-06-25,104.028937,30.631708,整租,/权属核验/近地铁/精装/,有,暂无数据,民水,民电,有,暂无数据,2021-07-02 17:43:59,成都
武侯-五大花园-园中园西苑,18.00㎡,南,4室1厅1卫,中楼层（7层）,750 元/月,CD2788459665640390656,2021-07-01,104.00998714754,30.649988139134,合租,/权属核验/公寓/月租/精装/押一付一/随时看房/,无,租用车位,民水,民电,有,自采暖,2021-07-02 17:44:02,成都
武侯-棕北-SOHO沸城,35.00㎡,南,1室1厅1卫,中楼层（12层）,2300 元/月,CD2543373727530221568,2021-07-01,104.08200616746,30.629924288663,整租,/权属核验/公寓/月租/近地铁/精装/随时看房/,有,租用车位,民水,民电,有,暂无数据,2021-07-02 17:44:08,成都
武侯-川大-郭家桥正街2号,9.00㎡,西南,4室1厅1卫,低楼层（7层）,680 元/月,CD2338260887447535616,2021-07-01,104.08946154607,30.626947982565,合租,/权属核验/公寓/随时看房/,无,租用车位,民水,民电,有,暂无数据,2021-07-02 17:44:13,成都
武侯-丽都-交大万通格外,64.00㎡,东南,2室1厅1卫,低楼层（18层）,2800 元/月,CD2817254578133663744,2021-07-01,104.033678,30.630053,整租,//权属核验/新上/近地铁/精装/,有,租用车位,民水,民电,有,暂无数据,2021-07-02 17:44:18,成都
武侯-丽都-幸福时光,41.54㎡,南,1室0厅1卫,中楼层（12层）,1700 元/月,CD2817513399465295872,2021-06-27,104.038514,30.632458,整租,/权属核验/新上/近地铁/,有,暂无数据,民水,民电,有,暂无数据,2021-07-02 17:44:27,成都
武侯-红牌楼-竹园一期,18.00㎡,南,4室1厅1卫,中楼层（7层）,830 元/月,CD2412126438280413184,2021-06-26,104.03052455639,30.646797471046,合租,/权属核验/公寓/近地铁/精装/押一付一/随时看房/,无,租用车位,民水,民电,有,自采暖,2021-07-02 17:44:32,成都
武侯-丽都-优客联邦三期,89.66㎡,南,3室2厅1卫,低楼层（18层）,1300 元/月,CD2818172704803528704,2021-06-30,104.037631,30.637797,合租,//权属核验/新上/近地铁/精装/随时看房/,有,暂无数据,民水,民电,有,自采暖,2021-07-02 17:44:35,成都
武侯-簇桥-金茂府,188.00㎡,东南,4室2厅2卫,中楼层（12层）,11000 元/月,CD2718065194273079296,2021-06-27,103.984913,30.62259,整租,/权属核验/精装/双卫生间/,无,暂无数据,民水,民电,暂无数据,暂无数据,2021-07-02 17:44:41,成都
武侯-航空路-锦官新城西区,171.98㎡,北,3室2厅2卫,中楼层（9层）,7000 元/月,CD2712126257713659904,2021-06-27,104.07808248,30.62479724,整租,/权属核验/近地铁/精装/双卫生间/,有,租用车位,民水,民电,有,自采暖,2021-07-02 17:44:46,成都
武侯-桐梓林-凯莱帝景,265.72㎡,东南,5室2厅3卫,高楼层（31层）,14000 元/月,CD2724455327524732928,2021-06-27,104.07291,30.622767,整租,/权属核验/随时看房/,有,租用车位,民水,民电,有,自采暖,2021-07-02 17:44:48,成都
武侯-棕北-棕南正街8号,90.00㎡,南,3室1厅1卫,高楼层（7层）,2900 元/月,CD2763801976839356416,2021-06-27,104.081894,30.628835,整租,/权属核验/精装/,无,租用车位,民水,民电,有,自采暖,2021-07-02 17:44:54,成都
武侯-新双楠-华宇楠苑,122.00㎡,南,3室2厅2卫,高楼层（11层）,4400 元/月,CD2763070457849847808,2021-06-27,104.001841,30.632119,整租,/权属核验/近地铁/双卫生间/随时看房/,有,暂无数据,民水,民电,有,自采暖,2021-07-02 17:45:02,成都
武侯-川大-樱花假日,78.00㎡,西南西西北,2室1厅1卫,中楼层（12层）,3680 元/月,CD2525131379377700864,2021-06-28,104.08384896045,30.628342797123,整租,/权属核验/公寓/精装/随时看房/,有,免费使用,民水,民电,有,集中供暖,2021-07-02 17:45:06,成都
武侯-川大-川大花园（南园）,124.60㎡,南,3室2厅2卫,中楼层（11层）,5800 元/月,CD2763941306660028416,2021-06-27,104.08526,30.628507,整租,/权属核验/双卫生间/,有,暂无数据,民水,民电,有,自采暖,2021-07-02 17:45:08,成都
武侯-草金立交-杜鹃花园,15.00㎡,东,5室1厅2卫,低楼层（15层）,650 元/月,CD2564902919539531776,2021-07-01,103.983775,30.647423,合租,/权属核验/公寓/近地铁/精装/独立阳台/押一付一/随时看房/,有,免费使用,民水,民电,有,集中供暖,2021-07-02 17:45:14,成都
武侯-簇桥-世纪百合商业广场,30.00㎡,南,1室1厅1卫,中楼层（13层）,1659 元/月,CD2622420612630716416,2021-06-29,103.99218366851,30.607469851196,整租,/权属核验/公寓/近地铁/精装/,有,租用车位,商水,商电,有,暂无数据,2021-07-02 17:45:17,成都
武侯-龙湾-加怡名城,48.00㎡,东南,1室1厅1卫,低楼层（12层）,2000 元/月,CD2636164818582634496,2021-06-30,104.02063150486,30.658612328483,整租,/权属核验/公寓/近地铁/精装/,有,租用车位,民水,民电,有,自采暖,2021-07-02 17:45:23,成都
武侯-航空路-华尔兹广场(武侯),69.66㎡,北,1室1厅1卫,高楼层（24层）,2600 元/月,CD2763632483521003520,2021-06-27,104.07817754,30.62249227,整租,/权属核验/近地铁/精装/,有,租用车位,民水,民电,有,暂无数据,2021-07-02 17:45:26,成都
武侯-丽都-红城,79.31㎡,东南,3室1厅1卫,高楼层（18层）,3000 元/月,CD2764536762017005568,2021-06-27,104.033353,30.632489,整租,/权属核验/精装/,有,暂无数据,民水,民电,有,自采暖,2021-07-02 17:45:31,成都
武侯-双楠-安居花园,10.00㎡,北,5室1厅2卫,中楼层（8层）,550 元/月,CD2654148876160221184,2021-06-26,104.03558943962,30.650732198284,合租,/公寓/月租/精装/随时看房/,无,免费使用,民水,民电,有,集中供暖,2021-07-02 17:45:36,成都
武侯-红牌楼-新界二期,120.00㎡,东,3室1厅2卫,低楼层（8层）,5500 元/月,CD2764499798588391424,2021-06-20,104.022295,30.63489,整租,/权属核验/近地铁/精装/双卫生间/随时看房/,有,暂无数据,民水,民电,有,自采暖,2021-07-02 17:45:39,成都
武侯-红牌楼-南华苑,71.99㎡,东,2室1厅1卫,高楼层（11层）,2600 元/月,CD2765226136463220736,2021-06-27,104.03134427,30.64562539,整租,//权属核验/随时看房/,有,租用车位,民水,民电,有,暂无数据,2021-07-02 17:45:42,成都
武侯-航空路-桐梓林7号,89.52㎡,东南,2室1厅1卫,低楼层（25层）,5000 元/月,CD2765937056269213696,2021-06-28,104.078166,30.621657,整租,/权属核验/近地铁/精装/,无,暂无数据,民水,民电,暂无数据,暂无数据,2021-07-02 17:45:49,成都
武侯-双楠-同樂苑,18.00㎡,西北,5室0厅3卫,中楼层（26层）,700 元/月,CD2653729486662803456,2021-05-27,104.04624778056,30.653764559031,合租,/公寓/月租/精装/随时看房/,有,租用车位,民水,民电,有,自采暖,2021-07-02 17:45:57,成都
武侯-新双楠-保利花园二期,132.00㎡,东南,3室2厅2卫,中楼层（15层）,6000 元/月,CD2726657033129967616,2021-07-01,103.999587,30.627082,整租,/权属核验/精装/双卫生间/随时看房/,有,租用车位,民水,民电,有,自采暖,2021-07-02 17:46:03,成都
武侯-簇桥-新希望锦悦楠庭,13.00㎡,东,5室1厅2卫,中楼层（8层）,550 元/月,CD2666632265748193280,2021-07-01,103.97074,30.618056,合租,/权属核验/公寓/近地铁/精装/独立阳台/押一付一/随时看房/,有,免费使用,民水,民电,有,集中供暖,2021-07-02 17:46:12,成都
武侯-桐梓林-桐梓林欧城,77.85㎡,东,2室1厅1卫,低楼层（20层）,3500 元/月,CD2726175324646670336,2021-06-27,104.067457,30.61725,整租,/权属核验/精装/,有,租用车位,民水,民电,有,暂无数据,2021-07-02 17:46:16,成都
武侯-高升桥-罗浮世家二期,160.59㎡,南,3室2厅2卫,低楼层（17层）,4500 元/月,CD2725452501003812864,2021-06-27,104.044699,30.642207,整租,/权属核验/近地铁/精装/双卫生间/随时看房/,有,暂无数据,民水,民电,有,自采暖,2021-07-02 17:46:25,成都
武侯-簇桥-永仁苑,45.00㎡,西北,1室1厅1卫,低楼层（13层）,1959 元/月,CD2671044766175084544,2021-06-22,103.99657149275,30.614975314911,整租,/公寓/精装/,无,租用车位,民水,民电,有,暂无数据,2021-07-02 17:46:33,成都
武侯-棕北-盘谷花园,65.00㎡,南北,3室2厅2卫,高楼层（18层）,5700 元/月,CD2686282834641436672,2021-06-27,104.074401,30.628961,整租,/权属核验/近地铁/双卫生间/随时看房/,有,租用车位,民水,民电,有,暂无数据,2021-07-02 17:46:39,成都
武侯-桐梓林-新加坡花园,127.19㎡,南,3室2厅2卫,低楼层（11层）,4500 元/月,CD2688917335150444544,2021-07-01,104.064466,30.616795,整租,/权属核验/精装/双卫生间/随时看房/,有,暂无数据,民水,民电,有,自采暖,2021-07-02 17:46:44,成都
武侯-华西-小天公寓,25.00㎡,南,5室1厅2卫,高楼层（7层）,950 元/月,CD2740435636267270144,2021-06-18,104.06224413329,30.641752855824,合租,/权属核验/公寓/近地铁/精装/独立阳台/随时看房/,无,免费使用,民水,民电,有,集中供暖,2021-07-02 17:46:53,成都
武侯-航空路-华尔兹广场(武侯),73.33㎡,东,2室2厅1卫,中楼层（24层）,3500 元/月,CD2685470329731817472,2021-06-20,104.07817754,30.62249227,整租,/权属核验/近地铁/精装/随时看房/,有,租用车位,民水,民电,有,暂无数据,2021-07-02 17:47:00,成都
武侯-华西-一环路南三段,15.00㎡,南,5室1厅2卫,高楼层（6层）,680 元/月,CD2810833117945282560,2021-06-18,104.06903868007,30.640833115229,合租,/权属核验/公寓/近地铁/精装/随时看房/,无,免费使用,民水,民电,有,集中供暖,2021-07-02 17:47:03,成都
武侯-双楠-百花福园(百花正街),97.65㎡,南,3室1厅1卫,中楼层（7层）,2400 元/月,CD2685478567604920320,2021-06-27,104.03987054,30.6568146,整租,/权属核验/,无,暂无数据,民水,民电,有,自采暖,2021-07-02 17:47:09,成都
武侯-簇桥-龙湖紫都城,49.21㎡,东南,1室0厅0卫,中楼层（11层）,1600 元/月,CD2683969256529870848,2021-06-27,103.989413,30.627094,整租,/权属核验/近地铁/,无,暂无数据,商水,商电,有,暂无数据,2021-07-02 17:47:14,成都
武侯-棕北-成科路1号,13.00㎡,南,3室1厅1卫,中楼层（6层）,1050 元/月,CD2298397861983305728,2021-06-23,104.07651,30.632399,合租,/权属核验/公寓/近地铁/精装/独立阳台/,无,租用车位,民水,民电,有,暂无数据,2021-07-02 17:47:17,成都
武侯-丽都-丽都帝景,177.70㎡,东,4室1厅2卫,高楼层（11层）,4200 元/月,CD2684776124168544256,2021-06-27,104.0362108,30.62899063,整租,/权属核验/近地铁/双卫生间/随时看房/,有,租用车位,民水,民电,有,自采暖,2021-07-02 17:47:21,成都
武侯-武侯立交-中华名园三期C区,96.00㎡,南,4室0厅1卫,低楼层（16层）,3000 元/月,CD2511462493310951424,2021-07-02,104.00735499635,30.641374781034,整租,/权属核验/公寓/随时看房/,有,租用车位,民水,民电,有,自采暖,2021-07-02 17:47:27,成都
武侯-航空路-翠云庭,96.50㎡,南北,2室1厅2卫,高楼层（12层）,3800 元/月,CD2689086549596831744,2021-06-27,104.076144,30.622684,整租,/权属核验/近地铁/双卫生间/,有,租用车位,民水,民电,有,自采暖,2021-07-02 17:47:30,成都
武侯-五大花园-颐和雅居,12.00㎡,南,4室1厅1卫,中楼层（13层）,700 元/月,CD2800689034245185536,2021-07-02,104.00510492496,30.657589253676,合租,/权属核验/公寓/月租/近地铁/随时看房/,有,租用车位,民水,民电,有,自采暖,2021-07-02 17:47:35,成都
武侯-川音-华西大厦,146.58㎡,东南,4室2厅2卫,中楼层（19层）,12000 元/月,CD2749230934175268864,2021-06-27,104.074618,30.643057,整租,/权属核验/精装/双卫生间/,有,暂无数据,民水,民电,有,自采暖,2021-07-02 17:47:44,成都
武侯-五大花园-亿通新天地,27.60㎡,南西南,1室2厅1卫,中楼层（13层）,3850 元/月,CD2753411709765943296,2021-06-27,104.008848,30.659815,整租,/权属核验/近地铁/随时看房/,有,暂无数据,商水,商电,无,暂无数据,2021-07-02 17:47:52,成都
武侯-五大花园-颐和雅居,10.00㎡,南,4室1厅1卫,中楼层（13层）,599 元/月,CD2752814528110018560,2021-07-02,104.00510492496,30.657589253676,合租,/权属核验/公寓/月租/近地铁/独立阳台/押一付一/随时看房/,有,租用车位,民水,民电,有,自采暖,2021-07-02 17:47:59,成都
武侯-五大花园-金林俊景,89.60㎡,南,3室1厅1卫,低楼层（17层）,3200 元/月,CD2751554688766705664,2021-06-26,104.014503,30.656988,整租,/权属核验/近地铁/精装/,有,租用车位,民水,民电,有,自采暖,2021-07-02 17:48:04,成都
武侯-桐梓林-桐梓林欧城,56.00㎡,东,1室1厅1卫,中楼层（20层）,3200 元/月,CD2694746636110012416,2021-06-27,104.067457,30.61725,整租,/权属核验/精装/,有,暂无数据,民水,民电,有,暂无数据,2021-07-02 17:48:08,成都
武侯-玉林-祥福苑(武侯),158.70㎡,南,4室2厅2卫,低楼层（22层）,5500 元/月,CD2694921208167661568,2021-06-27,104.071261,30.626888,整租,/权属核验/精装/双卫生间/随时看房/,有,暂无数据,民水,民电,有,自采暖,2021-07-02 17:48:14,成都
武侯-五大花园-颐和雅居,12.00㎡,南,4室1厅1卫,中楼层（13层）,600 元/月,CD2752844959337160704,2021-07-02,104.00510492496,30.657589253676,合租,/权属核验/公寓/月租/近地铁/随时看房/,有,租用车位,民水,民电,有,自采暖,2021-07-02 17:48:22,成都
武侯-火车南站-保利天悦,57.00㎡,南,1室1厅1卫,中楼层（42层）,4500 元/月,CD2755814353394737152,2021-06-21,104.088721,30.622587,整租,/权属核验/精装/随时看房/,有,暂无数据,民水,民电,有,暂无数据,2021-07-02 17:48:27,成都
武侯-武侯立交-红帆蓝调,34.79㎡,西南,1室0厅1卫,低楼层（16层）,1500 元/月,CD2663016624696860672,2021-07-02,104.01171708696,30.637536639733,整租,/权属核验/公寓/近地铁/精装/随时看房/,有,免费使用,商水,商电,无,集中供暖,2021-07-02 17:48:35,成都
武侯-火车南站-保利天悦,55.68㎡,东南南,1室1厅1卫,中楼层（42层）,4800 元/月,CD2755130880300695552,2021-06-26,104.088721,30.622587,整租,/权属核验/精装/,有,暂无数据,民水,民电,有,暂无数据,2021-07-02 17:48:39,成都
武侯-川音-伊顿社区,64.59㎡,西北,2室1厅1卫,低楼层（20层）,3300 元/月,CD2755736968544657408,2021-06-27,104.079328,30.646102,整租,/权属核验/,有,暂无数据,民水,民电,有,自采暖,2021-07-02 17:48:44,成都
武侯-新双楠-保利花园五期悦榕郡,105.43㎡,南,3室2厅2卫,中楼层（17层）,3500 元/月,CD2755657600141107200,2021-06-30,103.995027,30.623338,整租,/权属核验/精装/双卫生间/,有,租用车位,民水,民电,有,暂无数据,2021-07-02 17:48:51,成都
武侯-火车南站-保利天悦,79.00㎡,北,2室2厅1卫,高楼层（42层）,5500 元/月,CD2754235611387789312,2021-06-26,104.088721,30.622587,整租,/权属核验/精装/随时看房/,有,暂无数据,民水,民电,有,暂无数据,2021-07-02 17:48:54,成都
武侯-红牌楼-银泰香樟林,88.88㎡,南,2室1厅1卫,高楼层（14层）,3200 元/月,CD2755627267354009600,2021-06-27,104.031293,30.642606,整租,/权属核验/随时看房/,有,暂无数据,商水,商电,有,暂无数据,2021-07-02 17:49:00,成都
武侯-火车南站-阳光春天,15.00㎡,东南,5室0厅2卫,中楼层（18层）,850 元/月,CD2501143282747719680,2021-06-28,104.08977201714,30.614531391402,合租,/权属核验/公寓/近地铁/精装/随时看房/,有,免费使用,民水,民电,有,集中供暖,2021-07-02 17:49:03,成都
武侯-火车南站-中国水电泛悦国际,7.00㎡,东南,4室1厅1卫,低楼层（34层）,718 元/月,CD2704958348498829312,2021-06-23,104.08621041567,30.618686317983,合租,/权属核验/公寓/精装/押一付一/随时看房/,有,免费使用,民水,民电,有,暂无数据,2021-07-02 17:49:08,成都
武侯-火车南站-美丽南庭,25.00㎡,南,4室1厅2卫,低楼层（32层）,1390 元/月,CD2780287734496108544,2021-06-23,104.08613692993,30.612721764596,合租,/权属核验/公寓/独立卫生间/近地铁/精装/押一付一/随时看房/,有,租用车位,民水,民电,有,暂无数据,2021-07-02 17:49:11,成都
武侯-桐梓林-上锦雅筑,16.00㎡,南,5室1厅2卫,低楼层（26层）,1030 元/月,CD2786020699222327296,2021-06-23,104.06567141057,30.613903317127,合租,/权属核验/公寓/月租/近地铁/精装/押一付一/随时看房/,有,租用车位,民水,民电,有,暂无数据,2021-07-02 17:49:14,成都
武侯-五大花园-会所花园,10.00㎡,南,5室0厅1卫,高楼层（16层）,750 元/月,CD2801744335048015872,2021-07-02,104.0088930666,30.653978579308,合租,/权属核验/公寓/月租/近地铁/随时看房/,有,租用车位,民水,民电,有,自采暖,2021-07-02 17:49:23,成都
武侯-五大花园-会所花园,6.00㎡,南,5室0厅1卫,高楼层（16层）,501 元/月,CD2751443600008560640,2021-07-02,104.0088930666,30.653978579308,合租,/权属核验/公寓/月租/近地铁/押一付一/随时看房/,有,租用车位,民水,民电,有,自采暖,2021-07-02 17:49:30,成都
武侯-簇桥-西派城B区,135.03㎡,北,4室2厅2卫,中楼层（14层）,4500 元/月,CD2499292123380056064,2021-06-23,103.989311,30.620879,整租,/权属核验/近地铁/精装/双卫生间/随时看房/,有,暂无数据,民水,民电,有,暂无数据,2021-07-02 17:49:33,成都
武侯-五大花园-正基城市主场,14.00㎡,北,3室1厅1卫,低楼层（32层）,990 元/月,CD2676903529578233856,2021-06-24,104.014309,30.655594,合租,/权属核验/公寓/近地铁/精装/独立阳台/随时看房/,有,暂无数据,民水,民电,有,暂无数据,2021-07-02 17:49:39,成都
武侯-五大花园-双景秀庭,22.00㎡,北,4室1厅2卫,中楼层（31层）,850 元/月,CD2740690474535747584,2021-06-24,104.01141238059,30.656571994935,合租,/权属核验/公寓/近地铁/精装/独立阳台/随时看房/,有,暂无数据,民水,民电,有,暂无数据,2021-07-02 17:49:44,成都
武侯-桐梓林-桐梓林欧城,56.63㎡,东,1室1厅1卫,中楼层（20层）,3500 元/月,CD2705059865294290944,2021-06-27,104.067457,30.61725,整租,/权属核验/精装/,有,暂无数据,民水,民电,有,暂无数据,2021-07-02 17:49:51,成都
武侯-簇桥-龙湖紫都城,41.00㎡,东南西北,1室0厅0卫,中楼层（11层）,2400 元/月,CD2703392601637126144,2021-06-30,103.989413,30.627094,整租,/权属核验/近地铁/随时看房/,无,暂无数据,商水,商电,有,暂无数据,2021-07-02 17:49:56,成都
武侯-双楠-名都苑,143.01㎡,东,4室3厅2卫,高楼层（6层）,4500 元/月,CD2531176182427156480,2021-06-27,104.0386531,30.65134856,整租,/权属核验/精装/双卫生间/随时看房/,无,租用车位,民水,民电,有,自采暖,2021-07-02 17:50:04,成都
武侯-五大花园-交大庭院,10.00㎡,北,4室1厅2卫,中楼层（8层）,750 元/月,CD2703601697061601280,2021-06-24,104.01000539452,30.647895791101,合租,/权属核验/公寓/精装/随时看房/,无,暂无数据,民水,民电,有,暂无数据,2021-07-02 17:50:12,成都
武侯-五大花园-翠堤春晓,10.00㎡,北,4室1厅2卫,高楼层（7层）,680 元/月,CD2676905539371270144,2021-06-24,104.01148887941,30.663022499566,合租,/权属核验/公寓/近地铁/精装/随时看房/,无,暂无数据,民水,民电,有,暂无数据,2021-07-02 17:50:21,成都
武侯-火车南站-绿地GIC,81.42㎡,东,2室1厅1卫,低楼层（45层）,6000 元/月,CD2501405874246131712,2021-06-24,104.085055,30.625356,整租,/权属核验/近地铁/随时看房/,有,租用车位,民水,民电,有,暂无数据,2021-07-02 17:50:29,成都
武侯-五大花园-中央花园一期,12.00㎡,北,5室1厅2卫,中楼层（6层）,520 元/月,CD2739740757819654144,2021-06-24,104.0078067,30.66176638,合租,/权属核验/公寓/近地铁/精装/随时看房/,暂无数据,暂无数据,暂无数据,暂无数据,暂无数据,暂无数据,2021-07-02 17:50:31,成都
武侯-桐梓林-首座,126.24㎡,南,2室1厅2卫,中楼层（29层）,7000 元/月,CD2568179973160706048,2021-06-26,104.072856,30.619156,整租,/权属核验/近地铁/双卫生间/随时看房/,有,暂无数据,民水,民电,有,自采暖,2021-07-02 17:50:35,成都
武侯-武侯立交-中海熙苑一期,113.29㎡,南西南,3室1厅2卫,高楼层（18层）,5500 元/月,CD2547160606805327872,2021-06-27,104.005095,30.641861,整租,/权属核验/精装/双卫生间/随时看房/,有,租用车位,暂无数据,暂无数据,有,暂无数据,2021-07-02 17:50:42,成都
武侯-桐梓林-首座,125.98㎡,南,2室1厅2卫,中楼层（29层）,7000 元/月,CD2539628490177642496,2021-06-26,104.072856,30.619156,整租,/权属核验/近地铁/精装/双卫生间/,有,暂无数据,民水,民电,有,自采暖,2021-07-02 17:50:50,成都
武侯-桐梓林-首座,128.88㎡,南,2室1厅2卫,中楼层（29层）,5000 元/月,CD2538534997779030016,2021-06-20,104.072856,30.619156,整租,/权属核验/近地铁/精装/双卫生间/随时看房/,有,租用车位,民水,民电,有,自采暖,2021-07-02 17:50:54,成都
武侯-双楠-卫居苑,13.00㎡,北,4室1厅1卫,高楼层（7层）,736 元/月,CD2684898404253048832,2021-06-24,104.036874,30.651999,合租,/权属核验/公寓/精装/随时看房/,无,暂无数据,民水,民电,有,暂无数据,2021-07-02 17:50:57,成都
武侯-五大花园-互盛佳苑,11.00㎡,北,4室1厅2卫,低楼层（22层）,656 元/月,CD2657924710012567552,2021-06-24,104.00865698738,30.656465429123,合租,/权属核验/公寓/近地铁/精装/随时看房/,有,免费使用,民水,民电,有,集中供暖,2021-07-02 17:51:03,成都
武侯-航空路-双发金英汇,93.43㎡,东南南,2室1厅1卫,高楼层（18层）,3500 元/月,CD2709359891348463616,2021-06-21,104.08357473,30.61968939,整租,/权属核验/精装/,有,暂无数据,民水,民电,有,暂无数据,2021-07-02 17:51:08,成都
武侯-航空路-商鼎国际,65.28㎡,东,1室1厅1卫,低楼层（28层）,3600 元/月,CD2714339573151825920,2021-06-08,104.07393757,30.62465649,整租,/权属核验/近地铁/精装/,有,暂无数据,民水,民电,有,自采暖,2021-07-02 17:51:14,成都
武侯-川大-川大与文里,99.00㎡,东东南,3室1厅1卫,中楼层（29层）,4500 元/月,CD2724486347740938240,2021-07-01,104.09593436736,30.641137747658,整租,/权属核验/精装/,有,暂无数据,暂无数据,暂无数据,有,暂无数据,2021-07-02 17:51:16,成都
武侯-五大花园-园中园东苑,11.00㎡,北,5室1厅2卫,高楼层（7层）,660 元/月,CD2676904466561122304,2021-06-24,104.011214,30.650554,合租,/权属核验/公寓/近地铁/精装/随时看房/,有,免费使用,民水,民电,有,集中供暖,2021-07-02 17:51:24,成都
武侯-外双楠-鹭岛国际三期,139.50㎡,南,3室2厅2卫,高楼层（16层）,5500 元/月,CD2725249640587853824,2021-06-23,104.016718,30.652062,整租,/权属核验/近地铁/精装/双卫生间/,有,租用车位,民水,民电,有,自采暖,2021-07-02 17:51:28,成都
武侯-五大花园-合能珍宝金楠,7.00㎡,北,4室1厅2卫,低楼层（29层）,890 元/月,CD2657920610256297984,2021-06-24,104.00781513499,30.663315078856,合租,/权属核验/公寓/近地铁/精装/随时看房/,有,免费使用,民水,民电,有,集中供暖,2021-07-02 17:51:32,成都
武侯-棕北-保利中心,90.00㎡,南,3室1厅1卫,高楼层（37层）,4500 元/月,CD2725302247444447232,2021-06-27,104.077419,30.630663,整租,/权属核验/近地铁/精装/随时看房/,有,暂无数据,民水,民电,有,自采暖,2021-07-02 17:51:38,成都
武侯-桐梓林-桐梓林欧城,158.00㎡,东南北,3室1厅2卫,低楼层（21层）,5500 元/月,CD2554307386273964032,2021-06-27,104.067457,30.61725,整租,/权属核验/近地铁/精装/双卫生间/随时看房/,有,暂无数据,民水,民电,有,暂无数据,2021-07-02 17:51:44,成都
武侯-五大花园-瑞泰锦城,10.00㎡,北,4室1厅1卫,低楼层（30层）,790 元/月,CD2676905102391902208,2021-06-24,104.00445444293,30.654195382977,合租,/权属核验/公寓/精装/随时看房/,有,暂无数据,民水,民电,有,暂无数据,2021-07-02 17:51:49,成都
武侯-五大花园-会所花园,13.00㎡,北,3室1厅1卫,低楼层（20层）,810 元/月,CD2668793210729938944,2021-06-24,104.00696511561,30.653864171098,合租,/权属核验/公寓/精装/独立阳台/随时看房/,有,暂无数据,民水,民电,有,暂无数据,2021-07-02 17:51:56,成都
武侯-五大花园-会所花园,19.00㎡,北,4室1厅2卫,中楼层（20层）,1190 元/月,CD2739208249831604224,2021-06-24,104.0088930666,30.653978579308,合租,/权属核验/公寓/近地铁/精装/随时看房/,有,暂无数据,民水,民电,有,暂无数据,2021-07-02 17:52:05,成都
武侯-桐梓林-桐梓林欧城,86.83㎡,南,2室1厅1卫,低楼层（22层）,4500 元/月,CD2572546981587599360,2021-06-26,104.067457,30.61725,整租,/权属核验/近地铁/精装/,有,租用车位,民水,民电,有,暂无数据,2021-07-02 17:52:12,成都
武侯-五大花园-瑞泰锦城,62.00㎡,东南,2室1厅1卫,中楼层（16层）,2500 元/月,CD2555002072185978880,2021-07-01,104.004941,30.654587,整租,/权属核验/新上/随时看房/,有,暂无数据,民水,民电,有,暂无数据,2021-07-02 17:52:21,成都
武侯-簇桥-金茂府,130.00㎡,东南,3室2厅2卫,中楼层（12层）,9000 元/月,CD2585598129990533120,2021-06-27,103.984913,30.62259,整租,/权属核验/近地铁/精装/双卫生间/随时看房/,有,暂无数据,民水,民电,有,暂无数据,2021-07-02 17:52:24,成都
武侯-棕北-保利中心,85.94㎡,西,2室1厅0卫,高楼层（21层）,7000 元/月,CD2574632014297186304,2021-06-29,104.077419,30.630663,整租,/权属核验/近地铁/随时看房/,有,暂无数据,民水,民电,有,自采暖,2021-07-02 17:52:34,成都
武侯-双楠-双楠谊苑一期,75.19㎡,南,2室1厅1卫,中楼层（7层）,2000 元/月,CD2594745365328560128,2021-06-30,104.032063,30.651263,整租,//权属核验/随时看房/,无,暂无数据,民水,民电,有,自采暖,2021-07-02 17:52:38,成都
武侯-外双楠-溢阳绿城,143.69㎡,南,3室2厅2卫,高楼层（6层）,3500 元/月,CD2594200145864163328,2021-06-14,104.021626,30.652552,整租,/权属核验/近地铁/双卫生间/随时看房/,无,租用车位,民水,民电,有,自采暖,2021-07-02 17:52:44,成都
武侯-华西-一环路南三段11号,78.74㎡,东南,3室1厅1卫,高楼层（7层）,2300 元/月,CD2578750398408441856,2021-06-27,104.071225,30.639942,整租,/权属核验/近地铁/随时看房/,无,租用车位,暂无数据,暂无数据,有,暂无数据,2021-07-02 17:52:52,成都
武侯-川音-华西美庐,160.00㎡,东南,3室1厅1卫,低楼层（28层）,4800 元/月,CD2581016912360652800,2021-06-26,104.073334,30.645082,整租,/权属核验/近地铁/,有,暂无数据,民水,民电,有,自采暖,2021-07-02 17:53:00,成都
武侯-外双楠-鹭岛国际一二期,117.39㎡,北,2室2厅2卫,中楼层（11层）,4600 元/月,CD2605751110207537152,2021-06-30,104.017929,30.65095,整租,/权属核验/近地铁/精装/双卫生间/随时看房/,有,租用车位,民水,民电,有,自采暖,2021-07-02 17:53:06,成都
武侯-棕北-保利中心,77.00㎡,东南,2室0厅1卫,中楼层（21层）,2900 元/月,CD2633170382852997120,2021-06-09,104.077419,30.630663,整租,/权属核验/近地铁/精装/随时看房/,有,租用车位,民水,民电,有,自采暖,2021-07-02 17:53:08,成都
武侯-新双楠-置信丽都花园城D区,163.84㎡,南,5室2厅2卫,高楼层（13层）,6000 元/月,CD2631878751029567488,2021-06-23,104.005614,30.630557,整租,/权属核验/双卫生间/随时看房/,有,暂无数据,民水,民电,有,自采暖,2021-07-02 17:53:13,成都
武侯-双楠-菊园,78.94㎡,南,3室1厅2卫,中楼层（7层）,3000 元/月,CD2636722418013978624,2021-06-27,104.035801,30.65381,整租,/权属核验/精装/双卫生间/,无,租用车位,民水,民电,有,自采暖,2021-07-02 17:53:16,成都
武侯-红牌楼-月光诚品,85.36㎡,东南,2室1厅1卫,低楼层（12层）,3100 元/月,CD2630386840335040512,2021-06-30,104.017125,30.640673,整租,/权属核验/近地铁/精装/随时看房/,有,租用车位,民水,民电,有,自采暖,2021-07-02 17:53:19,成都
武侯-棕北-棕南西街4号,77.40㎡,东南,2室2厅1卫,低楼层（7层）,2500 元/月,CD2646367925434859520,2021-06-30,104.080101,30.629153,整租,/权属核验/近地铁/,无,租用车位,民水,民电,有,自采暖,2021-07-02 17:53:26,成都
武侯-草金立交-世豪嘉柏,49.52㎡,东南,1室0厅0卫,中楼层（19层）,2000 元/月,CD2647813135758524416,2021-06-27,103.99199,30.634765,整租,/权属核验/近地铁/随时看房/,有,暂无数据,商水,商电,有,暂无数据,2021-07-02 17:53:33,成都
武侯-川音-摩卡筑,62.91㎡,东南,2室1厅1卫,中楼层（18层）,2800 元/月,CD2646872267312865280,2021-06-27,104.088119,30.644847,整租,//权属核验/近地铁/随时看房/,有,暂无数据,民水,民电,有,暂无数据,2021-07-02 17:53:41,成都
武侯-棕北-保利中心,81.00㎡,东,2室1厅1卫,高楼层（21层）,15000 元/月,CD2641413558260203520,2021-06-25,104.077419,30.630663,整租,/权属核验/近地铁/精装/随时看房/,有,暂无数据,民水,民电,有,自采暖,2021-07-02 17:53:44,成都
武侯-棕北-保利中心,82.05㎡,西南,1室1厅1卫,高楼层（21层）,7200 元/月,CD2644719391954182144,2021-06-09,104.077419,30.630663,整租,/权属核验/近地铁/随时看房/,有,暂无数据,民水,民电,有,自采暖,2021-07-02 17:53:48,成都
武侯-棕北-保利中心,28.28㎡,南,1室0厅0卫,地下室,300 元/月,CD2643333464249597952,2021-06-18,104.077419,30.630663,整租,/权属核验/近地铁/精装/随时看房/,无,暂无数据,暂无数据,暂无数据,无,自采暖,2021-07-02 17:53:53,成都
武侯-航空路-锦官秀城南区,92.05㎡,南,1室1厅1卫,中楼层（18层）,3000 元/月,CD2652922672643571712,2021-06-20,104.081773,30.619461,整租,/权属核验/近地铁/精装/,有,暂无数据,民水,民电,有,暂无数据,2021-07-02 17:53:57,成都
武侯-航空路-丰德国际广场,78.00㎡,东,1室1厅1卫,中楼层（16层）,4300 元/月,CD2663720868580171776,2021-06-30,104.076526,30.622121,整租,/权属核验/近地铁/精装/,有,租用车位,商水,商电,有,自采暖,2021-07-02 17:54:05,成都
武侯-桐梓林-桐梓林欧城,56.69㎡,东,1室1厅1卫,低楼层（20层）,3100 元/月,CD2659484711709589504,2021-06-27,104.067457,30.61725,整租,/权属核验/精装/,有,租用车位,民水,民电,有,暂无数据,2021-07-02 17:54:08,成都
武侯-川音-雅典国际社区,330.00㎡,西南,4室2厅2卫,高楼层（25层）,14000 元/月,CD2659462055613956096,2021-06-27,104.085021,30.650013,整租,/权属核验/近地铁/双卫生间/,有,暂无数据,民水,民电,有,暂无数据,2021-07-02 17:54:14,成都
武侯-棕北-保利中心,90.00㎡,南,3室1厅1卫,低楼层（38层）,4000 元/月,CD2658708061044080640,2021-06-02,104.077419,30.630663,整租,/权属核验/近地铁/精装/随时看房/,有,租用车位,民水,民电,有,自采暖,2021-07-02 17:54:19,成都
武侯-川大-中海格林威治城,165.11㎡,南,1室0厅1卫,中楼层（31层）,12000 元/月,CD2663603727314984960,2021-07-01,104.095853,30.643857,整租,/权属核验/近地铁/,有,租用车位,民水,民电,有,暂无数据,2021-07-02 17:54:27,成都
武侯-桐梓林-桐梓林欧城,179.00㎡,南,4室2厅2卫,高楼层（21层）,15000 元/月,CD2667452479251423232,2021-06-27,104.067457,30.61725,整租,/权属核验/近地铁/精装/双卫生间/随时看房/,有,暂无数据,民水,民电,有,暂无数据,2021-07-02 17:54:35,成都
武侯-桐梓林-首座,127.96㎡,南北,2室2厅2卫,低楼层（29层）,6250 元/月,CD2667960784646045696,2021-06-27,104.072856,30.619156,整租,/权属核验/近地铁/精装/双卫生间/随时看房/,有,租用车位,民水,民电,有,自采暖,2021-07-02 17:54:43,成都
武侯-桐梓林-观南上域,153.51㎡,南,4室2厅2卫,低楼层（24层）,6250 元/月,CD2668977826141061120,2021-06-27,104.065149,30.623676,整租,/权属核验/精装/双卫生间/,有,暂无数据,民水,民电,有,自采暖,2021-07-02 17:54:45,成都
武侯-武侯立交-置信巴厘岛B区别墅,79.41㎡,东南,4室1厅3卫,高楼层（4层）,15000 元/月,CD2676586919529824256,2021-06-28,104.009911,30.634858,整租,/权属核验/精装/,有,暂无数据,民水,民电,有,自采暖,2021-07-02 17:54:51,成都
武侯-川音-大学路公寓,120.00㎡,东,3室1厅2卫,高楼层（7层）,3300 元/月,CD2675203448764366848,2021-06-26,104.08072,30.64943,整租,/权属核验/近地铁/双卫生间/随时看房/,无,暂无数据,民水,民电,有,自采暖,2021-07-02 17:54:56,成都
武侯-川音-南岸一家,300.00㎡,南,6室2厅3卫,高楼层（12层）,21000 元/月,CD2491919383601872896,2021-06-27,104.087703,30.648528,整租,/权属核验/近地铁/精装/随时看房/,有,暂无数据,民水,民电,有,暂无数据,2021-07-02 17:55:04,成都
武侯-桐梓林-紫檀,245.00㎡,南,5室2厅2卫,中楼层（28层）,9800 元/月,CD2536026425996083200,2021-06-26,104.071132,30.624991,整租,/权属核验/近地铁/双卫生间/,有,暂无数据,民水,民电,有,暂无数据,2021-07-02 17:55:11,成都
武侯-桐梓林-桐梓林欧城,147.86㎡,南,3室1厅2卫,中楼层（21层）,6000 元/月,CD2507006094904401920,2021-06-27,104.067457,30.61725,整租,/权属核验/近地铁/精装/双卫生间/随时看房/,有,暂无数据,民水,民电,有,暂无数据,2021-07-02 17:55:18,成都
武侯-棕北-保利中心,92.00㎡,南,2室1厅1卫,低楼层（36层）,4500 元/月,CD2599083236571488256,2021-06-27,104.077419,30.630663,整租,/权属核验/近地铁/,有,暂无数据,民水,民电,有,自采暖,2021-07-02 17:55:21,成都
武侯-川大-中海格林威治城,87.56㎡,东东南,2室1厅1卫,高楼层（30层）,3800 元/月,CD2724454933301559296,2021-06-26,104.095853,30.643857,整租,/权属核验/,有,暂无数据,民水,民电,有,暂无数据,2021-07-02 17:55:25,成都
武侯-外双楠-大华情融苑,89.00㎡,东南,4室2厅2卫,低楼层（11层）,4450 元/月,CD2727552167396786176,2021-06-25,104.023613,30.65525,整租,/权属核验/近地铁/精装/双卫生间/,有,暂无数据,民水,民电,有,自采暖,2021-07-02 17:55:29,成都
武侯-川音-胜利村110号附3号,44.47㎡,南西南,3室1厅1卫,高楼层（7层）,3500 元/月,CD2587724719427944448,2021-06-27,104.079617,30.644919,整租,/权属核验/近地铁/,无,暂无数据,暂无数据,暂无数据,暂无数据,暂无数据,2021-07-02 17:55:32,成都
武侯-高升桥-营盛大厦,42.64㎡,东南,1室0厅1卫,低楼层（12层）,2700 元/月,CD2803430764081840128,2021-06-27,104.043446,30.638303,整租,/权属核验/精装/,有,租用车位,民水,民电,有,暂无数据,2021-07-02 17:55:41,成都
武侯-红牌楼-武侯国际花园,66.61㎡,西北,1室2厅1卫,中楼层（13层）,2500 元/月,CD2803552011185307648,2021-06-30,104.022701,30.642236,整租,/权属核验/精装/,有,暂无数据,民水,民电,有,自采暖,2021-07-02 17:55:44,成都
武侯-桐梓林-观南上域,153.88㎡,南,4室2厅2卫,高楼层（24层）,6800 元/月,CD2803557342581628928,2021-06-27,104.065149,30.623676,整租,/权属核验/精装/双卫生间/,有,暂无数据,民水,民电,有,自采暖,2021-07-02 17:55:53,成都
武侯-丽都-优客联邦一期,75.27㎡,南,2室1厅1卫,中楼层（15层）,3400 元/月,CD2804195549589274624,2021-06-27,104.03824234,30.63947438,整租,/权属核验/近地铁/精装/,有,暂无数据,民水,民电,有,暂无数据,2021-07-02 17:55:59,成都
武侯-火车南站-保利天悦,79.00㎡,北,2室1厅1卫,中楼层（42层）,5500 元/月,CD2788209665962950656,2021-06-26,104.088721,30.622587,整租,/权属核验/精装/随时看房/,有,暂无数据,民水,民电,有,暂无数据,2021-07-02 17:56:06,成都
武侯-丽都-丽都花园丽府,149.85㎡,东南,未知室0厅0卫,地下室,500 元/月,CD2789054670982103040,2021-06-27,104.038283,30.626965,整租,/权属核验/近地铁/精装/,有,暂无数据,暂无数据,暂无数据,无,自采暖,2021-07-02 17:56:13,成都
武侯-红牌楼-双楠名城二期,66.00㎡,东,2室1厅1卫,中楼层（11层）,2500 元/月,CD2788469765826682880,2021-06-29,104.02979,30.644026,整租,/权属核验/近地铁/,有,租用车位,民水,民电,有,自采暖,2021-07-02 17:56:22,成都
武侯-簇桥-西派城D区,253.00㎡,东南,5室2厅3卫,中楼层（11层）,13000 元/月,CD2787688374314737664,2021-06-26,103.98953,30.618675,整租,/权属核验/精装/随时看房/,无,租用车位,暂无数据,暂无数据,有,暂无数据,2021-07-02 17:56:31,成都
武侯-火车南站-阳光春天,136.41㎡,东,3室2厅1卫,低楼层（18层）,3000 元/月,CD2789192911567732736,2021-06-25,104.0889,30.614152,整租,/权属核验/近地铁/,有,暂无数据,民水,民电,有,自采暖,2021-07-02 17:56:37,成都
武侯-丽都-丽都花园丽府,131.12㎡,东东南,3室1厅2卫,低楼层（18层）,6800 元/月,CD2790412350417805312,2021-06-27,104.038283,30.626965,整租,/权属核验/近地铁/精装/双卫生间/随时看房/,有,暂无数据,民水,民电,有,自采暖,2021-07-02 17:56:42,成都
武侯-武侯立交-金阳不夜都,62.00㎡,东南,2室1厅1卫,中楼层（19层）,3500 元/月,CD2789907866562609152,2021-06-17,103.992462,30.656268,整租,/权属核验/精装/随时看房/,有,暂无数据,商水,商电,有,暂无数据,2021-07-02 17:56:45,成都
武侯-丽都-优客联邦三期,53.97㎡,东南,2室1厅1卫,低楼层（18层）,3200 元/月,CD2790005755418247168,2021-06-27,104.037631,30.637797,整租,/权属核验/近地铁/精装/,有,租用车位,民水,民电,有,自采暖,2021-07-02 17:56:53,成都
武侯-川音-华西大厦,146.58㎡,东西,3室1厅2卫,高楼层（19层）,5500 元/月,CD2789813517027647488,2021-06-27,104.074618,30.643057,整租,/权属核验/双卫生间/,有,暂无数据,民水,民电,有,自采暖,2021-07-02 17:56:55,成都
武侯-五大花园-皇家花园,45.00㎡,西南西西北,1室1厅1卫,低楼层（33层）,1700 元/月,CD2804338736626933760,2021-06-30,104.00750985,30.66490215,整租,/权属核验/精装/随时看房/,无,暂无数据,暂无数据,暂无数据,暂无数据,暂无数据,2021-07-02 17:57:04,成都
武侯-草金立交-世豪嘉柏,91.15㎡,东,3室1厅2卫,中楼层（20层）,3200 元/月,CD2700732825346244608,2021-06-23,103.99199,30.634765,整租,/权属核验/近地铁/双卫生间/随时看房/,有,免费使用,民水,民电,有,暂无数据,2021-07-02 17:57:13,成都
武侯-川大-川大南园,86.99㎡,南,3室2厅1卫,高楼层（7层）,3800 元/月,CD2804290433604395008,2021-07-01,104.087342,30.63222,整租,/权属核验/精装/,无,暂无数据,暂无数据,暂无数据,暂无数据,暂无数据,2021-07-02 17:57:16,成都
武侯-丽都-置信丽都花园A区,122.86㎡,东南,3室1厅1卫,高楼层（7层）,3500 元/月,CD2701287528308146176,2021-06-30,104.041302,30.636649,整租,//权属核验/精装/随时看房/,无,租用车位,民水,民电,有,自采暖,2021-07-02 17:57:19,成都
武侯-桐梓林-桐梓林欧城,89.85㎡,南,2室1厅2卫,中楼层（22层）,5300 元/月,CD2700698866550054912,2021-06-20,104.067457,30.61725,整租,/权属核验/近地铁/精装/双卫生间/,有,暂无数据,民水,民电,有,暂无数据,2021-07-02 17:57:26,成都
武侯-新双楠-中铁瑞城三号线,52.80㎡,东,1室1厅1卫,低楼层（12层）,2200 元/月,CD2805151644181348352,2021-06-30,104.003061,30.633275,整租,//权属核验/精装/,有,租用车位,民水,民电,有,自采暖,2021-07-02 17:57:34,成都
武侯-外双楠-龙湾生活广场,52.75㎡,西南,2室1厅1卫,中楼层（7层）,2500 元/月,CD2703474846327128064,2021-07-01,104.019813,30.656436,整租,/权属核验/精装/,有,租用车位,商水,商电,有,暂无数据,2021-07-02 17:57:37,成都
武侯-棕北-保利中心,81.97㎡,东南,1室0厅0卫,高楼层（21层）,6000 元/月,CD2805156839573168128,2021-06-10,104.077419,30.630663,整租,/权属核验/近地铁/,有,暂无数据,民水,民电,有,自采暖,2021-07-02 17:57:44,成都
武侯-川大-太平南新街6号,27.73㎡,东,1室0厅1卫,中楼层（10层）,1800 元/月,CD2708678660168359936,2021-06-28,104.094557,30.644251,整租,//权属核验/随时看房/,有,暂无数据,民水,民电,有,暂无数据,2021-07-02 17:57:48,成都
武侯-棕北-棕南俊园,176.85㎡,东,3室2厅1卫,低楼层（15层）,6000 元/月,CD2805649784126578688,2021-06-27,104.083028,30.628113,整租,/权属核验/精装/随时看房/,有,暂无数据,民水,民电,有,暂无数据,2021-07-02 17:57:55,成都
武侯-高升桥-锦外中心,55.41㎡,北东北,1室0厅1卫,中楼层（20层）,2400 元/月,CD2739868841378324480,2021-06-27,104.047275,30.64623,整租,/权属核验/近地铁/,有,暂无数据,商水,商电,暂无数据,暂无数据,2021-07-02 17:57:57,成都
武侯-丽都-优客联邦一期,72.85㎡,东,1室1厅1卫,低楼层（15层）,2300 元/月,CD2741319557892546560,2021-06-27,104.03824234,30.63947438,整租,//权属核验/近地铁/随时看房/,有,租用车位,民水,民电,有,暂无数据,2021-07-02 17:58:03,成都
武侯-簇桥-时代锦绣,115.00㎡,南,3室2厅2卫,高楼层（14层）,3800 元/月,CD2741095176897568768,2021-06-07,103.997892,30.598301,整租,/权属核验/精装/双卫生间/,有,租用车位,民水,民电,有,自采暖,2021-07-02 17:58:07,成都
武侯-华西-阳城大厦,121.68㎡,东,3室1厅1卫,高楼层（18层）,3600 元/月,CD2741952507163967488,2021-06-27,104.060985,30.646217,整租,/权属核验/近地铁/,有,租用车位,民水,民电,有,暂无数据,2021-07-02 17:58:10,成都
武侯-玉林-华宇蓉国府,87.41㎡,东南,2室1厅1卫,高楼层（27层）,4800 元/月,CD2744213094229622784,2021-06-27,104.071518,30.634446,整租,/权属核验/精装/,有,租用车位,民水,民电,有,自采暖,2021-07-02 17:58:18,成都
武侯-广福桥-交通局宿舍,90.88㎡,南北,3室2厅1卫,高楼层（7层）,3000 元/月,CD2776762665454796800,2021-07-01,104.044753,30.648444,整租,/权属核验/近地铁/随时看房/,无,暂无数据,民水,民电,有,自采暖,2021-07-02 17:58:26,成都
武侯-龙湾-中海龙湾半岛,140.09㎡,南,3室2厅2卫,高楼层（18层）,5600 元/月,CD2775386980157505536,2021-06-27,104.023527,30.660847,整租,/权属核验/近地铁/精装/双卫生间/,有,租用车位,民水,民电,有,自采暖,2021-07-02 17:58:32,成都
武侯-龙湾-中海常春藤花园,102.35㎡,东,3室2厅1卫,高楼层（15层）,3300 元/月,CD2583219859554828288,2021-07-01,104.024114,30.659066,整租,//权属核验/近地铁/精装/随时看房/,有,暂无数据,民水,民电,有,暂无数据,2021-07-02 17:58:38,成都
武侯-桐梓林-凯莱帝景,160.23㎡,南,3室2厅2卫,高楼层（28层）,6300 元/月,CD2602201470514233344,2021-06-27,104.07291,30.622767,整租,/权属核验/近地铁/双卫生间/随时看房/,有,租用车位,民水,民电,有,自采暖,2021-07-02 17:58:41,成都
武侯-双楠-金科双楠天都,47.31㎡,南,1室0厅1卫,中楼层（17层）,2650 元/月,CD2610159947698143232,2021-06-27,104.034178,30.646455,整租,/权属核验/近地铁/精装/随时看房/,有,暂无数据,商水,商电,有,自采暖,2021-07-02 17:58:47,成都
武侯-双楠-紫藤花园,256.29㎡,南,5室1厅4卫,高楼层（14层）,4550 元/月,CD2728914475356004352,2021-06-27,104.032853,30.655825,整租,/权属核验/随时看房/,有,租用车位,民水,民电,有,自采暖,2021-07-02 17:58:56,成都
武侯-新双楠-华宇静苑一期,171.44㎡,南,4室2厅2卫,低楼层（11层）,6000 元/月,CD2726919768341741568,2021-06-20,104.003602,30.632034,整租,/权属核验/近地铁/精装/双卫生间/,有,租用车位,民水,民电,有,暂无数据,2021-07-02 17:59:04,成都
武侯-川音-华西美庐,262.22㎡,东南南,4室2厅1卫,高楼层（28层）,11000 元/月,CD2728914896204349440,2021-06-29,104.073334,30.645082,整租,/权属核验/近地铁/随时看房/,有,暂无数据,民水,民电,有,自采暖,2021-07-02 17:59:11,成都
武侯-桐梓林-首座,179.04㎡,南,3室2厅2卫,中楼层（29层）,13000 元/月,CD2628826449305673728,2021-06-27,104.072856,30.619156,整租,/权属核验/近地铁/精装/双卫生间/随时看房/,有,租用车位,民水,民电,有,自采暖,2021-07-02 17:59:15,成都
武侯-川音-临江路16号,51.00㎡,南,2室1厅1卫,中楼层（6层）,2600 元/月,CD2729655744214876160,2021-06-26,104.077829,30.650362,整租,//权属核验/近地铁/随时看房/,无,暂无数据,民水,民电,有,自采暖,2021-07-02 17:59:18,成都
武侯-川音-华西美庐,171.00㎡,南北,4室2厅2卫,低楼层（28层）,6000 元/月,CD2733210205369409536,2021-06-27,104.073334,30.645082,整租,/权属核验/近地铁/双卫生间/,有,暂无数据,民水,民电,有,自采暖,2021-07-02 17:59:20,成都
武侯-桐梓林-首座,128.84㎡,南北,2室1厅2卫,低楼层（29层）,6000 元/月,CD2733193807822077952,2021-06-26,104.072856,30.619156,整租,/权属核验/近地铁/精装/双卫生间/,有,暂无数据,民水,民电,有,自采暖,2021-07-02 17:59:28,成都
武侯-火车南站-君悦领地,99.55㎡,南,3室1厅1卫,高楼层（18层）,3500 元/月,CD2732016680313028608,2021-06-17,104.083223,30.614873,整租,/权属核验/近地铁/,有,暂无数据,民水,民电,有,自采暖,2021-07-02 17:59:35,成都
武侯-双楠-雅然居,155.25㎡,东南,3室2厅2卫,中楼层（15层）,5000 元/月,CD2619396421039685632,2021-06-30,104.034902,30.656634,整租,/权属核验/精装/双卫生间/,有,租用车位,民水,民电,有,暂无数据,2021-07-02 17:59:38,成都
武侯-航空路-曼哈顿自然派,208.85㎡,南,4室2厅2卫,高楼层（16层）,6550 元/月,CD2639680221933993984,2021-06-16,104.079267,30.620225,整租,/权属核验/近地铁/精装/双卫生间/随时看房/,有,租用车位,民水,民电,有,暂无数据,2021-07-02 17:59:46,成都
武侯-华西-教育学院教师公寓,123.95㎡,东,3室1厅1卫,中楼层（31层）,3800 元/月,CD2639638691110461440,2021-06-27,104.071351,30.643686,整租,/权属核验/近地铁/精装/随时看房/,有,租用车位,民水,民电,有,自采暖,2021-07-02 17:59:55,成都
武侯-川大-川大花园（南园）,112.78㎡,东南南,3室2厅2卫,高楼层（11层）,4500 元/月,CD2636925179753930752,2021-06-27,104.08526,30.628507,整租,/权属核验/近地铁/双卫生间/随时看房/,有,暂无数据,民水,民电,有,自采暖,2021-07-02 17:59:58,成都
武侯-五大花园-交大花园南苑,104.10㎡,东南,2室1厅1卫,低楼层（7层）,2800 元/月,CD2636255857880875008,2021-06-27,104.007252,30.661608,整租,/权属核验/精装/,无,暂无数据,民水,民电,有,自采暖,2021-07-02 18:00:03,成都
武侯-外双楠-西藏阳光苑,137.32㎡,东南,3室2厅2卫,中楼层（7层）,3300 元/月,CD2636722243387785216,2021-06-27,104.025707,30.64984,整租,/权属核验/精装/双卫生间/,无,租用车位,民水,民电,有,自采暖,2021-07-02 18:00:09,成都
武侯-丽都-红牌楼广场,76.34㎡,东南,3室2厅1卫,低楼层（17层）,2800 元/月,CD2636734566655860736,2021-06-29,104.035788,30.639523,整租,/权属核验/近地铁/随时看房/,有,租用车位,民水,民电,有,暂无数据,2021-07-02 18:00:12,成都
武侯-武侯立交-中海熙苑二期,115.12㎡,东南,3室2厅2卫,中楼层（18层）,3300 元/月,CD2732445350219481088,2021-06-27,104.001943,30.644644,整租,//权属核验/精装/双卫生间/随时看房/,有,租用车位,民水,民电,有,暂无数据,2021-07-02 18:00:17,成都
武侯-广福桥-四季花城,101.00㎡,南北,3室1厅1卫,低楼层（21层）,3750 元/月,CD2786843833454313472,2021-06-27,104.04289715,30.64651865,整租,//权属核验/随时看房/,有,租用车位,民水,民电,有,自采暖,2021-07-02 18:00:24,成都
武侯-新双楠-华宇楠苑,78.00㎡,南,3室1厅1卫,低楼层（11层）,3000 元/月,CD2788988169796984832,2021-06-27,104.001841,30.632119,整租,/权属核验/精装/,有,暂无数据,民水,民电,有,自采暖,2021-07-02 18:00:27,成都
武侯-簇桥-西派城B区,135.00㎡,南,4室2厅2卫,高楼层（14层）,6500 元/月,CD2787726641483759616,2021-06-27,103.989311,30.620879,整租,/权属核验/精装/双卫生间/,有,暂无数据,暂无数据,民电,有,暂无数据,2021-07-02 18:00:32,成都
武侯-丽都-优客联邦一期,73.38㎡,东南,2室1厅1卫,高楼层（16层）,2700 元/月,CD2803435151366037504,2021-06-27,104.03824234,30.63947438,整租,//权属核验/近地铁/随时看房/,有,暂无数据,民水,民电,有,暂无数据,2021-07-02 18:00:38,成都
武侯-新双楠-华宇楠苑,110.00㎡,西南,4室1厅1卫,低楼层（11层）,3800 元/月,CD2803579015666352128,2021-06-27,104.001841,30.632119,整租,/权属核验/精装/,有,租用车位,民水,民电,有,自采暖,2021-07-02 18:00:47,成都
武侯-外双楠-鹭岛国际一二期,58.07㎡,南,1室1厅1卫,中楼层（11层）,2500 元/月,CD2804196270372028416,2021-06-27,104.017929,30.65095,整租,/权属核验/精装/,有,暂无数据,民水,民电,有,自采暖,2021-07-02 18:00:55,成都
武侯-红牌楼-双楠港汇广场,56.92㎡,东南,1室1厅1卫,高楼层（6层）,2500 元/月,CD2700645152934346752,2021-06-27,104.024716,30.636225,整租,/权属核验/近地铁/随时看房/,有,暂无数据,民水,民电,有,暂无数据,2021-07-02 18:00:58,成都
武侯-桐梓林-首座,127.00㎡,南,2室1厅2卫,低楼层（29层）,7200 元/月,CD2699923512587993088,2021-06-27,104.072856,30.619156,整租,/权属核验/近地铁/精装/双卫生间/随时看房/,有,暂无数据,民水,民电,有,自采暖,2021-07-02 18:01:06,成都
武侯-双楠-双楠华苑,90.71㎡,南,2室1厅1卫,低楼层（7层）,2200 元/月,CD2791177284278042624,2021-06-28,104.03283987,30.64994344,整租,/权属核验/,无,暂无数据,民水,民电,有,自采暖,2021-07-02 18:01:13,成都
武侯-草金立交-花样年花好园,65.07㎡,东南,2室1厅1卫,中楼层（18层）,2500 元/月,CD2790735122243264512,2021-07-01,103.985268,30.6468,整租,/权属核验/近地铁/精装/,有,暂无数据,民水,民电,有,暂无数据,2021-07-02 18:01:17,成都
武侯-棕北-盘谷花园,144.32㎡,东,3室2厅2卫,中楼层（18层）,7000 元/月,CD2805074005013299200,2021-06-27,104.074401,30.628961,整租,/权属核验/精装/双卫生间/,有,租用车位,民水,民电,有,暂无数据,2021-07-02 18:01:24,成都
武侯-丽都-优客联邦二期,77.69㎡,南,2室1厅1卫,中楼层（18层）,3400 元/月,CD2788498026988584960,2021-06-27,104.03692235,30.63833776,整租,/权属核验/近地铁/精装/,有,租用车位,民水,民电,有,自采暖,2021-07-02 18:01:33,成都
武侯-航空路-水漪袅铜,85.75㎡,南,2室2厅1卫,低楼层（12层）,3400 元/月,CD2788533191219625984,2021-06-27,104.07886099,30.61859734,整租,//权属核验/精装/随时看房/,有,暂无数据,民水,民电,有,自采暖,2021-07-02 18:01:42,成都
武侯-武侯立交-中华名园二期,89.34㎡,东北,2室1厅1卫,高楼层（16层）,2800 元/月,CD2789059703710425088,2021-07-01,104.009217,30.640381,整租,/权属核验/精装/随时看房/,有,租用车位,民水,民电,有,自采暖,2021-07-02 18:01:49,成都
武侯-川音-华西大厦,164.87㎡,东西,3室1厅2卫,高楼层（19层）,6000 元/月,CD2789810387531603968,2021-06-27,104.074618,30.643057,整租,/权属核验/双卫生间/,有,暂无数据,民水,民电,有,自采暖,2021-07-02 18:01:56,成都
武侯-五大花园-龙湖金楠天街,78.04㎡,东南,2室1厅1卫,中楼层（24层）,2600 元/月,CD2790426221484179456,2021-06-29,104.001737,30.653101,整租,//权属核验/随时看房/,有,租用车位,民水,民电,有,自采暖,2021-07-02 18:02:05,成都
武侯-外双楠-汇景樱桃季,54.44㎡,南,1室1厅1卫,低楼层（9层）,2000 元/月,CD2816091938892562432,2021-06-30,104.022329,30.647992,整租,/权属核验/精装/,有,暂无数据,民水,民电,有,暂无数据,2021-07-02 18:02:11,成都
武侯-五大花园-会所花园,95.44㎡,东南,3室1厅1卫,高楼层（15层）,2600 元/月,CD2817221330775048192,2021-06-30,104.008102,30.653875,整租,/权属核验/新上/精装/,有,暂无数据,民水,民电,有,自采暖,2021-07-02 18:02:19,成都
武侯-丽都-优客联邦三期,112.99㎡,西南,3室1厅2卫,中楼层（18层）,4000 元/月,CD2789814009832931328,2021-06-30,104.037631,30.637797,整租,/权属核验/精装/双卫生间/,有,租用车位,民水,民电,有,暂无数据,2021-07-02 18:02:23,成都
武侯-簇桥-西派城C区,138.00㎡,南,4室2厅2卫,中楼层（14层）,4500 元/月,CD2790365518312513536,2021-06-27,103.991404,30.619789,整租,/权属核验/精装/双卫生间/,有,租用车位,暂无数据,暂无数据,有,暂无数据,2021-07-02 18:02:26,成都
武侯-航空路-商鼎国际,65.28㎡,南,1室1厅1卫,高楼层（28层）,3200 元/月,CD2789899074755624960,2021-06-21,104.07393757,30.62465649,整租,/权属核验/近地铁/精装/随时看房/,有,暂无数据,民水,民电,有,自采暖,2021-07-02 18:02:29,成都
武侯-外双楠-白兰地,104.60㎡,东北,8室3厅3卫,中楼层（19层）,11600 元/月,CD2789860210754732032,2021-06-27,104.020968,30.65743,整租,/权属核验/近地铁/精装/,有,租用车位,民水,民电,有,暂无数据,2021-07-02 18:02:32,成都
武侯-火车南站-保利天悦,57.00㎡,西,1室0厅1卫,高楼层（42层）,3000 元/月,CD2790622889798270976,2021-06-21,104.088721,30.622587,整租,/权属核验/精装/随时看房/,有,暂无数据,民水,民电,有,暂无数据,2021-07-02 18:02:39,成都
武侯-丽都-维港,59.31㎡,东南,2室1厅1卫,中楼层（18层）,3000 元/月,CD2816780777625763840,2021-07-01,104.037225,30.629623,整租,/权属核验/新上/近地铁/精装/,有,租用车位,民水,民电,有,自采暖,2021-07-02 18:02:42,成都
武侯-武侯立交-武海新街坊,69.37㎡,西南,1室0厅1卫,低楼层（15层）,2000 元/月,CD2817550247499407360,2021-06-28,104.010955,30.637453,整租,/权属核验/新上/近地铁/,有,暂无数据,民水,民电,有,暂无数据,2021-07-02 18:02:45,成都
武侯-武侯立交-武海新街坊,34.90㎡,南,1室1厅1卫,低楼层（15层）,1800 元/月,CD2817421030246072320,2021-06-28,104.010955,30.637453,整租,/权属核验/新上/近地铁/,有,暂无数据,民水,民电,有,暂无数据,2021-07-02 18:02:50,成都
武侯-高升桥-罗浮世家一期,90.88㎡,东南,2室1厅1卫,中楼层（14层）,4000 元/月,CD2698575938505424896,2021-06-27,104.044692,30.643764,整租,/权属核验/近地铁/精装/随时看房/,有,暂无数据,民水,民电,有,暂无数据,2021-07-02 18:02:55,成都
武侯-棕北-保利中心,71.77㎡,南,1室1厅0卫,高楼层（21层）,5600 元/月,CD2694806011088748544,2021-06-17,104.077419,30.630663,整租,/权属核验/近地铁/随时看房/,有,暂无数据,民水,民电,有,自采暖,2021-07-02 18:03:01,成都
武侯-簇桥-龙湖紫都城,41.00㎡,东南西北,1室0厅0卫,中楼层（11层）,1500 元/月,CD2698326312086405120,2021-06-27,103.989413,30.627094,整租,/权属核验/近地铁/,无,暂无数据,商水,商电,有,暂无数据,2021-07-02 18:03:06,成都
武侯-丽都-时代丽都美语,140.00㎡,东南,3室1厅2卫,中楼层（11层）,4000 元/月,CD2696922969455722496,2021-06-27,104.038701,30.631565,整租,/权属核验/近地铁/精装/双卫生间/随时看房/,有,租用车位,民水,民电,有,自采暖,2021-07-02 18:03:10,成都
武侯-川大-和信派都,61.90㎡,西北,2室1厅1卫,中楼层（32层）,3000 元/月,CD2697135022469038080,2021-06-30,104.092637,30.643212,整租,/权属核验/近地铁/,有,租用车位,民水,民电,有,暂无数据,2021-07-02 18:03:18,成都
武侯-簇桥-中海锦城二期,78.00㎡,南,2室1厅1卫,中楼层（14层）,3000 元/月,CD2787541802364968960,2021-06-27,103.993952,30.612231,整租,/权属核验/,有,租用车位,民水,民电,有,暂无数据,2021-07-02 18:03:20,成都
武侯-外双楠-华府双楠,78.86㎡,西南,2室1厅1卫,中楼层（16层）,3500 元/月,CD2786359158264840192,2021-06-27,104.02518,30.646394,整租,//权属核验/近地铁/精装/随时看房/,有,暂无数据,民水,民电,有,自采暖,2021-07-02 18:03:29,成都
武侯-草金立交-美泉悦府,130.00㎡,东南,5室1厅2卫,高楼层（18层）,4000 元/月,CD2787651759122677760,2021-06-24,103.977568,30.646636,整租,/权属核验/近地铁/精装/双卫生间/,无,暂无数据,民水,民电,有,暂无数据,2021-07-02 18:03:38,成都
武侯-丽都-维港,89.76㎡,东南,3室2厅1卫,低楼层（18层）,3800 元/月,CD2787521752702656512,2021-06-30,104.037225,30.629623,整租,/权属核验/近地铁/精装/,有,暂无数据,民水,民电,有,自采暖,2021-07-02 18:03:45,成都
武侯-丽都-优客联邦三期,87.30㎡,东南,3室1厅1卫,高楼层（18层）,3700 元/月,CD2807995810975842304,2021-06-27,104.037631,30.637797,整租,/权属核验/近地铁/精装/,有,租用车位,民水,民电,有,暂无数据,2021-07-02 18:03:52,成都
武侯-丽都-南桥新居A区,50.77㎡,东,2室1厅1卫,中楼层（11层）,2400 元/月,CD2807797483478974464,2021-07-01,104.029628,30.620572,整租,//权属核验/精装/,有,租用车位,暂无数据,暂无数据,有,暂无数据,2021-07-02 18:04:01,成都
武侯-川大-竹林公寓,92.64㎡,东南,3室1厅1卫,高楼层（7层）,3150 元/月,CD2808499587856203776,2021-06-27,104.090069,30.631041,整租,/权属核验/精装/,无,暂无数据,民水,民电,有,自采暖,2021-07-02 18:04:07,成都
武侯-新双楠-中铁骑士公馆,79.69㎡,南,1室2厅1卫,中楼层（17层）,2800 元/月,CD2808482063072894976,2021-06-24,103.996215,30.625912,整租,/权属核验/精装/,有,暂无数据,民水,民电,有,暂无数据,2021-07-02 18:04:16,成都
武侯-川音-摩卡筑,32.09㎡,东,1室0厅1卫,中楼层（18层）,2300 元/月,CD2809254056802131968,2021-07-01,104.088119,30.644847,整租,//权属核验/随时看房/,有,暂无数据,民水,民电,有,暂无数据,2021-07-02 18:04:24,成都
武侯-丽都-红牌楼广场,85.33㎡,东南,2室1厅1卫,中楼层（17层）,3200 元/月,CD2808481029864824832,2021-06-27,104.035788,30.639523,整租,/权属核验/近地铁/精装/,有,租用车位,民水,民电,有,暂无数据,2021-07-02 18:04:28,成都
武侯-华西-洗面桥东一街3号,75.36㎡,南,3室1厅1卫,中楼层（7层）,2800 元/月,CD2809499135504556032,2021-06-27,104.06367,30.644859,整租,//权属核验/月租/精装/押一付一/,无,租用车位,民水,民电,有,自采暖,2021-07-02 18:04:31,成都
武侯-丽都-优地B区,85.99㎡,西北,2室1厅1卫,中楼层（17层）,3000 元/月,CD2809541737637756928,2021-06-26,104.034736,30.637919,整租,/权属核验/业主自荐/近地铁/精装/,有,租用车位,民水,民电,有,暂无数据,2021-07-02 18:04:38,成都
武侯-广福桥-新巢小区二期,63.14㎡,南北,1室1厅2卫,中楼层（7层）,2200 元/月,CD2809522643596738560,2021-06-30,104.04288,30.647919,整租,//权属核验/双卫生间/随时看房/,有,暂无数据,民水,民电,有,自采暖,2021-07-02 18:04:45,成都
武侯-五大花园-交大花园武侯小区,34.17㎡,南,1室0厅1卫,中楼层（7层）,1500 元/月,CD2809545535923421184,2021-06-30,104.01738,30.642576,整租,/权属核验/近地铁/精装/,无,租用车位,民水,民电,有,自采暖,2021-07-02 18:04:48,成都
武侯-双楠-名都苑,143.01㎡,东南,3室2厅2卫,高楼层（6层）,3500 元/月,CD2809341615859580928,2021-06-27,104.0386531,30.65134856,整租,/权属核验/精装/双卫生间/,无,暂无数据,民水,民电,有,自采暖,2021-07-02 18:04:52,成都
武侯-玉林-玉林品上,49.24㎡,北,1室1厅1卫,低楼层（27层）,2600 元/月,CD2810220007219265536,2021-06-27,104.067023,30.638035,整租,/权属核验/随时看房/,有,暂无数据,民水,民电,有,暂无数据,2021-07-02 18:05:01,成都
武侯-草金立交-蓝光诺丁山,71.71㎡,东南,3室1厅2卫,高楼层（11层）,3800 元/月,CD2810042896718503936,2021-06-29,104.002255,30.636566,整租,/权属核验/近地铁/精装/双卫生间/,有,暂无数据,民水,民电,有,自采暖,2021-07-02 18:05:06,成都
武侯-高升桥-罗浮世家二期,89.98㎡,东南,2室1厅1卫,高楼层（18层）,3500 元/月,CD2810729716397645824,2021-06-27,104.044699,30.642207,整租,/权属核验/近地铁/精装/,有,暂无数据,民水,民电,有,自采暖,2021-07-02 18:05:11,成都
武侯-五大花园-雷迪波尔城市花园,95.18㎡,东,3室1厅1卫,高楼层（11层）,2700 元/月,CD2810037125171920896,2021-06-24,104.00879782,30.64787635,整租,/权属核验/,有,暂无数据,民水,民电,有,自采暖,2021-07-02 18:05:20,成都
武侯-新双楠-置信丽都花园城D区,81.46㎡,南,3室1厅1卫,高楼层（13层）,3600 元/月,CD2810711274067853312,2021-06-27,104.005614,30.630557,整租,/权属核验/精装/,有,暂无数据,民水,民电,有,自采暖,2021-07-02 18:05:22,成都
武侯-高升桥-营盛大厦,42.64㎡,东南,1室0厅1卫,高楼层（12层）,2600 元/月,CD2810659215750995968,2021-06-27,104.043446,30.638303,整租,/权属核验/精装/,有,暂无数据,民水,民电,有,暂无数据,2021-07-02 18:05:31,成都
武侯-川音-胜利村110号附4号,143.50㎡,东南,4室2厅2卫,高楼层（7层）,3800 元/月,CD2811528521887776768,2021-06-30,104.07869,30.64552,整租,/权属核验/近地铁/双卫生间/,无,暂无数据,民水,民电,有,自采暖,2021-07-02 18:05:34,成都
武侯-双楠-少陵东街25号,75.25㎡,东南,2室1厅1卫,中楼层（7层）,2200 元/月,CD2811454866604695552,2021-06-30,104.036048,30.656247,整租,/权属核验/精装/,无,暂无数据,民水,民电,有,暂无数据,2021-07-02 18:05:38,成都
武侯-棕北-首航欣程,48.58㎡,西北,1室0厅1卫,低楼层（29层）,3000 元/月,CD2810902913864974336,2021-06-27,104.076521,30.627637,整租,/权属核验/近地铁/,有,租用车位,民水,民电,有,暂无数据,2021-07-02 18:05:45,成都
武侯-丽都-置信丽都花园C区,199.32㎡,东南,4室2厅2卫,中楼层（14层）,7500 元/月,CD2810996208825540608,2021-06-28,104.039399,30.633612,整租,/权属核验/精装/双卫生间/,有,暂无数据,民水,民电,有,暂无数据,2021-07-02 18:05:49,成都
武侯-五大花园-中央花园四期,136.80㎡,南北,4室2厅2卫,中楼层（6层）,2600 元/月,CD2811515311927869440,2021-06-27,104.005587,30.649391,整租,/权属核验/双卫生间/,无,暂无数据,民水,民电,有,自采暖,2021-07-02 18:05:56,成都
武侯-红牌楼-泰基南棠,75.27㎡,东南,2室1厅1卫,高楼层（16层）,2800 元/月,CD2810880396147818496,2021-06-27,104.034727,30.640999,整租,/权属核验/近地铁/精装/,有,暂无数据,民水,民电,有,自采暖,2021-07-02 18:06:02,成都
武侯-武侯立交-红帆蓝调,34.79㎡,西北,1室0厅1卫,中楼层（16层）,1400 元/月,CD2810868974101725184,2021-06-30,104.012369,30.637737,整租,/权属核验/近地铁/,有,暂无数据,商水,商电,无,暂无数据,2021-07-02 18:06:08,成都
武侯-火车南站-中国水电泛悦国际,72.26㎡,西北,3室1厅1卫,中楼层（34层）,3600 元/月,CD2811675060274995200,2021-06-20,104.085104,30.618703,整租,/权属核验/精装/,有,租用车位,民水,民电,有,暂无数据,2021-07-02 18:06:15,成都
武侯-川大-近水楼台,38.13㎡,东东南,1室0厅1卫,高楼层（6层）,1600 元/月,CD2811609462769991680,2021-06-27,104.091136,30.641498,整租,//权属核验/随时看房/,无,暂无数据,民水,民电,无,暂无数据,2021-07-02 18:06:18,成都
武侯-红牌楼-月光诚品,52.91㎡,南北,1室1厅1卫,高楼层（12层）,2400 元/月,CD2812161853059235840,2021-06-27,104.017125,30.640673,整租,/权属核验/近地铁/,有,暂无数据,民水,民电,有,自采暖,2021-07-02 18:06:22,成都
武侯-玉林-祥福苑(武侯),143.89㎡,南,3室2厅2卫,中楼层（22层）,5000 元/月,CD2811661440732372992,2021-06-24,104.071261,30.626888,整租,/权属核验/精装/双卫生间/,有,租用车位,民水,民电,有,自采暖,2021-07-02 18:06:27,成都
武侯-红牌楼-好家园,75.55㎡,东南,2室1厅1卫,中楼层（6层）,2300 元/月,CD2812109141186199552,2021-06-28,104.033173,30.64594,整租,/权属核验/,无,租用车位,民水,民电,有,暂无数据,2021-07-02 18:06:33,成都
武侯-五大花园-颐和雅居,110.51㎡,东,3室1厅2卫,高楼层（11层）,2900 元/月,CD2811601007438462976,2021-06-24,104.005465,30.657314,整租,//权属核验/近地铁/双卫生间/随时看房/,有,暂无数据,民水,民电,有,自采暖,2021-07-02 18:06:40,成都
武侯-玉林-玉林嘉苑,96.25㎡,南,3室2厅1卫,中楼层（7层）,3000 元/月,CD2811606204726648832,2021-07-01,104.065427,30.63028,整租,/权属核验/随时看房/,无,暂无数据,民水,民电,有,自采暖,2021-07-02 18:06:48,成都
武侯-棕北-保利中心,71.74㎡,南,1室0厅1卫,低楼层（21层）,5500 元/月,CD2811617626219094016,2021-06-19,104.077419,30.630663,整租,/权属核验/近地铁/精装/,有,暂无数据,民水,民电,有,自采暖,2021-07-02 18:06:54,成都
武侯-龙湾-泊景湾,136.62㎡,西北,3室2厅2卫,高楼层（18层）,5000 元/月,CD2812377635907444736,2021-06-28,104.021252,30.659461,整租,//权属核验/近地铁/精装/双卫生间/随时看房/,有,免费使用,民水,民电,有,自采暖,2021-07-02 18:06:58,成都
武侯-红牌楼-双楠名城一期,79.58㎡,东南,2室1厅1卫,中楼层（7层）,2500 元/月,CD2812325886668308480,2021-06-27,104.028488,30.645569,整租,/权属核验/近地铁/,无,暂无数据,民水,民电,有,自采暖,2021-07-02 18:07:03,成都
武侯-红牌楼-泰基南棠,46.76㎡,东东南,1室1厅1卫,中楼层（16层）,2300 元/月,CD2812453191076290560,2021-07-01,104.034727,30.640999,整租,/权属核验/近地铁/,有,暂无数据,民水,民电,有,自采暖,2021-07-02 18:07:06,成都
武侯-武侯立交-金楠缤纷,56.00㎡,西南,2室1厅1卫,低楼层（16层）,2300 元/月,CD2812375365874352128,2021-06-29,104.007361,30.64303,整租,//权属核验/精装/随时看房/,有,暂无数据,民水,民电,有,自采暖,2021-07-02 18:07:13,成都
武侯-五大花园-会所花园,125.23㎡,东南,2室1厅2卫,高楼层（12层）,2600 元/月,CD2812281911270187008,2021-06-27,104.008102,30.653875,整租,//权属核验/近地铁/精装/双卫生间/随时看房/,有,暂无数据,民水,民电,有,自采暖,2021-07-02 18:07:21,成都
武侯-外双楠-丽景华庭二期,99.00㎡,西南,2室1厅1卫,中楼层（16层）,3100 元/月,CD2812338772384432128,2021-06-26,104.017511,30.657217,整租,/权属核验/精装/,有,租用车位,民水,民电,有,自采暖,2021-07-02 18:07:30,成都
武侯-丽都-优地B区,87.83㎡,东南,2室1厅1卫,低楼层（17层）,3000 元/月,CD2812322821412225024,2021-06-29,104.034736,30.637919,整租,/权属核验/近地铁/精装/,有,暂无数据,民水,民电,有,自采暖,2021-07-02 18:07:34,成都
武侯-棕北-首航欣程,48.71㎡,南,1室0厅0卫,地下室,350 元/月,CD2811547136871899136,2021-06-27,104.076521,30.627637,整租,/权属核验/近地铁/,无,暂无数据,暂无数据,暂无数据,无,自采暖,2021-07-02 18:07:42,成都
武侯-丽都-优客联邦三期,67.17㎡,东南,1室1厅1卫,低楼层（18层）,3000 元/月,CD2744979970454724608,2021-06-27,104.037631,30.637797,整租,/权属核验/精装/,有,租用车位,民水,民电,有,自采暖,2021-07-02 18:07:50,成都
武侯-丽都-优客联邦一期,80.71㎡,南,2室1厅1卫,高楼层（15层）,3000 元/月,CD2811662356348936192,2021-06-27,104.03824234,30.63947438,整租,/权属核验/近地铁/精装/,有,暂无数据,民水,民电,有,暂无数据,2021-07-02 18:07:58,成都
武侯-棕北-棕北国际,126.32㎡,北,3室2厅2卫,低楼层（27层）,4500 元/月,CD2812119059247153152,2021-06-29,104.080903,30.631677,整租,/权属核验/精装/双卫生间/,有,租用车位,民水,民电,有,自采暖,2021-07-02 18:08:03,成都
武侯-丽都-楠贵坊,80.65㎡,东南,3室1厅1卫,中楼层（16层）,2700 元/月,CD2812151240950562816,2021-07-01,104.035036,30.633199,整租,/权属核验/精装/,有,暂无数据,民水,民电,有,自采暖,2021-07-02 18:08:11,成都
武侯-高升桥-罗浮世家二期,132.16㎡,南,3室2厅2卫,低楼层（17层）,4100 元/月,CD2748321332788994048,2021-06-27,104.044699,30.642207,整租,/权属核验/近地铁/精装/双卫生间/,有,暂无数据,民水,民电,有,自采暖,2021-07-02 18:08:14,成都
武侯-双楠-百花邨,42.70㎡,南,2室2厅2卫,中楼层（7层）,2800 元/月,CD2748510515453239296,2021-06-27,104.042634,30.653091,整租,/权属核验/近地铁/精装/双卫生间/,无,暂无数据,民水,民电,有,自采暖,2021-07-02 18:08:17,成都
武侯-五大花园-清水苑,92.00㎡,东南北,2室1厅1卫,高楼层（22层）,2600 元/月,CD2748504410282786816,2021-06-30,103.997197,30.659542,整租,/权属核验/随时看房/,有,暂无数据,民水,民电,有,暂无数据,2021-07-02 18:08:24,成都
武侯-双楠-锦宏宝润苑,42.35㎡,西南,2室1厅1卫,低楼层（12层）,1700 元/月,CD2747217618343051264,2021-06-30,104.039212,30.64788,整租,/权属核验/,有,暂无数据,民水,民电,有,自采暖,2021-07-02 18:08:30,成都
武侯-草金立交-香悦府,127.39㎡,北,4室2厅2卫,低楼层（18层）,1000 元/月,CD2753410986567270400,2021-06-30,103.979436,30.648554,整租,//权属核验/近地铁/双卫生间/随时看房/,无,暂无数据,民水,民电,有,暂无数据,2021-07-02 18:08:33,成都
武侯-红牌楼-银泰香樟林,50.00㎡,南,1室1厅1卫,高楼层（17层）,1900 元/月,CD2753421983151824896,2021-06-30,104.031293,30.642606,整租,//权属核验/精装/随时看房/,有,暂无数据,民水,民电,有,自采暖,2021-07-02 18:08:36,成都
武侯-武侯立交-置信巴厘岛A区,148.00㎡,东,4室2厅2卫,高楼层（13层）,3500 元/月,CD2754941359953035264,2021-06-27,104.007702,30.634621,整租,/权属核验/双卫生间/随时看房/,有,租用车位,民水,民电,有,自采暖,2021-07-02 18:08:39,成都
武侯-红牌楼-红楠港,73.22㎡,东,1室1厅1卫,中楼层（15层）,2650 元/月,CD2813164309138915328,2021-06-27,104.03629371,30.64312637,整租,/权属核验/近地铁/精装/,有,租用车位,民水,民电,有,自采暖,2021-07-02 18:08:44,成都
武侯-高升桥-成都A区,82.61㎡,东南,2室1厅1卫,高楼层（21层）,4200 元/月,CD2754430271461277696,2021-06-27,104.046995,30.64458,整租,/权属核验/近地铁/精装/,有,租用车位,民水,民电,有,暂无数据,2021-07-02 18:08:53,成都
武侯-航空路-商鼎国际,75.01㎡,东,2室1厅1卫,中楼层（28层）,4500 元/月,CD2753703711002853376,2021-06-26,104.07393757,30.62465649,整租,/权属核验/近地铁/,有,租用车位,民水,民电,有,自采暖,2021-07-02 18:08:57,成都
武侯-簇桥-玲珑郡,70.05㎡,南,2室1厅1卫,低楼层（13层）,2400 元/月,CD2814458036419035136,2021-07-01,103.993059,30.616718,整租,//权属核验/近地铁/随时看房/,有,暂无数据,民水,民电,无,自采暖,2021-07-02 18:09:03,成都
武侯-新双楠-华宇静苑一期,55.70㎡,南,1室1厅1卫,中楼层（11层）,2500 元/月,CD2814283710055596032,2021-06-29,104.003602,30.632034,整租,/权属核验/精装/,有,暂无数据,民水,民电,有,自采暖,2021-07-02 18:09:08,成都
武侯-火车南站-中国水电泛悦国际,82.13㎡,北,3室1厅1卫,中楼层（34层）,4200 元/月,CD2814396038624837632,2021-06-22,104.085104,30.618703,整租,/权属核验/精装/随时看房/,有,租用车位,民水,民电,有,暂无数据,2021-07-02 18:09:13,成都
武侯-双楠-康河郦景三期,147.61㎡,南,3室2厅2卫,高楼层（18层）,3400 元/月,CD2754502267528298496,2021-06-27,104.031122,30.655232,整租,/权属核验/双卫生间/随时看房/,有,租用车位,民水,民电,有,自采暖,2021-07-02 18:09:20,成都
武侯-丽都-丽都世家A区,66.34㎡,东南,2室2厅1卫,低楼层（17层）,3500 元/月,CD2814475143257268224,2021-06-24,104.034244,30.631286,整租,/权属核验/精装/,有,租用车位,民水,民电,有,暂无数据,2021-07-02 18:09:26,成都
武侯-桐梓林-新加坡花园,82.15㎡,东,2室1厅1卫,低楼层（11层）,3000 元/月,CD2814288686848679936,2021-06-27,104.064466,30.616795,整租,/权属核验/近地铁/,有,暂无数据,民水,民电,有,暂无数据,2021-07-02 18:09:33,成都
武侯-丽都-维港,78.48㎡,西北,2室2厅1卫,中楼层（18层）,4000 元/月,CD2806535112739520512,2021-06-28,104.037225,30.629623,整租,/权属核验/近地铁/精装/,有,租用车位,民水,民电,有,自采暖,2021-07-02 18:09:37,成都
武侯-棕北-首航欣程,48.58㎡,南,1室0厅1卫,中楼层（29层）,2800 元/月,CD2806457133481336832,2021-06-27,104.076521,30.627637,整租,/权属核验/近地铁/精装/,有,租用车位,民水,民电,有,暂无数据,2021-07-02 18:09:44,成都
武侯-火车南站-中国水电泛悦国际,72.07㎡,东,2室1厅1卫,低楼层（34层）,3800 元/月,CD2805972811762638848,2021-06-30,104.085104,30.618703,整租,/权属核验/精装/,有,租用车位,民水,民电,有,暂无数据,2021-07-02 18:09:52,成都
武侯-丽都-优客联邦三期,74.06㎡,东南,2室1厅1卫,高楼层（18层）,3000 元/月,CD2806559348636532736,2021-06-27,104.037631,30.637797,整租,/权属核验/近地铁/精装/,有,租用车位,民水,民电,有,暂无数据,2021-07-02 18:09:59,成都
武侯-丽都-优地B区,96.20㎡,西北,3室2厅1卫,高楼层（17层）,3800 元/月,CD2791843084244090880,2021-06-27,104.034736,30.637919,整租,/权属核验/近地铁/精装/,有,租用车位,民水,民电,有,暂无数据,2021-07-02 18:10:07,成都
武侯-外双楠-鹭岛国际三期,168.32㎡,南,4室2厅2卫,高楼层（17层）,6500 元/月,CD2792046347204182016,2021-06-27,104.016718,30.652062,整租,/权属核验/精装/双卫生间/,有,租用车位,民水,民电,有,自采暖,2021-07-02 18:10:10,成都
武侯-新双楠-中铁瑞城三号线,51.81㎡,南,2室1厅1卫,中楼层（12层）,2300 元/月,CD2794032145457217536,2021-06-30,104.003061,30.633275,整租,/权属核验/精装/,有,暂无数据,民水,民电,有,自采暖,2021-07-02 18:10:16,成都
武侯-红牌楼-花样年华四期,33.77㎡,南,1室0厅1卫,高楼层（6层）,1600 元/月,CD2792899936268853248,2021-07-01,104.032638,30.644145,整租,/权属核验/随时看房/,无,暂无数据,民水,民电,有,暂无数据,2021-07-02 18:10:19,成都
武侯-丽都-优客联邦二期,66.48㎡,东南,1室1厅1卫,高楼层（17层）,2400 元/月,CD2792778876005662720,2021-06-27,104.03692235,30.63833776,整租,/权属核验/近地铁/精装/,有,租用车位,民水,民电,有,暂无数据,2021-07-02 18:10:21,成都
武侯-双楠-园丁园,144.16㎡,东东南南,4室1厅2卫,高楼层（7层）,3800 元/月,CD2793522497801699328,2021-06-27,104.03366156,30.64801237,整租,/权属核验/双卫生间/,无,暂无数据,民水,民电,有,自采暖,2021-07-02 18:10:30,成都
武侯-广福桥-巷上生活馆,77.79㎡,东北,2室1厅1卫,低楼层（15层）,2700 元/月,CD2792759743762923520,2021-07-01,104.04224938,30.64896213,整租,/权属核验/近地铁/,有,暂无数据,民水,民电,有,自采暖,2021-07-02 18:10:37,成都
武侯-簇桥-龙湖紫都城,41.00㎡,西北,1室0厅0卫,中楼层（9层）,1700 元/月,CD2725993339542847488,2021-06-27,103.989413,30.627094,整租,/权属核验/近地铁/,无,暂无数据,商水,商电,有,暂无数据,2021-07-02 18:10:41,成都
武侯-红牌楼-双楠名城一期,128.00㎡,南,3室2厅2卫,中楼层（6层）,3400 元/月,CD2806447499106058240,2021-06-27,104.028488,30.645569,整租,//权属核验/双卫生间/随时看房/,无,暂无数据,民水,民电,有,自采暖,2021-07-02 18:10:43,成都
武侯-火车南站-美丽南庭,118.00㎡,北,3室1厅1卫,低楼层（11层）,4000 元/月,CD2726017183154454528,2021-06-27,104.085481,30.613396,整租,/权属核验/近地铁/随时看房/,有,租用车位,民水,民电,有,自采暖,2021-07-02 18:10:49,成都
武侯-棕北-首航欣程,81.46㎡,南,2室1厅1卫,低楼层（27层）,3600 元/月,CD2806538409471393792,2021-06-27,104.076521,30.627637,整租,/权属核验/精装/,有,租用车位,民水,民电,有,自采暖,2021-07-02 18:10:52,成都
武侯-棕北-保利中心,71.74㎡,南,1室0厅1卫,低楼层（21层）,5800 元/月,CD2805970973105864704,2021-06-27,104.077419,30.630663,整租,/权属核验/近地铁/精装/,有,暂无数据,民水,民电,有,自采暖,2021-07-02 18:10:59,成都
武侯-武侯立交-中海熙苑二期,118.00㎡,西南,3室2厅2卫,低楼层（18层）,3900 元/月,CD2727476589570039808,2021-06-27,104.001943,30.644644,整租,/权属核验/精装/双卫生间/随时看房/,有,租用车位,暂无数据,民电,有,暂无数据,2021-07-02 18:11:05,成都
武侯-簇桥-龙湖紫都城,42.00㎡,西南,1室1厅1卫,中楼层（11层）,2600 元/月,CD2807219241714196480,2021-06-30,103.989413,30.627094,整租,/权属核验/近地铁/精装/随时看房/,无,租用车位,商水,商电,有,暂无数据,2021-07-02 18:11:10,成都
武侯-桐梓林-桐梓林欧城,177.02㎡,南,4室1厅2卫,中楼层（21层）,12000 元/月,CD2726032646580224000,2021-06-26,104.067457,30.61725,整租,/权属核验/近地铁/精装/双卫生间/随时看房/,有,租用车位,民水,民电,有,暂无数据,2021-07-02 18:11:18,成都
武侯-簇桥-龙湖紫都城,40.89㎡,西南,1室0厅0卫,中楼层（11层）,1850 元/月,CD2726922874911719424,2021-06-27,103.989413,30.627094,整租,/权属核验/近地铁/,无,暂无数据,商水,商电,有,暂无数据,2021-07-02 18:11:23,成都
武侯-广福桥-四季花城,148.45㎡,东南,4室2厅2卫,中楼层（21层）,5000 元/月,CD2728800715253489664,2021-06-26,104.04289715,30.64651865,整租,/权属核验/近地铁/精装/双卫生间/随时看房/,有,租用车位,民水,民电,有,自采暖,2021-07-02 18:11:32,成都
武侯-外双楠-鹭岛国际三期,63.02㎡,东,1室1厅1卫,高楼层（11层）,3200 元/月,CD2806580193949655040,2021-06-27,104.016718,30.652062,整租,//权属核验/近地铁/精装/随时看房/,有,暂无数据,民水,民电,有,自采暖,2021-07-02 18:11:40,成都
武侯-棕北-保利中心,90.00㎡,南,3室1厅1卫,高楼层（37层）,5000 元/月,CD2729625640898150400,2021-06-30,104.077419,30.630663,整租,/权属核验/近地铁/精装/,有,租用车位,民水,民电,有,自采暖,2021-07-02 18:11:42,成都
武侯-丽都-优地B区,76.27㎡,东南,2室1厅1卫,高楼层（17层）,2600 元/月,CD2806617933810778112,2021-06-27,104.034736,30.637919,整租,/权属核验/近地铁/精装/,有,暂无数据,民水,民电,有,暂无数据,2021-07-02 18:11:47,成都
武侯-簇桥-龙湖紫都城,41.02㎡,南,2室1厅1卫,高楼层（11层）,3000 元/月,CD2806647357834264576,2021-06-27,103.989413,30.627094,整租,/权属核验/业主自荐/近地铁/精装/,无,暂无数据,商水,商电,有,暂无数据,2021-07-02 18:11:56,成都
武侯-玉林-玉林品上,54.00㎡,北,1室1厅1卫,高楼层（27层）,2300 元/月,CD2728416445360259072,2021-06-27,104.067023,30.638035,整租,/权属核验/,有,暂无数据,民水,民电,有,暂无数据,2021-07-02 18:12:03,成都
武侯-簇桥-绿地圣路易名邸二期,84.00㎡,南北,2室1厅1卫,高楼层（12层）,3000 元/月,CD2732570860648415232,2021-06-27,103.990194,30.611737,整租,/权属核验/精装/,有,暂无数据,民水,民电,有,自采暖,2021-07-02 18:12:05,成都
武侯-红牌楼-双楠名城二期,152.00㎡,东,3室2厅2卫,中楼层（6层）,4400 元/月,CD2808776818231361536,2021-06-27,104.02979,30.644026,整租,//权属核验/近地铁/精装/双卫生间/随时看房/,无,租用车位,民水,民电,有,自采暖,2021-07-02 18:12:09,成都
武侯-川音-华西美庐,131.61㎡,南西南,3室1厅1卫,高楼层（28层）,5500 元/月,CD2734106346051354624,2021-06-26,104.073334,30.645082,整租,/权属核验/近地铁/,有,暂无数据,民水,民电,有,自采暖,2021-07-02 18:12:15,成都
武侯-棕北-首航欣程,81.46㎡,西北,2室2厅1卫,中楼层（27层）,3500 元/月,CD2738423655498522624,2021-06-30,104.076521,30.627637,整租,/权属核验/精装/随时看房/,有,租用车位,民水,民电,有,自采暖,2021-07-02 18:12:20,成都
武侯-丽都-优客联邦三期,53.99㎡,东南,2室1厅1卫,中楼层（18层）,3000 元/月,CD2750042072193957888,2021-06-27,104.037631,30.637797,整租,/权属核验/精装/,有,租用车位,民水,民电,有,自采暖,2021-07-02 18:12:29,成都
武侯-簇桥-玲珑郡,55.00㎡,东南,1室1厅1卫,低楼层（9层）,2200 元/月,CD2801999985116454912,2021-06-27,103.993059,30.616718,整租,/权属核验/近地铁/精装/,有,暂无数据,民水,民电,有,自采暖,2021-07-02 18:12:31,成都
武侯-丽都-维港,108.00㎡,南,3室1厅2卫,低楼层（18层）,4000 元/月,CD2802061683538280448,2021-07-01,104.037225,30.629623,整租,/权属核验/近地铁/精装/双卫生间/,有,租用车位,民水,民电,有,自采暖,2021-07-02 18:12:36,成都
武侯-高升桥-罗浮世家二期,112.68㎡,东南,2室1厅1卫,低楼层（17层）,4200 元/月,CD2802024078264254464,2021-06-27,104.044699,30.642207,整租,/权属核验/近地铁/精装/随时看房/,有,租用车位,民水,民电,有,自采暖,2021-07-02 18:12:42,成都
武侯-高升桥-成都A区,122.57㎡,南,5室2厅2卫,低楼层（21层）,4900 元/月,CD2801548830259019776,2021-06-27,104.046995,30.64458,整租,/权属核验/近地铁/双卫生间/随时看房/,有,租用车位,民水,民电,有,自采暖,2021-07-02 18:12:48,成都
武侯-丽都-时代丽都美语,170.00㎡,西南西北,4室2厅2卫,中楼层（11层）,5000 元/月,CD2802002662089039872,2021-07-01,104.038701,30.631565,整租,/权属核验/近地铁/精装/双卫生间/,有,租用车位,民水,民电,有,自采暖,2021-07-02 18:12:53,成都
武侯-桐梓林-首座,125.82㎡,南,2室1厅2卫,中楼层（29层）,5300 元/月,CD2802101142652731392,2021-06-20,104.072856,30.619156,整租,/权属核验/精装/双卫生间/随时看房/,有,暂无数据,民水,民电,有,自采暖,2021-07-02 18:13:00,成都
武侯-川大-府河竹苑,101.16㎡,东,2室2厅1卫,高楼层（18层）,3200 元/月,CD2801974808537989120,2021-07-01,104.090469,30.630593,整租,/权属核验/随时看房/,有,租用车位,民水,民电,有,自采暖,2021-07-02 18:13:07,成都
武侯-丽都-优客联邦二期,78.34㎡,西北,3室1厅1卫,高楼层（17层）,3000 元/月,CD2801585999325429760,2021-06-27,104.03692235,30.63833776,整租,/权属核验/近地铁/随时看房/,有,暂无数据,民水,民电,有,暂无数据,2021-07-02 18:13:10,成都
武侯-丽都-丽都世家B区,116.07㎡,西北,3室2厅2卫,中楼层（17层）,4600 元/月,CD2801461941678383104,2021-06-27,104.032829,30.631803,整租,/权属核验/精装/双卫生间/,有,租用车位,民水,民电,有,自采暖,2021-07-02 18:13:13,成都
武侯-五大花园-会所花园,103.72㎡,东南,3室1厅1卫,低楼层（15层）,3000 元/月,CD2802275236224450560,2021-06-27,104.008102,30.653875,整租,/权属核验/近地铁/,有,暂无数据,民水,民电,有,自采暖,2021-07-02 18:13:19,成都
武侯-红牌楼-新界三期,60.00㎡,南,3室1厅1卫,中楼层（8层）,4400 元/月,CD2812457834103439360,2021-06-27,104.02013,30.634113,整租,/权属核验/近地铁/精装/,有,暂无数据,民水,民电,有,自采暖,2021-07-02 18:13:28,成都
武侯-红牌楼-新界一期,146.51㎡,东南,3室1厅1卫,低楼层（8层）,4500 元/月,CD2812211372287598592,2021-06-27,104.01985811,30.63679417,整租,/权属核验/精装/,有,租用车位,民水,民电,有,自采暖,2021-07-02 18:13:35,成都
武侯-五大花园-龙湖金楠时光,36.19㎡,东南,1室1厅1卫,中楼层（22层）,1600 元/月,CD2813092646241697792,2021-06-25,104.000378,30.655148,整租,/权属核验/随时看房/,有,暂无数据,暂无数据,暂无数据,有,暂无数据,2021-07-02 18:13:39,成都
武侯-丽都-优客联邦三期,87.79㎡,东南,3室1厅1卫,中楼层（18层）,3700 元/月,CD2813072575523979264,2021-06-27,104.037631,30.637797,整租,/权属核验/近地铁/精装/,有,暂无数据,民水,民电,有,暂无数据,2021-07-02 18:13:47,成都
武侯-武侯立交-中华名园二期,88.38㎡,西南,3室1厅1卫,高楼层（16层）,2800 元/月,CD2813058249795321856,2021-06-25,104.009217,30.640381,整租,/权属核验/精装/,有,暂无数据,民水,民电,有,自采暖,2021-07-02 18:13:51,成都
武侯-高升桥-成都A区,52.31㎡,南,1室1厅1卫,低楼层（18层）,2300 元/月,CD2813007462973063168,2021-06-29,104.046995,30.64458,整租,//权属核验/近地铁/随时看房/,有,租用车位,民水,民电,有,暂无数据,2021-07-02 18:13:58,成都
武侯-桐梓林-火车南站西路12号,80.55㎡,南,3室1厅1卫,高楼层（7层）,2600 元/月,CD2813031181669638144,2021-07-01,104.067619,30.615633,整租,//权属核验/随时看房/,无,租用车位,民水,民电,有,自采暖,2021-07-02 18:14:01,成都
武侯-簇桥-龙锦慧苑,107.77㎡,东南,3室1厅2卫,中楼层（11层）,4000 元/月,CD2802211486091714560,2021-06-27,103.998367,30.612135,整租,/权属核验/近地铁/精装/双卫生间/,无,暂无数据,民水,民电,有,暂无数据,2021-07-02 18:14:05,成都
武侯-新双楠-华宇楠苑,84.00㎡,西南,3室2厅1卫,高楼层（11层）,4000 元/月,CD2802222432545406976,2021-06-27,104.001841,30.632119,整租,/权属核验/近地铁/精装/,有,暂无数据,民水,民电,有,自采暖,2021-07-02 18:14:09,成都
武侯-五大花园-蓝光金楠府,102.84㎡,南,3室2厅2卫,中楼层（16层）,3100 元/月,CD2802286609456693248,2021-07-01,104.009979,30.643217,整租,/权属核验/精装/双卫生间/,有,租用车位,民水,民电,有,暂无数据,2021-07-02 18:14:17,成都
武侯-桐梓林-桐梓林欧城,86.73㎡,南,2室1厅1卫,高楼层（22层）,4000 元/月,CD2802288672551485440,2021-06-27,104.067457,30.61725,整租,/权属核验/精装/,有,租用车位,民水,民电,有,暂无数据,2021-07-02 18:14:25,成都
武侯-簇桥-龙湖紫都城,40.60㎡,南,1室1厅1卫,中楼层（11层）,1600 元/月,CD2813908667236089856,2021-06-27,103.989413,30.627094,整租,/权属核验/近地铁/,无,暂无数据,商水,商电,有,暂无数据,2021-07-02 18:14:31,成都
武侯-簇桥-龙湖紫都城,40.60㎡,南,2室1厅1卫,中楼层（11层）,2800 元/月,CD2813679278133624832,2021-06-30,103.989413,30.627094,整租,/权属核验/近地铁/精装/随时看房/,无,暂无数据,商水,商电,有,暂无数据,2021-07-02 18:14:35,成都
武侯-航空路-锦官秀城南区,144.35㎡,西,4室2厅2卫,中楼层（18层）,4500 元/月,CD2753471342736048128,2021-06-27,104.081773,30.619461,整租,/权属核验/近地铁/双卫生间/随时看房/,有,暂无数据,民水,民电,有,暂无数据,2021-07-02 18:14:43,成都
武侯-火车南站-保利天悦,57.88㎡,西南,1室1厅1卫,中楼层（42层）,4600 元/月,CD2755638896917757952,2021-06-26,104.088721,30.622587,整租,/权属核验/精装/,有,暂无数据,民水,民电,有,暂无数据,2021-07-02 18:14:46,成都
武侯-川音-胜利新村11号,64.17㎡,南北,2室1厅1卫,低楼层（6层）,3000 元/月,CD2771803391574417408,2021-06-29,104.08046,30.645865,整租,/权属核验/随时看房/,无,暂无数据,民水,民电,有,自采暖,2021-07-02 18:14:50,成都
武侯-棕北-保利中心,72.00㎡,南,2室0厅1卫,高楼层（21层）,13000 元/月,CD2770932699807096832,2021-06-27,104.077419,30.630663,整租,/权属核验/近地铁/精装/,有,暂无数据,民水,民电,有,自采暖,2021-07-02 18:14:56,成都
武侯-双楠-名都苑,127.45㎡,南,3室2厅2卫,中楼层（6层）,3300 元/月,CD2771114571463925760,2021-06-28,104.0386531,30.65134856,整租,//权属核验/双卫生间/随时看房/,无,租用车位,民水,民电,有,自采暖,2021-07-02 18:15:04,成都
武侯-外双楠-鹭岛国际一二期,246.00㎡,南,4室3厅3卫,中楼层（14层）,18000 元/月,CD2770895936916815872,2021-06-30,104.017929,30.65095,整租,/权属核验/近地铁/精装/,有,暂无数据,民水,民电,有,自采暖,2021-07-02 18:15:08,成都
武侯-红牌楼-永盛南街5号,182.51㎡,南,5室5厅3卫,低楼层（6层）,21500 元/月,CD2770969831888404480,2021-06-11,104.032882,30.644995,整租,/权属核验/近地铁/精装/,无,暂无数据,民水,民电,有,自采暖,2021-07-02 18:15:12,成都
武侯-簇桥-西派城B区,196.00㎡,南北,4室2厅3卫,中楼层（14层）,12999 元/月,CD2771748207561285632,2021-07-01,103.989311,30.620879,整租,/权属核验/精装/随时看房/,有,免费使用,暂无数据,暂无数据,有,暂无数据,2021-07-02 18:15:21,成都
武侯-外双楠-鹭岛国际三期,132.00㎡,东南,3室2厅2卫,低楼层（15层）,5000 元/月,CD2770996410211385344,2021-07-01,104.016718,30.652062,整租,/权属核验/近地铁/精装/双卫生间/随时看房/,有,租用车位,民水,民电,有,自采暖,2021-07-02 18:15:28,成都
武侯-桐梓林-桐梓林欧城,179.60㎡,东南,4室2厅2卫,低楼层（21层）,11000 元/月,CD2612283966203633664,2021-07-01,104.067457,30.61725,整租,/权属核验/近地铁/精装/双卫生间/随时看房/,有,暂无数据,民水,民电,有,暂无数据,2021-07-02 18:15:34,成都
武侯-丽都-丽都花园丽府,175.84㎡,东南,4室2厅2卫,高楼层（18层）,7900 元/月,CD2794738343685136384,2021-06-30,104.038283,30.626965,整租,/权属核验/精装/双卫生间/随时看房/,有,暂无数据,民水,民电,有,自采暖,2021-07-02 18:15:40,成都
武侯-外双楠-汇景新村(武侯),129.60㎡,东,3室2厅2卫,中楼层（6层）,3000 元/月,CD2795600707301425152,2021-06-27,104.026897,30.649243,整租,/权属核验/近地铁/双卫生间/,无,暂无数据,民水,民电,有,自采暖,2021-07-02 18:15:45,成都
武侯-龙湾-中海龙湾半岛,168.88㎡,南,4室2厅2卫,低楼层（18层）,6500 元/月,CD2795526911323799552,2021-06-29,104.023527,30.660847,整租,//权属核验/近地铁/精装/双卫生间/随时看房/,有,租用车位,民水,民电,有,自采暖,2021-07-02 18:15:48,成都
武侯-丽都-优客联邦一期,58.30㎡,东南,2室1厅1卫,中楼层（15层）,2600 元/月,CD2774552579798482944,2021-06-29,104.03824234,30.63947438,整租,//权属核验/近地铁/精装/随时看房/,有,租用车位,民水,民电,有,暂无数据,2021-07-02 18:15:55,成都
武侯-龙湾-中海龙湾半岛,119.39㎡,东南,4室2厅2卫,高楼层（18层）,5000 元/月,CD2772482507735056384,2021-06-30,104.023527,30.660847,整租,/权属核验/双卫生间/,有,暂无数据,民水,民电,有,自采暖,2021-07-02 18:15:58,成都
武侯-川音-莱茵河畔,210.46㎡,东南,5室2厅3卫,高楼层（32层）,8000 元/月,CD2773695603698302976,2021-06-27,104.090854,30.646546,整租,/权属核验/随时看房/,有,暂无数据,民水,民电,有,暂无数据,2021-07-02 18:16:06,成都
武侯-桐梓林-芳草地,197.14㎡,南,4室2厅2卫,中楼层（9层）,8000 元/月,CD2773751393587036160,2021-06-27,104.070411,30.61991,整租,/权属核验/精装/双卫生间/随时看房/,有,暂无数据,民水,民电,有,自采暖,2021-07-02 18:16:14,成都
武侯-龙湾-杜甫花园,282.89㎡,西南,6室3厅4卫,低楼层（1层）,10000 元/月,CD2773930966966870016,2021-06-23,104.02635503,30.65841874,整租,/权属核验/随时看房/,无,暂无数据,民水,民电,有,暂无数据,2021-07-02 18:16:21,成都
武侯-棕北-棕北公寓,138.96㎡,南,4室2厅2卫,低楼层（7层）,5500 元/月,CD2773251277420249088,2021-06-15,104.077752,30.631306,整租,/权属核验/双卫生间/随时看房/,无,暂无数据,民水,民电,有,自采暖,2021-07-02 18:16:23,成都
武侯-五大花园-交大广厦小区,46.04㎡,南北,5室1厅1卫,低楼层（4层）,4500 元/月,CD2774494227818610688,2021-06-29,104.011746,30.644184,整租,/权属核验/,无,暂无数据,民水,民电,有,自采暖,2021-07-02 18:16:27,成都
武侯-双楠-时代空间,78.79㎡,南,2室1厅1卫,高楼层（14层）,2300 元/月,CD2615226757821251584,2021-06-27,104.028952,30.653884,整租,/权属核验/随时看房/,有,暂无数据,民水,民电,有,暂无数据,2021-07-02 18:16:34,成都
武侯-棕北-保利中心,71.74㎡,东,1室0厅0卫,高楼层（21层）,10000 元/月,CD2796465947027193856,2021-06-22,104.077419,30.630663,整租,/权属核验/近地铁/精装/随时看房/,有,暂无数据,民水,民电,有,自采暖,2021-07-02 18:16:42,成都
武侯-棕北-保利中心,71.77㎡,南,1室0厅0卫,高楼层（21层）,10000 元/月,CD2796464655793659904,2021-06-22,104.077419,30.630663,整租,/权属核验/近地铁/精装/随时看房/,有,暂无数据,民水,民电,有,自采暖,2021-07-02 18:16:48,成都
武侯-华西-米兰风度花园,65.86㎡,西南,2室1厅1卫,中楼层（9层）,2900 元/月,CD2629588664493555712,2021-06-18,104.064266,30.642197,整租,/权属核验/近地铁/,有,租用车位,民水,民电,有,暂无数据,2021-07-02 18:16:53,成都
武侯-外双楠-鹭岛国际一二期,141.65㎡,东,3室2厅2卫,中楼层（11层）,4500 元/月,CD2796185231621619712,2021-06-24,104.017929,30.65095,整租,/权属核验/近地铁/双卫生间/随时看房/,有,暂无数据,民水,民电,有,自采暖,2021-07-02 18:16:56,成都
武侯-双楠-月光琉域,98.99㎡,东北,3室1厅1卫,中楼层（17层）,4000 元/月,CD2797032339329523712,2021-06-27,104.03473054,30.64604515,整租,/权属核验/近地铁/精装/随时看房/,有,暂无数据,民水,民电,有,自采暖,2021-07-02 18:17:03,成都
武侯-外双楠-鹭岛国际四期,51.46㎡,东南,1室0厅1卫,中楼层（18层）,2800 元/月,CD2796887532384821248,2021-06-27,104.019358,30.652123,整租,/权属核验/精装/,有,暂无数据,民水,民电,有,自采暖,2021-07-02 18:17:06,成都
武侯-棕北-保利中心,71.74㎡,南,1室0厅0卫,低楼层（21层）,22000 元/月,CD2775255606293176320,2021-06-05,104.077419,30.630663,整租,/权属核验/近地铁/,有,租用车位,民水,民电,有,自采暖,2021-07-02 18:17:13,成都
武侯-川大-蓝色加勒比广场,32.62㎡,南西南,1室0厅1卫,高楼层（7层）,1700 元/月,CD2776688769670594560,2021-07-01,104.083926,30.62903,整租,//权属核验/随时看房/,有,暂无数据,民水,民电,无,自采暖,2021-07-02 18:17:16,成都
武侯-棕北-保利中心,71.74㎡,南,1室0厅0卫,低楼层（21层）,22000 元/月,CD2775254067981582336,2021-06-24,104.077419,30.630663,整租,/权属核验/近地铁/,有,租用车位,民水,民电,有,自采暖,2021-07-02 18:17:20,成都
武侯-丽都-优客联邦二期,58.64㎡,东南,1室1厅1卫,中楼层（17层）,2700 元/月,CD2776193660142747648,2021-06-26,104.03692235,30.63833776,整租,/权属核验/近地铁/精装/,有,租用车位,民水,民电,有,暂无数据,2021-07-02 18:17:28,成都
武侯-五大花园-龙湖金楠天街,33.59㎡,东南,1室0厅1卫,中楼层（20层）,1700 元/月,CD2775253104256622592,2021-06-27,104.001737,30.653101,整租,/权属核验/随时看房/,有,暂无数据,商水,商电,无,自采暖,2021-07-02 18:17:32,成都
武侯-新双楠-华宇楠苑,119.25㎡,西北,4室2厅2卫,低楼层（11层）,3800 元/月,CD2797616999797366784,2021-06-26,104.001841,30.632119,整租,/权属核验/近地铁/精装/双卫生间/,有,暂无数据,民水,民电,有,自采暖,2021-07-02 18:17:36,成都
武侯-高升桥-川航佳园,68.60㎡,东南,3室1厅1卫,高楼层（7层）,2500 元/月,CD2797189922183200768,2021-06-27,104.043931,30.637372,整租,/权属核验/近地铁/,无,暂无数据,民水,民电,有,自采暖,2021-07-02 18:17:40,成都
武侯-五大花园-龙湖金楠时光,90.21㎡,西南,3室2厅1卫,低楼层（24层）,3500 元/月,CD2798525405546954752,2021-06-18,104.000378,30.655148,整租,/权属核验/精装/,有,暂无数据,民水,民电,有,暂无数据,2021-07-02 18:17:47,成都
武侯-桐梓林-锦绣花园西区,49.90㎡,南,1室1厅1卫,低楼层（6层）,4500 元/月,CD2798410404005953536,2021-06-27,104.068261,30.620789,整租,/权属核验/精装/随时看房/,无,暂无数据,民水,民电,有,自采暖,2021-07-02 18:17:52,成都
武侯-桐梓林-桐梓林欧城,89.24㎡,南,3室2厅1卫,高楼层（21层）,4400 元/月,CD2797880508363841536,2021-06-20,104.067457,30.61725,整租,/权属核验/近地铁/精装/,有,租用车位,民水,民电,有,暂无数据,2021-07-02 18:18:00,成都
武侯-棕北-首航欣程,81.02㎡,南,2室2厅1卫,中楼层（27层）,3600 元/月,CD2797927996097839104,2021-06-27,104.076521,30.627637,整租,//权属核验/精装/随时看房/,有,租用车位,民水,民电,有,自采暖,2021-07-02 18:18:09,成都
武侯-外双楠-丽景华庭二期,150.00㎡,南,3室1厅2卫,低楼层（12层）,5000 元/月,CD2797859701411823616,2021-06-26,104.017511,30.657217,整租,/权属核验/精装/双卫生间/,有,租用车位,民水,民电,有,自采暖,2021-07-02 18:18:13,成都
武侯-火车南站-保利天悦,57.00㎡,南,1室1厅1卫,高楼层（42层）,5500 元/月,CD2798646785063788544,2021-06-26,104.088721,30.622587,整租,/权属核验/精装/随时看房/,有,暂无数据,民水,民电,有,暂无数据,2021-07-02 18:18:18,成都
武侯-红牌楼-竹园二期,88.83㎡,东,3室1厅1卫,中楼层（6层）,2400 元/月,CD2798454113695186944,2021-06-27,104.033403,30.643466,整租,/权属核验/近地铁/随时看房/,无,租用车位,民水,民电,有,自采暖,2021-07-02 18:18:23,成都
武侯-外双楠-白兰地,103.39㎡,东南,2室1厅1卫,高楼层（19层）,3500 元/月,CD2798404171110825984,2021-06-23,104.020968,30.65743,整租,//权属核验/近地铁/精装/随时看房/,有,暂无数据,民水,民电,有,暂无数据,2021-07-02 18:18:27,成都
武侯-丽都-红牌楼广场,105.07㎡,东东南,3室1厅1卫,中楼层（17层）,3700 元/月,CD2797803778420506624,2021-06-26,104.035788,30.639523,整租,/权属核验/近地铁/精装/,有,暂无数据,民水,民电,有,暂无数据,2021-07-02 18:18:35,成都
武侯-武侯立交-中粮祥云二期,129.46㎡,南,3室1厅2卫,中楼层（17层）,5200 元/月,CD2798420174770798592,2021-06-28,104.012666,30.636516,整租,/权属核验/双卫生间/,有,暂无数据,民水,民电,有,自采暖,2021-07-02 18:18:40,成都
武侯-五大花园-会所花园,108.48㎡,西南,2室2厅2卫,中楼层（16层）,2500 元/月,CD2799443644002598912,2021-06-27,104.008102,30.653875,整租,//权属核验/双卫生间/随时看房/,有,暂无数据,民水,民电,有,暂无数据,2021-07-02 18:18:43,成都
武侯-丽都-红城,60.97㎡,东南,2室1厅1卫,中楼层（18层）,2600 元/月,CD2799358727936294912,2021-06-30,104.033353,30.632489,整租,//权属核验/精装/,有,暂无数据,民水,民电,有,自采暖,2021-07-02 18:18:47,成都
武侯-航空路-锦官秀城南区,132.32㎡,南北,3室2厅2卫,高楼层（18层）,5000 元/月,CD2799256268429336576,2021-06-26,104.081773,30.619461,整租,//权属核验/近地铁/精装/双卫生间/随时看房/,有,暂无数据,民水,民电,有,暂无数据,2021-07-02 18:18:50,成都
武侯-丽都-交大万通格外,77.76㎡,东南,2室1厅1卫,低楼层（18层）,3200 元/月,CD2800013900744507392,2021-06-26,104.033678,30.630053,整租,/权属核验/精装/,有,暂无数据,民水,民电,有,自采暖,2021-07-02 18:18:59,成都
武侯-双楠-卫雅苑,119.45㎡,东南,3室1厅1卫,中楼层（7层）,2600 元/月,CD2800639710941691904,2021-06-27,104.03544562,30.64789443,整租,/权属核验/近地铁/随时看房/,无,租用车位,民水,民电,有,自采暖,2021-07-02 18:19:08,成都
武侯-草金立交-蓝光金双楠二期,119.53㎡,南,4室2厅2卫,中楼层（4层）,8000 元/月,CD2799887402682810368,2021-07-01,103.975854,30.650009,整租,/权属核验/近地铁/精装/双卫生间/,有,暂无数据,暂无数据,暂无数据,有,暂无数据,2021-07-02 18:19:11,成都
武侯-双楠-双楠一区,64.61㎡,南,2室1厅1卫,高楼层（7层）,2000 元/月,CD2800000736375603200,2021-06-27,104.033965,30.649562,整租,//权属核验/随时看房/,无,租用车位,民水,民电,有,暂无数据,2021-07-02 18:19:18,成都
武侯-双楠-月光琉域,78.20㎡,东南,2室2厅1卫,中楼层（17层）,3300 元/月,CD2800021648630628352,2021-06-26,104.03473054,30.64604515,整租,//权属核验/近地铁/精装/随时看房/,有,免费使用,民水,民电,有,自采暖,2021-07-02 18:19:21,成都
武侯-外双楠-西藏花园,102.78㎡,东南,3室1厅1卫,高楼层（7层）,2600 元/月,CD2799893963052417024,2021-06-27,104.018738,30.654546,整租,/权属核验/近地铁/随时看房/,无,暂无数据,民水,民电,有,自采暖,2021-07-02 18:19:30,成都
武侯-红牌楼-新界五期,72.28㎡,南,4室2厅2卫,低楼层（7层）,4000 元/月,CD2800538897313177600,2021-06-29,104.022385,30.636128,整租,/权属核验/近地铁/精装/双卫生间/随时看房/,有,暂无数据,民水,民电,有,自采暖,2021-07-02 18:19:37,成都
武侯-桐梓林-桐梓林欧城,136.90㎡,南,3室1厅1卫,高楼层（21层）,6300 元/月,CD2800540269287063552,2021-06-27,104.067457,30.61725,整租,/权属核验/近地铁/精装/随时看房/,有,租用车位,民水,民电,有,暂无数据,2021-07-02 18:19:45,成都
武侯-外双楠-二环路西一段55号,52.18㎡,东南,3室1厅1卫,低楼层（7层）,2600 元/月,CD2800799680638746624,2021-06-27,104.026972,30.65537,整租,/权属核验/精装/,无,暂无数据,民水,民电,有,暂无数据,2021-07-02 18:19:51,成都
武侯-桐梓林-桐梓林欧城,54.28㎡,西,1室1厅1卫,高楼层（20层）,3000 元/月,CD2801450162672123904,2021-06-27,104.067457,30.61725,整租,/权属核验/精装/,有,暂无数据,民水,民电,有,暂无数据,2021-07-02 18:19:59,成都
武侯-红牌楼-武侯国际花园,88.99㎡,东南,3室2厅1卫,低楼层（13层）,3200 元/月,CD2800837597222944768,2021-06-30,104.022701,30.642236,整租,/权属核验/近地铁/精装/随时看房/,有,暂无数据,民水,民电,有,自采暖,2021-07-02 18:20:05,成都
武侯-双楠-纳米爱邸,42.10㎡,西,1室0厅1卫,低楼层（17层）,1800 元/月,CD2801437738195763200,2021-06-30,104.034867,30.655497,整租,/权属核验/精装/,有,暂无数据,民水,民电,有,暂无数据,2021-07-02 18:20:13,成都
武侯-航空路-华尔兹广场(武侯),42.97㎡,北,1室0厅1卫,低楼层（24层）,2300 元/月,CD2801434306549907456,2021-06-27,104.07817754,30.62249227,整租,/权属核验/精装/随时看房/,有,租用车位,民水,民电,有,暂无数据,2021-07-02 18:20:18,成都
武侯-五大花园-会所花园,89.14㎡,西南,2室2厅1卫,中楼层（12层）,2300 元/月,CD2801388535033372672,2021-06-27,104.008102,30.653875,整租,/权属核验/近地铁/随时看房/,有,暂无数据,民水,民电,有,自采暖,2021-07-02 18:20:23,成都
武侯-草金立交-世豪嘉柏,90.00㎡,东,3室2厅1卫,中楼层（22层）,3200 元/月,CD2801473441738801152,2021-06-27,103.99199,30.634765,整租,/权属核验/精装/,有,暂无数据,民水,民电,有,暂无数据,2021-07-02 18:20:30,成都
武侯-外双楠-鹭岛国际一二期,47.73㎡,东,1室0厅1卫,高楼层（11层）,2300 元/月,CD2802081221411618816,2021-07-01,104.017929,30.65095,整租,/权属核验/精装/,有,租用车位,民水,民电,有,自采暖,2021-07-02 18:20:39,成都
武侯-武侯立交-金楠缤纷,71.04㎡,西北,3室1厅1卫,低楼层（16层）,2200 元/月,CD2802013088893902848,2021-06-27,104.007361,30.64303,整租,//权属核验/随时看房/,有,租用车位,民水,民电,有,自采暖,2021-07-02 18:20:45,成都
武侯-新双楠-保利花园四期,75.01㎡,南,2室2厅1卫,高楼层（14层）,2700 元/月,CD2802145727180963840,2021-06-27,103.996216,30.628239,整租,/权属核验/精装/,有,暂无数据,民水,民电,有,自采暖,2021-07-02 18:20:54,成都
武侯-红牌楼-新界五期,86.87㎡,西南,2室2厅1卫,低楼层（7层）,3500 元/月,CD2802747891763126272,2021-06-27,104.022385,30.636128,整租,/权属核验/近地铁/随时看房/,有,暂无数据,民水,民电,有,自采暖,2021-07-02 18:20:59,成都
武侯-外双楠-双楠所有阳光,78.62㎡,东,2室1厅1卫,低楼层（11层）,2400 元/月,CD2802775382414606336,2021-06-30,104.027519,30.656837,整租,//权属核验/随时看房/,有,暂无数据,民水,民电,有,自采暖,2021-07-02 18:21:08,成都
武侯-丽都-美丽天城,83.33㎡,东南,2室1厅1卫,中楼层（16层）,2600 元/月,CD2802731007844302848,2021-06-27,104.030582,30.632062,整租,//权属核验/精装/,有,租用车位,民水,民电,有,暂无数据,2021-07-02 18:21:17,成都
武侯-丽都-优客联邦一期,50.73㎡,西南,1室1厅1卫,中楼层（16层）,2600 元/月,CD2802294993291575296,2021-06-27,104.03824234,30.63947438,整租,/权属核验/近地铁/精装/,有,暂无数据,民水,民电,有,暂无数据,2021-07-02 18:21:26,成都
武侯-五大花园-中央花园一期,40.05㎡,东南,3室1厅1卫,低楼层（7层）,2000 元/月,CD2802974725075378176,2021-06-27,104.0078067,30.66176638,整租,/权属核验/近地铁/,无,暂无数据,民水,民电,有,自采暖,2021-07-02 18:21:29,成都
武侯-双楠-月光琉域,78.09㎡,南,2室2厅1卫,中楼层（17层）,4000 元/月,CD2802972395752144896,2021-06-29,104.03473054,30.64604515,整租,/权属核验/近地铁/精装/,有,租用车位,民水,民电,有,自采暖,2021-07-02 18:21:34,成都
武侯-五大花园-晋源彩庭博派,65.82㎡,南,2室2厅1卫,中楼层（17层）,2200 元/月,CD2802985935653052416,2021-06-29,104.008114,30.660564,整租,//权属核验/随时看房/,有,租用车位,民水,民电,有,暂无数据,2021-07-02 18:21:40,成都
武侯-广福桥-巷上生活馆,54.10㎡,东南,1室1厅1卫,高楼层（15层）,2000 元/月,CD2802746628816248832,2021-06-27,104.04224938,30.64896213,整租,/权属核验/精装/,有,租用车位,民水,民电,有,自采暖,2021-07-02 18:21:43,成都
武侯-草金立交-世豪嘉柏,49.52㎡,东,1室0厅0卫,中楼层（19层）,1950 元/月,CD2803524327201308672,2021-06-27,103.99199,30.634765,整租,/权属核验/,有,暂无数据,商水,商电,有,暂无数据,2021-07-02 18:21:51,成都
武侯-簇桥-龙湖紫都城,40.60㎡,南北,1室0厅1卫,中楼层（11层）,3000 元/月,CD2803614272356089856,2021-06-27,103.989413,30.627094,整租,/权属核验/近地铁/精装/随时看房/,无,暂无数据,商水,商电,有,暂无数据,2021-07-02 18:21:57,成都
武侯-新双楠-金隅珑熙汇,48.80㎡,南,1室1厅1卫,低楼层（16层）,2300 元/月,CD2803432041482289152,2021-06-27,104.003206,30.627293,整租,/权属核验/近地铁/精装/随时看房/,有,暂无数据,商水,商电,无,暂无数据,2021-07-02 18:22:01,成都
武侯-川音-南岸一家,135.56㎡,东北,3室2厅2卫,中楼层（25层）,4500 元/月,CD2803446491791245312,2021-06-27,104.087703,30.648528,整租,/权属核验/精装/双卫生间/,有,租用车位,民水,民电,有,暂无数据,2021-07-02 18:22:04,成都
武侯-桐梓林-金地贝福里花园,117.76㎡,南,2室1厅2卫,中楼层（18层）,4500 元/月,CD2803012574592385024,2021-07-01,104.066191,30.620975,整租,/权属核验/精装/双卫生间/随时看房/,有,暂无数据,民水,民电,有,自采暖,2021-07-02 18:22:10,成都
武侯-五大花园-中央花园首期别墅,365.00㎡,东南,9室3厅6卫,低楼层（1层）,21000 元/月,CD2804186897042112512,2021-06-30,104.01203708,30.65916326,整租,/权属核验/,无,暂无数据,民水,民电,有,自采暖,2021-07-02 18:22:13,成都
武侯-红牌楼-双楠港汇广场,61.87㎡,南,3室0厅1卫,中楼层（6层）,6000 元/月,CD2803573256039170048,2021-06-27,104.024716,30.636225,整租,/权属核验/近地铁/,有,暂无数据,民水,民电,有,暂无数据,2021-07-02 18:22:22,成都
武侯-火车南站-中国水电泛悦国际,67.11㎡,东南,2室1厅1卫,低楼层（31层）,3700 元/月,CD2804255263828213760,2021-07-01,104.085104,30.618703,整租,//权属核验/精装/随时看房/,有,租用车位,民水,民电,有,暂无数据,2021-07-02 18:22:30,成都
武侯-川音-摩卡筑,80.94㎡,南,2室1厅1卫,高楼层（18层）,3000 元/月,CD2804926050411487232,2021-06-27,104.088119,30.644847,整租,//权属核验/随时看房/,有,暂无数据,民水,民电,有,暂无数据,2021-07-02 18:22:35,成都
武侯-华西-小天北巷38号,99.66㎡,东,4室1厅2卫,高楼层（7层）,5000 元/月,CD2804867176375525376,2021-06-24,104.064335,30.643302,整租,/权属核验/近地铁/精装/双卫生间/,无,暂无数据,民水,民电,有,暂无数据,2021-07-02 18:22:40,成都
武侯-航空路-曼哈顿自然派,57.23㎡,东,1室1厅1卫,中楼层（19层）,2600 元/月,CD2812528442300432384,2021-06-27,104.079267,30.620225,整租,//权属核验/近地铁/精装/随时看房/,有,暂无数据,民水,民电,有,自采暖,2021-07-02 18:22:47,成都
武侯-高升桥-高升瑞景,53.66㎡,南,2室1厅1卫,高楼层（20层）,3200 元/月,CD2812391384550744064,2021-07-01,104.04915,30.645065,整租,//权属核验/近地铁/精装/随时看房/,有,暂无数据,民水,民电,有,暂无数据,2021-07-02 18:22:54,成都
武侯-武侯立交-金楠缤纷,69.48㎡,东南,2室2厅1卫,中楼层（16层）,3000 元/月,CD2812333234250326016,2021-06-25,104.007361,30.64303,整租,/权属核验/精装/随时看房/,有,暂无数据,民水,民电,有,自采暖,2021-07-02 18:23:01,成都
武侯-红牌楼-楠庭理想,63.48㎡,西南,1室1厅1卫,高楼层（14层）,2200 元/月,CD2812367810448605184,2021-06-27,104.02879053,30.63994326,整租,/权属核验/近地铁/精装/,有,租用车位,民水,民电,有,自采暖,2021-07-02 18:23:06,成都
武侯-火车南站-中国水电泛悦国际,88.72㎡,西北,3室2厅1卫,高楼层（31层）,3800 元/月,CD2812320530214944768,2021-06-20,104.085104,30.618703,整租,/权属核验/,有,暂无数据,民水,民电,有,暂无数据,2021-07-02 18:23:14,成都
武侯-新双楠-双楠尚品广场,69.38㎡,西南,2室2厅1卫,中楼层（16层）,2700 元/月,CD2813074668700049408,2021-07-01,104.002821,30.62984,整租,/权属核验/精装/,有,暂无数据,商水,商电,有,自采暖,2021-07-02 18:23:22,成都
