house_address,house_rental_area,house_orientation,house_layout,house_floor,house_rental_price,house_id,house_update_time,house_longitude,house_latitude,house_rental_method,house_tag,house_elevator,house_parking,house_water,house_electricity,house_gas,house_heating,create_time,city
新都-毗河-翰香府,98.36㎡,南北,3室1厅2卫,高楼层（6层）,1400 元/月,CD2621524243107815424,2021-07-01,104.17462,30.810908,整租,//权属核验/近地铁/双卫生间/随时看房/,无,暂无数据,民水,民电,有,暂无数据,2021-07-02 19:05:57,成都
新都-大丰-保利城二期,92.02㎡,南,3室2厅1卫,高楼层（15层）,1800 元/月,CD2776627837238001664,2021-06-27,104.095045,30.760292,整租,//权属核验/精装/随时看房/,有,暂无数据,民水,民电,有,暂无数据,2021-07-02 19:06:00,成都
新都-大丰-城北优品道,17.00㎡,南,4室1厅1卫,低楼层（32层）,670 元/月,CD2557972362734092288,2021-06-09,104.08573931836,30.7635188644,合租,/权属核验/公寓/精装/押一付一/随时看房/,有,租用车位,民水,民电,有,自采暖,2021-07-02 19:06:07,成都
新都-大丰-鲜花大院,86.20㎡,东,3室2厅1卫,低楼层（18层）,1800 元/月,CD2799964591231074304,2021-06-26,104.075947,30.75323,整租,//权属核验/精装/随时看房/,有,租用车位,民水,民电,有,自采暖,2021-07-02 19:06:14,成都
新都-大丰-常青藤一期,14.00㎡,南,5室1厅1卫,中楼层（16层）,580 元/月,CD2801462022452559872,2021-06-04,104.06510898335,30.77368625616,合租,/权属核验/公寓/近地铁/精装/押一付一/随时看房/,有,租用车位,民水,民电,有,自采暖,2021-07-02 19:06:20,成都
新都-毗河-华都九龙广场,80.50㎡,东南,1室1厅1卫,中楼层（16层）,1500 元/月,CD2793345418757947392,2021-06-25,104.150421,30.797637,整租,/权属核验/近地铁/随时看房/,有,暂无数据,商水,商电,无,暂无数据,2021-07-02 19:06:25,成都
新都-毗河-传化国际商务区,74.79㎡,东北,2室2厅1卫,中楼层（28层）,1400 元/月,CD2623364590524186624,2021-06-29,104.142462,30.797699,整租,/权属核验/精装/随时看房/,有,暂无数据,商水,商电,有,暂无数据,2021-07-02 19:06:32,成都
新都-大丰-盛世名城,59.38㎡,东,5室2厅2卫,中楼层（21层）,2800 元/月,CD2613684078490427392,2021-06-26,104.074219,30.763744,整租,/权属核验/近地铁/双卫生间/随时看房/,有,暂无数据,民水,民电,有,自采暖,2021-07-02 19:06:37,成都
新都-大丰-北新国际广场,87.75㎡,南,3室2厅1卫,低楼层（33层）,1600 元/月,CD2794123225993584640,2021-06-27,104.066057,30.778709,整租,/权属核验/随时看房/,有,暂无数据,民水,民电,有,自采暖,2021-07-02 19:06:40,成都
新都-大丰-保利大都汇熙汇,36.00㎡,东南,1室1厅1卫,中楼层（34层）,1000 元/月,CD2793572633802194944,2021-06-30,104.08009184217,30.759938746852,整租,/权属核验/精装/随时看房/,有,暂无数据,暂无数据,暂无数据,有,暂无数据,2021-07-02 19:06:43,成都
新都-大丰-常青藤一期,13.00㎡,南,5室1厅1卫,中楼层（16层）,520 元/月,CD2801462134180429824,2021-06-04,104.06510898335,30.77368625616,合租,/权属核验/公寓/近地铁/精装/押一付一/随时看房/,有,租用车位,民水,民电,有,自采暖,2021-07-02 19:06:49,成都
新都-毗河-华都九龙广场,47.73㎡,南,1室1厅1卫,高楼层（30层）,1000 元/月,CD2795616577348190208,2021-07-01,104.150421,30.797637,整租,/权属核验/随时看房/,有,暂无数据,暂无数据,暂无数据,有,暂无数据,2021-07-02 19:06:51,成都
新都-大丰-汇融广场,13.00㎡,南,4室1厅1卫,高楼层（39层）,530 元/月,CD2805061474060607488,2021-06-09,104.06815443274,30.771389693344,合租,/权属核验/公寓/近地铁/精装/押一付一/,有,租用车位,民水,民电,有,自采暖,2021-07-02 19:06:58,成都
新都-毗河-传化国际新城,81.65㎡,西南,2室2厅1卫,中楼层（29层）,1600 元/月,CD2795056263707230208,2021-06-29,104.145044,30.799547,整租,/权属核验/精装/,有,暂无数据,民水,民电,有,自采暖,2021-07-02 19:07:05,成都
新都-新都城区-我的大学,69.60㎡,东南,2室1厅1卫,高楼层（24层）,1700 元/月,CD2773921158528245760,2021-06-28,104.197626,30.827671,整租,/权属核验/近地铁/精装/随时看房/,有,租用车位,民水,民电,有,暂无数据,2021-07-02 19:07:11,成都
新都-大丰-保利大都汇熙汇,36.00㎡,西南,1室1厅1卫,低楼层（34层）,1300 元/月,CD2773015169746878464,2021-06-27,104.08009184217,30.759938746852,整租,/权属核验/精装/随时看房/,有,暂无数据,暂无数据,暂无数据,有,暂无数据,2021-07-02 19:07:18,成都
新都-毗河-万科缇香荟,30.00㎡,南,1室0厅1卫,高楼层（32层）,1000 元/月,CD2773219729887215616,2021-06-27,104.150009,30.794072,整租,/权属核验/近地铁/,有,暂无数据,商水,商电,有,暂无数据,2021-07-02 19:07:27,成都
新都-大丰-保利爱尚里,81.35㎡,北,3室1厅1卫,低楼层（32层）,1800 元/月,CD2796386238934810624,2021-06-22,104.083685,30.760075,整租,/权属核验/精装/随时看房/,有,租用车位,民水,民电,有,暂无数据,2021-07-02 19:07:32,成都
新都-新都城区-新都城市之心,84.65㎡,南,2室2厅1卫,高楼层（26层）,1500 元/月,CD2776151334876094464,2021-06-14,104.177934,30.832529,整租,/权属核验/近地铁/精装/,有,暂无数据,民水,民电,有,暂无数据,2021-07-02 19:07:40,成都
新都-大丰-保利大都汇熙汇,36.00㎡,南北,1室1厅1卫,高楼层（34层）,1300 元/月,CD2776764726049513472,2021-06-27,104.08009184217,30.759938746852,整租,/权属核验/精装/,有,暂无数据,暂无数据,暂无数据,有,暂无数据,2021-07-02 19:07:47,成都
新都-大丰-常青藤一期,11.00㎡,南,5室1厅1卫,中楼层（16层）,501 元/月,CD2801461905532141568,2021-06-04,104.06510898335,30.77368625616,合租,/权属核验/公寓/近地铁/精装/押一付一/随时看房/,有,租用车位,民水,民电,有,自采暖,2021-07-02 19:07:54,成都
新都-新都城区-桂湖名城二期,38.61㎡,南,1室0厅1卫,低楼层（23层）,1100 元/月,CD2797090510198808576,2021-06-13,104.160653,30.822047,整租,/权属核验/近地铁/,有,暂无数据,商水,商电,有,暂无数据,2021-07-02 19:08:02,成都
新都-大丰-润禾花园,11.00㎡,南,4室1厅2卫,低楼层（24层）,501 元/月,CD2805030553542737920,2021-06-09,104.07172686791,30.769471418102,合租,/权属核验/公寓/近地铁/精装/押一付一/随时看房/,有,租用车位,民水,民电,有,自采暖,2021-07-02 19:08:08,成都
新都-毗河-润扬双河鹭岛,115.05㎡,东南,3室1厅1卫,高楼层（6层）,1700 元/月,CD2644198116445650944,2021-06-29,104.157475,30.797419,整租,/权属核验/精装/随时看房/,有,暂无数据,民水,民电,有,自采暖,2021-07-02 19:08:13,成都
新都-大丰-北新润苑二期,8.00㎡,东南,4室1厅2卫,低楼层（28层）,640 元/月,CD2553621554043035648,2021-06-24,104.07621137708,30.772017695951,合租,/权属核验/公寓/近地铁/精装/随时看房/,有,租用车位,民水,民电,有,集中供暖,2021-07-02 19:08:20,成都
新都-保利公园-中洲·中央公园,77.32㎡,东南,2室1厅1卫,中楼层（33层）,1900 元/月,CD2647906816050610176,2021-06-28,104.162315,30.752739,整租,/权属核验/精装/随时看房/,有,暂无数据,民水,民电,有,暂无数据,2021-07-02 19:08:26,成都
新都-大丰-圣采泊尚,8.00㎡,东,4室1厅2卫,中楼层（30层）,550 元/月,CD2805841543360159744,2021-07-01,104.07542206588,30.779649485844,合租,/权属核验/公寓/近地铁/精装/随时看房/,有,租用车位,民水,民电,有,集中供暖,2021-07-02 19:08:31,成都
新都-新都城区-友盛上都,81.27㎡,东北,1室0厅0卫,高楼层（22层）,2400 元/月,CD2664526682349633536,2021-06-30,104.197971,30.824721,整租,/权属核验/近地铁/随时看房/,有,暂无数据,暂无数据,暂无数据,有,暂无数据,2021-07-02 19:08:34,成都
新都-大丰-北新润苑二期,12.00㎡,东,4室1厅1卫,低楼层（28层）,690 元/月,CD2549102302883479552,2021-06-27,104.07396261387,30.772032163286,合租,/权属核验/公寓/近地铁/精装/随时看房/,有,免费使用,民水,民电,有,集中供暖,2021-07-02 19:08:40,成都
新都-大丰-圣采泊尚,13.00㎡,东南,4室1厅2卫,中楼层（30层）,880 元/月,CD2820945135419006976,2021-07-01,104.07542206588,30.779649485844,合租,/权属核验/新上/公寓/独立卫生间/近地铁/精装/随时看房/,有,租用车位,民水,民电,有,集中供暖,2021-07-02 19:08:48,成都
新都-大丰-汇融悉尼湾达令港,12.00㎡,东,3室1厅1卫,中楼层（28层）,580 元/月,CD2792751855082676224,2021-07-02,104.07470662971,30.768371908042,合租,/权属核验/公寓/近地铁/精装/随时看房/,有,免费使用,民水,民电,有,集中供暖,2021-07-02 19:08:50,成都
新都-大丰-朗基香樾府,11.00㎡,东南,5室1厅3卫,中楼层（18层）,690 元/月,CD2799247648145031168,2021-07-01,104.07043765146,30.764394408117,合租,/权属核验/公寓/近地铁/精装/独立阳台/随时看房/,无,租用车位,民水,民电,有,集中供暖,2021-07-02 19:08:55,成都
新都-毗河-万科缇香荟,30.00㎡,东南,1室1厅1卫,中楼层（32层）,700 元/月,CD2630252581603254272,2021-06-27,104.150009,30.794072,整租,/权属核验/近地铁/精装/随时看房/,有,暂无数据,商水,商电,有,暂无数据,2021-07-02 19:08:58,成都
新都-大丰-钰邸华府,91.80㎡,南,2室1厅1卫,中楼层（18层）,1800 元/月,CD2797737747207962624,2021-06-27,104.095988,30.76093,整租,/权属核验/精装/,有,暂无数据,民水,民电,有,自采暖,2021-07-02 19:09:05,成都
新都-新都城区-润扬北城1号,89.12㎡,南,2室1厅1卫,中楼层（33层）,1000 元/月,CD2635481646715387904,2021-05-30,104.19577,30.821542,整租,/权属核验/近地铁/随时看房/,有,租用车位,民水,民电,有,自采暖,2021-07-02 19:09:11,成都
新都-大丰-汇融悉尼湾达令港,15.00㎡,东,4室1厅1卫,低楼层（32层）,690 元/月,CD2818670142589255680,2021-06-28,104.07390856643,30.768795726116,合租,/权属核验/新上/公寓/精装/随时看房/,有,免费使用,民水,民电,有,集中供暖,2021-07-02 19:09:18,成都
新都-大丰-汇融悉尼湾达令港,13.00㎡,东南,4室1厅1卫,低楼层（32层）,720 元/月,CD2818670100520386560,2021-06-28,104.07390856643,30.768795726116,合租,/权属核验/新上/公寓/精装/独立阳台/随时看房/,有,免费使用,民水,民电,有,集中供暖,2021-07-02 19:09:25,成都
新都-大丰-圣采泊尚,111.10㎡,东,4室2厅2卫,低楼层（30层）,2500 元/月,CD2797771318064857088,2021-07-01,104.075852,30.778161,整租,/权属核验/精装/双卫生间/,有,暂无数据,民水,民电,有,自采暖,2021-07-02 19:09:33,成都
新都-大丰-汇融悉尼湾达令港,12.00㎡,西南,4室1厅1卫,低楼层（32层）,670 元/月,CD2818670175472328704,2021-06-28,104.07390856643,30.768795726116,合租,/权属核验/新上/公寓/精装/随时看房/,有,免费使用,民水,民电,有,集中供暖,2021-07-02 19:09:36,成都
新都-保利公园-保利海棠花语,60.64㎡,东南,2室2厅1卫,中楼层（15层）,1500 元/月,CD2777478350183342080,2021-07-01,104.149564,30.764328,整租,//权属核验/精装/随时看房/,有,暂无数据,民水,民电,有,自采暖,2021-07-02 19:09:38,成都
新都-新都城区-北欧印象,89.04㎡,西南,3室1厅2卫,中楼层（32层）,2000 元/月,CD2778145370927546368,2021-06-26,104.189735,30.818316,整租,/权属核验/双卫生间/随时看房/,有,租用车位,民水,民电,有,自采暖,2021-07-02 19:09:43,成都
新都-大丰-保利大都汇丨雅汇,95.00㎡,南,3室2厅1卫,低楼层（29层）,2200 元/月,CD2778812896606961664,2021-06-27,104.077547,30.76095,整租,/权属核验/精装/,无,暂无数据,暂无数据,暂无数据,暂无数据,暂无数据,2021-07-02 19:09:50,成都
新都-大丰-龙湖听蓝湾,119.66㎡,东南,3室2厅2卫,高楼层（40层）,2600 元/月,CD2798432591496626176,2021-07-02,104.071571,30.781377,整租,//权属核验/业主自荐/精装/双卫生间/随时看房/,有,暂无数据,民水,民电,有,暂无数据,2021-07-02 19:09:53,成都
新都-新都城区-八二一小区,116.45㎡,南,3室1厅2卫,中楼层（18层）,1300 元/月,CD2431621898321805312,2021-06-19,104.168834,30.821749,整租,/权属核验/近地铁/双卫生间/随时看房/,无,暂无数据,暂无数据,暂无数据,有,暂无数据,2021-07-02 19:09:58,成都
新都-保利公园-保利公园198丁香郡,85.81㎡,南,3室2厅2卫,中楼层（18层）,2500 元/月,CD2707963104272326656,2021-06-27,104.152979,30.761391,整租,/权属核验/精装/双卫生间/,有,暂无数据,民水,民电,有,自采暖,2021-07-02 19:10:01,成都
新都-保利公园-保利公园198蔷薇郡,117.55㎡,南,4室1厅2卫,中楼层（27层）,2500 元/月,CD2377395313125638144,2021-06-27,104.149809,30.760933,整租,/权属核验/双卫生间/,有,暂无数据,民水,民电,有,自采暖,2021-07-02 19:10:06,成都
新都-毗河-翰香府,132.00㎡,南,3室1厅1卫,高楼层（6层）,1900 元/月,CD2490336575234514944,2021-07-01,104.17462,30.810908,整租,/权属核验/精装/随时看房/,无,租用车位,暂无数据,暂无数据,有,暂无数据,2021-07-02 19:10:10,成都
新都-毗河-万科双水岸,123.66㎡,东南,3室2厅2卫,中楼层（6层）,2400 元/月,CD2500694440604614656,2021-06-27,104.157069,30.795495,整租,/权属核验/双卫生间/随时看房/,无,暂无数据,民水,民电,有,自采暖,2021-07-02 19:10:17,成都
新都-保利公园-保利拉斐云邸,91.00㎡,东南,3室2厅1卫,高楼层（18层）,2100 元/月,CD2705578266244423680,2021-06-25,104.164587,30.763116,整租,/权属核验/精装/随时看房/,有,免费使用,暂无数据,民电,有,暂无数据,2021-07-02 19:10:20,成都
新都-毗河-万科双水岸,91.84㎡,南,4室2厅2卫,中楼层（5层）,2800 元/月,CD2705131409374724096,2021-06-27,104.157069,30.795495,整租,/权属核验/双卫生间/,无,暂无数据,民水,民电,有,自采暖,2021-07-02 19:10:24,成都
新都-新都城区-水沐环岛,135.02㎡,西,3室1厅1卫,高楼层（12层）,1800 元/月,CD2704318264816967680,2021-06-11,104.197258,30.809594,整租,/权属核验/,有,暂无数据,民水,民电,有,自采暖,2021-07-02 19:10:29,成都
新都-新都城区-博海城一期,85.80㎡,南,2室2厅2卫,高楼层（27层）,2300 元/月,CD2707742449438572544,2021-06-30,104.162789,30.818763,整租,/权属核验/精装/双卫生间/,有,租用车位,民水,民电,有,自采暖,2021-07-02 19:10:35,成都
新都-毗河-万科五龙山翡翠郡,88.63㎡,南,3室2厅1卫,低楼层（10层）,2400 元/月,CD2501930481592049664,2021-06-27,104.16484489775,30.780332167119,整租,/权属核验/精装/,无,暂无数据,暂无数据,暂无数据,有,暂无数据,2021-07-02 19:10:44,成都
新都-毗河-传化国际商务区,44.08㎡,东,1室1厅1卫,中楼层（25层）,1100 元/月,CD2559415220615249920,2021-06-06,104.142462,30.797699,整租,/权属核验/随时看房/,有,暂无数据,商水,商电,有,暂无数据,2021-07-02 19:10:52,成都
新都-新都城区-芙蓉名城三期,86.00㎡,东南,3室2厅2卫,低楼层（32层）,1500 元/月,CD2708770096657989632,2021-07-01,104.18165,30.822236,整租,//权属核验/双卫生间/随时看房/,有,暂无数据,民水,民电,有,自采暖,2021-07-02 19:10:54,成都
新都-保利公园-保利公园198百合郡,107.53㎡,东,3室2厅2卫,中楼层（26层）,2200 元/月,CD2710253443137937408,2021-06-27,104.15443,30.757341,整租,/权属核验/精装/双卫生间/,有,租用车位,民水,民电,有,自采暖,2021-07-02 19:11:02,成都
新都-保利公园-恒大上林苑,114.00㎡,南北,3室1厅2卫,低楼层（33层）,1600 元/月,CD2713756461346848768,2021-06-08,104.244483,30.801305,整租,/权属核验/精装/双卫生间/,有,暂无数据,民水,民电,有,自采暖,2021-07-02 19:11:07,成都
新都-毗河-佳乐国际城四期,113.00㎡,西北,3室2厅2卫,低楼层（32层）,800 元/月,CD2716476419919593472,2021-06-25,104.162325,30.791738,整租,/权属核验/双卫生间/,无,暂无数据,民水,民电,有,暂无数据,2021-07-02 19:11:14,成都
新都-毗河-翰香府,103.63㎡,东,3室1厅2卫,高楼层（6层）,1500 元/月,CD2725207348741685248,2021-07-01,104.17462,30.810908,整租,/权属核验/双卫生间/随时看房/,无,租用车位,民水,暂无数据,有,暂无数据,2021-07-02 19:11:22,成都
新都-毗河-国光揽悦,132.76㎡,东南,4室2厅2卫,高楼层（20层）,2000 元/月,CD2726176947901308928,2021-07-01,104.155644,30.807918,整租,/权属核验/近地铁/双卫生间/随时看房/,有,租用车位,民水,民电,有,自采暖,2021-07-02 19:11:25,成都
新都-新都城区-金宇小区,15.00㎡,东,2室1厅1卫,高楼层（7层）,601 元/月,CD2497083315585294336,2021-06-27,104.17994120745,30.831245366353,合租,/权属核验/公寓/月租/精装/押一付一/随时看房/,无,免费使用,民水,民电,有,集中供暖,2021-07-02 19:11:29,成都
新都-新都城区-金荷大厦,106.01㎡,西南,3室1厅2卫,高楼层（25层）,1700 元/月,CD2587052137406545920,2021-06-19,104.172385,30.818581,整租,/权属核验/近地铁/双卫生间/随时看房/,有,租用车位,民水,民电,有,暂无数据,2021-07-02 19:11:37,成都
新都-新都城区-润扬北城1号,15.00㎡,南,3室2厅1卫,中楼层（33层）,650 元/月,CD2815239422503821312,2021-06-23,104.1934413699,30.822647978585,合租,/权属核验/公寓/精装/押一付一/随时看房/,有,免费使用,民水,民电,有,集中供暖,2021-07-02 19:11:46,成都
新都-保利公园-保利紫荆花语,86.67㎡,东,3室2厅2卫,高楼层（21层）,2200 元/月,CD2758549965419577344,2021-06-26,104.157177,30.760056,整租,/权属核验/精装/双卫生间/,有,暂无数据,民水,民电,有,自采暖,2021-07-02 19:11:49,成都
新都-新都城区-维也纳花园一期,82.80㎡,南,3室2厅1卫,中楼层（6层）,3600 元/月,CD2818825563044069376,2021-06-28,104.18817806545,30.816467387087,整租,/权属核验/新上/公寓/月租/精装/押一付一/随时看房/,无,免费使用,民水,民电,有,集中供暖,2021-07-02 19:11:53,成都
新都-毗河-富力桃园A区,89.83㎡,北,2室2厅1卫,低楼层（32层）,1500 元/月,CD2758176466121531392,2021-06-30,104.151508,30.8036,整租,/权属核验/近地铁/随时看房/,有,暂无数据,民水,民电,有,暂无数据,2021-07-02 19:11:59,成都
新都-大丰-汇融广场B区,12.00㎡,东南,4室1厅2卫,低楼层（40层）,630 元/月,CD2528818502786088960,2021-06-23,104.06810327631,30.771297468318,合租,/权属核验/公寓/月租/近地铁/独立阳台/押一付一/随时看房/,有,免费使用,民水,民电,有,集中供暖,2021-07-02 19:12:04,成都
新都-新都城区-东骏湖景湾四期,98.46㎡,南,3室1厅2卫,低楼层（18层）,1800 元/月,CD2787686609795940352,2021-06-27,104.192152,30.809296,整租,/权属核验/双卫生间/随时看房/,有,暂无数据,民水,民电,有,暂无数据,2021-07-02 19:12:10,成都
新都-大丰-汇融广场B区,12.00㎡,东南,4室1厅2卫,低楼层（40层）,630 元/月,CD2585708925256990720,2021-06-26,104.06810327631,30.771297468318,合租,/权属核验/公寓/月租/近地铁/精装/押一付一/随时看房/,有,免费使用,民水,民电,有,集中供暖,2021-07-02 19:12:13,成都
新都-保利公园-保利公园198玫瑰郡,131.85㎡,南西南,4室2厅2卫,中楼层（24层）,2000 元/月,CD2787702913685004288,2021-07-01,104.151684,30.754889,整租,/权属核验/双卫生间/随时看房/,有,暂无数据,民水,民电,有,自采暖,2021-07-02 19:12:15,成都
新都-大丰-保利大都汇熙汇,36.40㎡,东南,1室1厅1卫,高楼层（34层）,1450 元/月,CD2788206570381508608,2021-06-27,104.08009184217,30.759938746852,整租,/权属核验/精装/随时看房/,有,暂无数据,暂无数据,暂无数据,有,暂无数据,2021-07-02 19:12:22,成都
新都-新都城区-川音嘉苑,93.10㎡,南,2室1厅1卫,中楼层（11层）,1700 元/月,CD2760792738638610432,2021-06-26,104.189866,30.811528,整租,/权属核验/随时看房/,有,租用车位,民水,民电,有,自采暖,2021-07-02 19:12:31,成都
新都-保利公园-保利公园198玫瑰郡,125.89㎡,东南,4室2厅2卫,中楼层（24层）,2500 元/月,CD2788263156156473344,2021-07-01,104.151684,30.754889,整租,/权属核验/精装/双卫生间/随时看房/,有,租用车位,民水,民电,有,自采暖,2021-07-02 19:12:40,成都
新都-保利公园-保利公园198丁香郡,108.61㎡,西南,3室1厅2卫,中楼层（18层）,2300 元/月,CD2760930189083934720,2021-06-26,104.152979,30.761391,整租,/权属核验/精装/双卫生间/随时看房/,有,暂无数据,民水,民电,有,自采暖,2021-07-02 19:12:48,成都
新都-大丰-和信沪丰领地,11.00㎡,东南,5室1厅2卫,高楼层（18层）,610 元/月,CD2333884120553226240,2021-05-25,104.07145955756,30.763896540134,合租,/权属核验/公寓/月租/近地铁/精装/押一付一/随时看房/,有,暂无数据,民水,民电,有,暂无数据,2021-07-02 19:12:51,成都
新都-毗河-万科缇香荟,30.00㎡,东南,1室0厅1卫,中楼层（32层）,700 元/月,CD2763793126907707392,2021-06-21,104.150009,30.794072,整租,/权属核验/近地铁/随时看房/,有,暂无数据,商水,商电,有,暂无数据,2021-07-02 19:12:54,成都
新都-新都城区-猫市巷12号,174.39㎡,东南,3室2厅2卫,中楼层（6层）,2500 元/月,CD2370146709721317376,2021-06-06,104.166388,30.832212,整租,/权属核验/双卫生间/,无,暂无数据,民水,民电,有,暂无数据,2021-07-02 19:12:57,成都
新都-毗河-万科缇香荟,27.00㎡,西南,1室0厅1卫,高楼层（32层）,800 元/月,CD2789887383259054080,2021-06-27,104.150009,30.794072,整租,/权属核验/近地铁/随时看房/,无,暂无数据,商水,商电,有,暂无数据,2021-07-02 19:13:00,成都
新都-保利公园-保利公园198蔷薇郡,120.00㎡,东南,3室2厅2卫,中楼层（27层）,2000 元/月,CD2508657668508622848,2021-06-27,104.149809,30.760933,整租,/权属核验/精装/双卫生间/随时看房/,有,免费使用,民水,民电,有,自采暖,2021-07-02 19:13:06,成都
新都-新都城区-富豪公馆,163.48㎡,南,5室2厅2卫,低楼层（25层）,2200 元/月,CD2517385307872575488,2021-07-01,104.201506,30.82229,整租,/权属核验/近地铁/双卫生间/,有,租用车位,民水,民电,有,暂无数据,2021-07-02 19:13:14,成都
新都-保利公园-保利郁金香谷,252.92㎡,东南,4室2厅3卫,低楼层（6层）,10000 元/月,CD2739048179864436736,2021-06-27,104.151045,30.756808,整租,/权属核验/,无,暂无数据,民水,民电,有,自采暖,2021-07-02 19:13:19,成都
新都-新都城区-天府香城印象,91.00㎡,东南,3室2厅1卫,高楼层（26层）,1900 元/月,CD2741154678132703232,2021-06-30,104.164044,30.811025,整租,/权属核验/近地铁/精装/,有,租用车位,民水,民电,有,自采暖,2021-07-02 19:13:23,成都
新都-新都城区-聚贤雅丽园,125.00㎡,东,3室2厅1卫,高楼层（6层）,1800 元/月,CD2740582009767198720,2021-07-01,104.158435,30.813149,整租,/权属核验/近地铁/精装/随时看房/,无,租用车位,民水,民电,有,自采暖,2021-07-02 19:13:26,成都
新都-新都城区-友盛上都,104.24㎡,东南,1室0厅0卫,高楼层（22层）,3000 元/月,CD2667166598703349760,2021-06-21,104.197971,30.824721,整租,/权属核验/近地铁/随时看房/,有,暂无数据,暂无数据,暂无数据,有,暂无数据,2021-07-02 19:13:33,成都
新都-保利公园-保利公园198玫瑰郡,125.86㎡,南北,4室2厅2卫,低楼层（24层）,2400 元/月,CD2664986238179606528,2021-06-26,104.151684,30.754889,整租,/权属核验/精装/双卫生间/随时看房/,有,租用车位,民水,民电,有,自采暖,2021-07-02 19:13:41,成都
新都-新都城区-金冠华庭,177.81㎡,东南,4室2厅2卫,高楼层（6层）,2000 元/月,CD2744118628453449728,2021-06-21,104.174834,30.816957,整租,/权属核验/精装/双卫生间/,无,暂无数据,民水,民电,有,自采暖,2021-07-02 19:13:48,成都
新都-毗河-万科缇香荟,25.67㎡,东,1室0厅1卫,中楼层（32层）,1000 元/月,CD2743543817679675392,2021-07-01,104.150009,30.794072,整租,/权属核验/近地铁/,无,暂无数据,商水,商电,有,暂无数据,2021-07-02 19:13:51,成都
新都-保利公园-保利公园198玫瑰郡,179.83㎡,东南,4室2厅3卫,中楼层（11层）,2800 元/月,CD2744765429372157952,2021-06-27,104.151684,30.754889,整租,/权属核验/随时看房/,有,暂无数据,民水,民电,有,自采暖,2021-07-02 19:13:57,成都
新都-新都城区-竹韵新馆,78.64㎡,南,2室1厅1卫,中楼层（5层）,1300 元/月,CD2745495245658791936,2021-06-21,104.157264,30.824698,整租,/权属核验/随时看房/,无,租用车位,暂无数据,暂无数据,有,自采暖,2021-07-02 19:14:01,成都
新都-毗河-交大香洲半岛南庭,121.37㎡,东,3室1厅2卫,高楼层（8层）,1700 元/月,CD2747671755710799872,2021-05-30,104.171376,30.799222,整租,/权属核验/双卫生间/,有,暂无数据,民水,民电,有,自采暖,2021-07-02 19:14:03,成都
新都-新都城区-永星小区,85.31㎡,东南,2室2厅1卫,高楼层（7层）,1000 元/月,CD2678026313453019136,2021-06-20,104.15886,30.823578,整租,/权属核验/,无,暂无数据,暂无数据,暂无数据,有,暂无数据,2021-07-02 19:14:06,成都
新都-新都城区-川音嘉苑,149.54㎡,南,6室0厅6卫,低楼层（11层）,500 元/月,CD2679485732066181120,2021-06-26,104.189866,30.811528,合租,/权属核验/押一付一/随时看房/,有,暂无数据,民水,民电,有,自采暖,2021-07-02 19:14:13,成都
新都-毗河-万科五龙山九墅,95.40㎡,东南,2室2厅1卫,高楼层（21层）,2500 元/月,CD2751438480172122112,2021-06-20,104.176035,30.779828,整租,/权属核验/精装/,有,暂无数据,民水,民电,有,自采暖,2021-07-02 19:14:15,成都
新都-大丰-保利城一期,89.15㎡,东,3室1厅1卫,低楼层（18层）,1900 元/月,CD2783252309130346496,2021-06-27,104.094675,30.762713,整租,/权属核验/精装/随时看房/,有,暂无数据,民水,民电,有,暂无数据,2021-07-02 19:14:19,成都
新都-毗河-万科缇香荟,27.00㎡,东,1室0厅0卫,低楼层（32层）,800 元/月,CD2754236890860765184,2021-06-27,104.150009,30.794072,整租,/权属核验/近地铁/随时看房/,无,暂无数据,商水,商电,有,暂无数据,2021-07-02 19:14:23,成都
新都-毗河-澳洲湾,112.51㎡,东南,3室2厅2卫,高楼层（9层）,1600 元/月,CD2784059005583237120,2021-07-01,104.161034,30.801344,整租,//权属核验/近地铁/双卫生间/随时看房/,有,租用车位,暂无数据,民电,有,自采暖,2021-07-02 19:14:26,成都
新都-新都城区-麦田国际社区,90.69㎡,东南,3室1厅1卫,高楼层（29层）,1800 元/月,CD2784628471732125696,2021-06-30,104.161595,30.810872,整租,//权属核验/精装/随时看房/,有,暂无数据,民水,民电,有,自采暖,2021-07-02 19:14:29,成都
新都-新都城区-华逸花园新都苑,91.67㎡,西,2室2厅1卫,中楼层（6层）,1200 元/月,CD2786226055323582464,2021-06-30,104.156492,30.826088,整租,//权属核验/,无,租用车位,民水,民电,有,暂无数据,2021-07-02 19:14:35,成都
新都-毗河-传化国际新城,102.38㎡,东南,3室2厅2卫,低楼层（12层）,2500 元/月,CD2689151859557670912,2021-06-17,104.145044,30.799547,整租,/权属核验/精装/双卫生间/,有,租用车位,民水,民电,有,自采暖,2021-07-02 19:14:41,成都
新都-新都城区-和信天骄府,30.59㎡,东南,1室0厅1卫,中楼层（15层）,900 元/月,CD2694963685729763328,2021-06-20,104.15307,30.812765,整租,/权属核验/近地铁/精装/,有,租用车位,商水,商电,无,暂无数据,2021-07-02 19:14:49,成都
新都-新都城区-泽瀚峰景,76.00㎡,南北,2室2厅1卫,低楼层（32层）,1000 元/月,CD2693246593893154816,2021-06-30,104.145708,30.825768,整租,/权属核验/,有,暂无数据,民水,民电,有,自采暖,2021-07-02 19:14:54,成都
新都-新都城区-缤纷时代广场,31.03㎡,东,2室1厅1卫,高楼层（15层）,1400 元/月,CD2700697431938703360,2021-06-16,104.199467,30.815646,整租,/权属核验/随时看房/,有,暂无数据,民水,民电,有,自采暖,2021-07-02 19:15:01,成都
新都-保利公园-保利公园198蔷薇郡,104.80㎡,东南,3室2厅2卫,高楼层（27层）,2000 元/月,CD2723974433600708608,2021-06-27,104.149809,30.760933,整租,/权属核验/精装/双卫生间/,有,租用车位,民水,民电,有,自采暖,2021-07-02 19:15:09,成都
新都-保利公园-保利拉斐云邸,132.86㎡,东南,4室2厅2卫,高楼层（18层）,1888 元/月,CD2496147803223359488,2021-06-20,104.164587,30.763116,整租,/权属核验/精装/双卫生间/随时看房/,无,暂无数据,民水,民电,有,暂无数据,2021-07-02 19:15:17,成都
新都-保利公园-保利拉斐云邸,110.00㎡,西南,3室2厅2卫,高楼层（32层）,1600 元/月,CD2518174189035192320,2021-06-08,104.164587,30.763116,整租,/权属核验/精装/双卫生间/随时看房/,有,暂无数据,民水,民电,有,暂无数据,2021-07-02 19:15:22,成都
新都-保利公园-保利公园198百合郡,131.85㎡,东南,4室2厅2卫,中楼层（26层）,1900 元/月,CD2519515085786333184,2021-06-27,104.15443,30.757341,整租,/权属核验/双卫生间/随时看房/,有,租用车位,民水,民电,有,自采暖,2021-07-02 19:15:28,成都
新都-新都城区-缤纷时代广场,38.33㎡,南,1室1厅1卫,高楼层（15层）,1300 元/月,CD2807940349509500928,2021-06-25,104.199467,30.815646,整租,/权属核验/随时看房/,有,租用车位,民水,民电,有,自采暖,2021-07-02 19:15:36,成都
新都-毗河-雄飞北尚广场,91.00㎡,东,3室2厅1卫,中楼层（30层）,2000 元/月,CD2808760414484578304,2021-06-27,104.158892,30.804848,整租,/权属核验/近地铁/精装/,无,暂无数据,商水,商电,有,暂无数据,2021-07-02 19:15:42,成都
新都-保利公园-保利紫荆花语,83.00㎡,东南,3室1厅1卫,高楼层（21层）,2000 元/月,CD2809224131382886400,2021-06-27,104.157177,30.760056,整租,/权属核验/精装/随时看房/,有,租用车位,民水,民电,有,自采暖,2021-07-02 19:15:47,成都
新都-大丰-保利爱尚里,120.90㎡,南北,4室2厅2卫,中楼层（33层）,2300 元/月,CD2797014229558247424,2021-06-19,104.083685,30.760075,整租,/权属核验/精装/双卫生间/随时看房/,有,租用车位,民水,民电,有,自采暖,2021-07-02 19:15:50,成都
新都-大丰-保利大都汇熙汇,36.32㎡,西南,1室1厅1卫,高楼层（34层）,1000 元/月,CD2797218015647899648,2021-06-27,104.08009184217,30.759938746852,整租,/权属核验/精装/,有,暂无数据,暂无数据,暂无数据,有,暂无数据,2021-07-02 19:15:55,成都
新都-大丰-绿地城,89.22㎡,南,3室2厅1卫,低楼层（29层）,2100 元/月,CD2797221750516228096,2021-07-01,104.084691,30.766933,整租,/权属核验/精装/随时看房/,有,暂无数据,民水,民电,有,自采暖,2021-07-02 19:16:00,成都
新都-新都城区-中集大道555号,56.50㎡,东南,1室0厅1卫,中楼层（16层）,800 元/月,CD2796926784636198912,2021-06-27,104.127275,30.804385,整租,/权属核验/,有,暂无数据,商水,商电,有,暂无数据,2021-07-02 19:16:07,成都
新都-毗河-佳乐国际城四期,91.96㎡,东南,3室2厅2卫,中楼层（32层）,2000 元/月,CD2796941334609395712,2021-06-30,104.162325,30.791738,整租,/权属核验/精装/双卫生间/随时看房/,有,暂无数据,暂无数据,暂无数据,有,暂无数据,2021-07-02 19:16:12,成都
新都-新都城区-御城,93.32㎡,南,3室2厅2卫,低楼层（26层）,1600 元/月,CD2734667459050348544,2021-06-05,104.19316,30.820216,整租,/权属核验/近地铁/双卫生间/随时看房/,有,暂无数据,民水,民电,有,暂无数据,2021-07-02 19:16:15,成都
新都-毗河-传化国际商务区,44.08㎡,东南,1室1厅1卫,高楼层（25层）,1200 元/月,CD2734850132884594688,2021-06-22,104.142462,30.797699,整租,/权属核验/随时看房/,有,暂无数据,商水,商电,有,暂无数据,2021-07-02 19:16:23,成都
新都-新都城区-思学园博仕楼,31.25㎡,东,1室0厅1卫,高楼层（18层）,800 元/月,CD2809400421285117952,2021-07-01,104.184184,30.83154,整租,//权属核验/近地铁/随时看房/,有,暂无数据,民水,民电,有,暂无数据,2021-07-02 19:16:25,成都
新都-大丰-保利大都汇熙汇,41.00㎡,南,1室1厅1卫,中楼层（34层）,1100 元/月,CD2797086611442515968,2021-06-27,104.08009184217,30.759938746852,整租,/权属核验/精装/随时看房/,有,暂无数据,暂无数据,暂无数据,有,暂无数据,2021-07-02 19:16:32,成都
新都-保利公园-恒大上林苑,91.08㎡,南,3室1厅1卫,高楼层（30层）,1400 元/月,CD2797878486759645184,2021-06-24,104.244483,30.801305,整租,/权属核验/精装/,无,暂无数据,民水,民电,有,自采暖,2021-07-02 19:16:36,成都
新都-大丰-龙湖听蓝湾,106.40㎡,东北,4室1厅2卫,低楼层（11层）,1700 元/月,CD2798422660827594752,2021-06-28,104.071571,30.781377,整租,/权属核验/近地铁/双卫生间/,有,暂无数据,民水,民电,有,暂无数据,2021-07-02 19:16:41,成都
新都-毗河-万科缇香荟,30.00㎡,东南,1室0厅1卫,中楼层（32层）,600 元/月,CD2738356780307857408,2021-06-27,104.150009,30.794072,整租,/权属核验/近地铁/随时看房/,有,暂无数据,商水,商电,有,暂无数据,2021-07-02 19:16:44,成都
新都-保利公园-保利海棠花语,86.77㎡,东,3室2厅1卫,高楼层（15层）,600 元/月,CD2810656641765081088,2021-06-28,104.149564,30.764328,整租,/权属核验/,有,暂无数据,民水,民电,有,自采暖,2021-07-02 19:16:48,成都
新都-大丰-保利爱尚里,73.00㎡,东,2室1厅1卫,高楼层（29层）,1500 元/月,CD2741931800749146112,2021-06-08,104.083685,30.760075,整租,/权属核验/精装/随时看房/,有,租用车位,暂无数据,暂无数据,无,暂无数据,2021-07-02 19:16:53,成都
新都-新都城区-格林城市花园,89.00㎡,东南,3室1厅1卫,中楼层（30层）,1800 元/月,CD2741951327927279616,2021-06-30,104.15989423897,30.811773023411,整租,/权属核验/近地铁/精装/随时看房/,有,租用车位,暂无数据,暂无数据,暂无数据,暂无数据,2021-07-02 19:16:59,成都
新都-大丰-汇融广场B区,82.81㎡,东,3室1厅1卫,中楼层（31层）,2000 元/月,CD2798775554289958912,2021-06-28,104.067802,30.771689,整租,/权属核验/近地铁/精装/随时看房/,有,暂无数据,民水,民电,有,暂无数据,2021-07-02 19:17:04,成都
新都-新都城区-润扬北城1号,102.05㎡,南,3室1厅1卫,高楼层（33层）,1700 元/月,CD2799228028171845632,2021-06-30,104.19577,30.821542,整租,/权属核验/随时看房/,有,租用车位,民水,民电,有,自采暖,2021-07-02 19:17:10,成都
新都-毗河-叠香庄园,101.51㎡,南,3室1厅2卫,低楼层（6层）,2300 元/月,CD2799812036031422464,2021-06-25,104.180486,30.81097,整租,/权属核验/精装/双卫生间/随时看房/,无,暂无数据,民水,民电,有,自采暖,2021-07-02 19:17:19,成都
新都-毗河-香城河畔,56.44㎡,南,2室2厅1卫,中楼层（33层）,1500 元/月,CD2798559933862248448,2021-07-01,104.137736,30.792933,整租,//权属核验/随时看房/,有,暂无数据,暂无数据,暂无数据,有,自采暖,2021-07-02 19:17:27,成都
新都-保利公园-中洲·中央公园,198.48㎡,南,4室2厅3卫,低楼层（3层）,3000 元/月,CD2782617329799012352,2021-06-27,104.162315,30.752739,整租,/权属核验/,无,免费使用,民水,民电,有,暂无数据,2021-07-02 19:17:32,成都
新都-大丰-保利大都汇·君汇,107.02㎡,南,3室2厅1卫,低楼层（33层）,2000 元/月,CD2782705224182136832,2021-06-26,104.077308,30.763198,整租,/权属核验/,有,暂无数据,暂无数据,暂无数据,有,暂无数据,2021-07-02 19:17:37,成都
新都-保利公园-保利拉斐云邸,137.00㎡,东南,4室2厅2卫,中楼层（33层）,2200 元/月,CD2679567445127069696,2021-06-24,104.164587,30.763116,整租,/权属核验/精装/双卫生间/随时看房/,有,暂无数据,民水,民电,有,暂无数据,2021-07-02 19:17:40,成都
新都-保利公园-保利湖心岛,97.36㎡,南北,3室1厅1卫,低楼层（16层）,850 元/月,CD2726901232496558080,2021-06-24,104.191121,30.740245,整租,/权属核验/随时看房/,有,租用车位,民水,民电,有,暂无数据,2021-07-02 19:17:43,成都
新都-大丰-龙湖听蓝湾,120.00㎡,南,3室1厅2卫,低楼层（40层）,2600 元/月,CD2796421110856957952,2021-07-01,104.071571,30.781377,整租,/权属核验/精装/双卫生间/随时看房/,有,租用车位,民水,民电,有,暂无数据,2021-07-02 19:17:49,成都
新都-新都城区-天府香城印象,113.00㎡,东南,4室2厅2卫,低楼层（26层）,1700 元/月,CD2704398784456572928,2021-07-01,104.164044,30.811025,整租,/权属核验/近地铁/精装/双卫生间/随时看房/,有,租用车位,民水,民电,有,自采暖,2021-07-02 19:17:57,成都
新都-保利公园-保利拉斐云邸,134.20㎡,东南,4室2厅2卫,低楼层（34层）,2500 元/月,CD2701957785293160448,2021-06-29,104.164587,30.763116,整租,/权属核验/精装/双卫生间/随时看房/,无,暂无数据,民水,民电,有,暂无数据,2021-07-02 19:18:05,成都
新都-毗河-传化国际商务区,44.08㎡,东南,1室1厅1卫,高楼层（25层）,1000 元/月,CD2700664539384922112,2021-06-27,104.142462,30.797699,整租,/权属核验/精装/随时看房/,有,租用车位,商水,商电,有,暂无数据,2021-07-02 19:18:10,成都
新都-毗河-佳乐国际城三期,88.55㎡,东南南,3室2厅1卫,高楼层（32层）,2200 元/月,CD2789151866284408832,2021-06-19,104.164896,30.791079,整租,/权属核验/精装/,有,暂无数据,民水,民电,有,暂无数据,2021-07-02 19:18:19,成都
新都-大丰-五岳合福地广场,45.46㎡,南,1室1厅1卫,中楼层（19层）,1600 元/月,CD2790725677123641344,2021-06-26,104.075325,30.765598,整租,/权属核验/近地铁/随时看房/,有,租用车位,民水,民电,有,自采暖,2021-07-02 19:18:22,成都
新都-新都城区-新都国际广场一期,96.46㎡,东南,3室1厅1卫,高楼层（11层）,1700 元/月,CD2723708444480905216,2021-06-30,104.191571,30.816611,整租,/权属核验/精装/,有,租用车位,民水,民电,有,自采暖,2021-07-02 19:18:27,成都
新都-毗河-富力桃园B区,86.05㎡,东西,3室2厅1卫,高楼层（32层）,1900 元/月,CD2715713573950332928,2021-06-24,104.155128,30.802933,整租,//权属核验/近地铁/精装/随时看房/,有,暂无数据,民水,民电,有,暂无数据,2021-07-02 19:18:36,成都
新都-保利公园-保利公园198百合郡,141.70㎡,南,2室2厅1卫,中楼层（26层）,2000 元/月,CD2715184326613942272,2021-06-27,104.15443,30.757341,整租,/权属核验/精装/,有,租用车位,民水,民电,有,自采暖,2021-07-02 19:18:43,成都
新都-毗河-传化国际新城,102.49㎡,南,3室2厅2卫,低楼层（9层）,1600 元/月,CD2723949052768026624,2021-06-16,104.145044,30.799547,整租,/权属核验/双卫生间/随时看房/,有,暂无数据,民水,民电,有,自采暖,2021-07-02 19:18:47,成都
新都-新都城区-新都国际广场一期,110.54㎡,南,3室2厅1卫,中楼层（11层）,1600 元/月,CD2716033252560748544,2021-06-25,104.191571,30.816611,整租,/权属核验/近地铁/随时看房/,有,暂无数据,民水,民电,有,自采暖,2021-07-02 19:18:51,成都
新都-新都城区-友盛上都,43.52㎡,南,2室1厅1卫,中楼层（19层）,2100 元/月,CD2790447243344486400,2021-06-28,104.197971,30.824721,整租,/权属核验/近地铁/精装/,有,暂无数据,商水,商电,有,自采暖,2021-07-02 19:18:55,成都
新都-大丰-保利大都汇熙汇,44.00㎡,东,1室1厅1卫,低楼层（35层）,1300 元/月,CD2790574908520792064,2021-06-27,104.08009184217,30.759938746852,整租,/权属核验/精装/随时看房/,无,暂无数据,暂无数据,暂无数据,暂无数据,暂无数据,2021-07-02 19:19:01,成都
新都-新都城区-恒大御府,122.14㎡,南,3室1厅2卫,高楼层（26层）,1800 元/月,CD2791857291140268032,2021-06-23,104.154623,30.841318,整租,/权属核验/业主自荐/精装/双卫生间/,无,租用车位,民水,民电,有,自采暖,2021-07-02 19:19:09,成都
新都-新都城区-缤纷时代广场,30.63㎡,东南,1室1厅1卫,低楼层（15层）,1200 元/月,CD2792571783864123392,2021-06-12,104.199467,30.815646,整租,/权属核验/精装/随时看房/,有,暂无数据,民水,民电,有,自采暖,2021-07-02 19:19:15,成都
新都-新都城区-旺府豪庭,90.58㎡,北,3室2厅1卫,中楼层（18层）,1500 元/月,CD2726845921286963200,2021-06-27,104.196287,30.820333,整租,//权属核验/近地铁/精装/随时看房/,有,暂无数据,民水,民电,有,自采暖,2021-07-02 19:19:24,成都
新都-保利公园-保利公园198蔷薇郡,105.56㎡,东南,3室2厅2卫,高楼层（27层）,2200 元/月,CD2727321540244021248,2021-06-27,104.149809,30.760933,整租,/权属核验/精装/双卫生间/,有,暂无数据,民水,民电,有,自采暖,2021-07-02 19:19:31,成都
新都-大丰-圣采泊尚,88.43㎡,南,3室2厅2卫,中楼层（30层）,2000 元/月,CD2805817151032655872,2021-07-01,104.075852,30.778161,整租,//权属核验/精装/双卫生间/随时看房/,有,暂无数据,民水,民电,有,自采暖,2021-07-02 19:19:36,成都
新都-毗河-爵领欧城,97.30㎡,东南,3室2厅1卫,高楼层（18层）,1600 元/月,CD2805869071055732736,2021-06-16,104.148393,30.782598,整租,/权属核验/随时看房/,有,暂无数据,民水,民电,有,自采暖,2021-07-02 19:19:38,成都
新都-保利公园-保利公园198百合郡,133.30㎡,东南,3室2厅2卫,高楼层（18层）,2500 元/月,CD2792677015629594624,2021-06-27,104.15443,30.757341,整租,/权属核验/精装/双卫生间/随时看房/,有,租用车位,民水,民电,有,暂无数据,2021-07-02 19:19:43,成都
新都-大丰-龙湖听蓝湾,138.20㎡,东,4室2厅2卫,中楼层（11层）,3400 元/月,CD2793648450149810176,2021-07-01,104.071571,30.781377,整租,//权属核验/精装/双卫生间/随时看房/,无,暂无数据,民水,民电,有,暂无数据,2021-07-02 19:19:48,成都
新都-新都城区-缤纷时代广场,29.90㎡,东南,1室0厅1卫,高楼层（29层）,1000 元/月,CD2725330840929443840,2021-06-18,104.199467,30.815646,整租,/权属核验/随时看房/,有,暂无数据,民水,民电,无,自采暖,2021-07-02 19:19:51,成都
新都-大丰-保利爱尚里,106.12㎡,南,3室2厅2卫,高楼层（31层）,1900 元/月,CD2792849862025289728,2021-07-01,104.083685,30.760075,整租,/权属核验/精装/双卫生间/随时看房/,有,暂无数据,民水,民电,有,暂无数据,2021-07-02 19:19:58,成都
新都-保利公园-保利公园198蔷薇郡,186.22㎡,南,5室2厅2卫,高楼层（27层）,4000 元/月,CD2794868675314982912,2021-06-26,104.149809,30.760933,整租,/权属核验/精装/双卫生间/,有,暂无数据,民水,民电,有,自采暖,2021-07-02 19:20:07,成都
新都-大丰-凤凰山1号,77.72㎡,南,2室1厅1卫,低楼层（17层）,1500 元/月,CD2727678073867870208,2021-06-27,104.100095,30.765027,整租,/权属核验/精装/随时看房/,有,暂无数据,民水,民电,有,自采暖,2021-07-02 19:20:15,成都
新都-新都城区-润扬北城1号,87.00㎡,东南,3室2厅1卫,中楼层（33层）,1800 元/月,CD2728931836544679936,2021-07-01,104.19577,30.821542,整租,/权属核验/随时看房/,有,免费使用,民水,民电,有,自采暖,2021-07-02 19:20:19,成都
新都-大丰-保利城四期中央郡,118.00㎡,东南,4室2厅2卫,中楼层（25层）,2600 元/月,CD2786085474509258752,2021-06-27,104.094679,30.762482,整租,/权属核验/精装/双卫生间/随时看房/,有,暂无数据,民水,民电,有,暂无数据,2021-07-02 19:20:26,成都
新都-新都城区-我的大学,33.27㎡,东南,1室0厅1卫,中楼层（27层）,1000 元/月,CD2775192177460903936,2021-06-27,104.197626,30.827671,整租,//权属核验/随时看房/,有,租用车位,民水,民电,有,暂无数据,2021-07-02 19:20:33,成都
新都-大丰-保利城四期中央郡,83.07㎡,西南,3室2厅1卫,高楼层（25层）,1800 元/月,CD2773863240139014144,2021-06-20,104.094679,30.762482,整租,/权属核验/精装/,有,暂无数据,民水,民电,有,自采暖,2021-07-02 19:20:37,成都
新都-毗河-传化国际新城,105.89㎡,东南,4室2厅2卫,中楼层（34层）,1800 元/月,CD2777480204812296192,2021-05-31,104.145044,30.799547,整租,/权属核验/双卫生间/随时看房/,有,租用车位,民水,民电,有,自采暖,2021-07-02 19:20:40,成都
新都-毗河-万科缇香荟,30.00㎡,东南,1室0厅1卫,低楼层（32层）,800 元/月,CD2777322195389784064,2021-06-27,104.150009,30.794072,整租,/权属核验/近地铁/随时看房/,有,暂无数据,商水,商电,有,暂无数据,2021-07-02 19:20:47,成都
新都-毗河-万科缇香荟,30.00㎡,东南,1室0厅0卫,低楼层（32层）,800 元/月,CD2777326149695709184,2021-06-27,104.150009,30.794072,整租,/权属核验/近地铁/随时看房/,有,暂无数据,商水,商电,有,暂无数据,2021-07-02 19:20:53,成都
新都-大丰-尚林花园,92.00㎡,南,3室1厅2卫,低楼层（17层）,1500 元/月,CD2741847906373083136,2021-06-27,104.092155,30.765303,整租,/权属核验/双卫生间/随时看房/,有,暂无数据,民水,民电,有,自采暖,2021-07-02 19:20:56,成都
新都-毗河-万科缇香荟,27.00㎡,东北,1室0厅0卫,低楼层（32层）,800 元/月,CD2739829350613655552,2021-06-27,104.150009,30.794072,整租,/权属核验/近地铁/随时看房/,无,暂无数据,商水,商电,有,暂无数据,2021-07-02 19:21:04,成都
新都-保利公园-中洲·中央公园,125.00㎡,东南,4室2厅2卫,高楼层（24层）,2300 元/月,CD2739915425726349312,2021-06-26,104.162315,30.752739,整租,/权属核验/精装/双卫生间/,有,暂无数据,民水,民电,有,暂无数据,2021-07-02 19:21:12,成都
新都-大丰-城北优品道,95.53㎡,南北,3室2厅2卫,中楼层（32层）,1800 元/月,CD2742925857844117504,2021-06-26,104.084493,30.762945,整租,/权属核验/双卫生间/随时看房/,有,暂无数据,民水,民电,有,暂无数据,2021-07-02 19:21:18,成都
新都-大丰-保利城四期中央郡,95.29㎡,南,3室1厅2卫,低楼层（30层）,1500 元/月,CD2778181160076058624,2021-07-01,104.094679,30.762482,整租,/权属核验/精装/双卫生间/随时看房/,有,暂无数据,暂无数据,民电,有,暂无数据,2021-07-02 19:21:26,成都
新都-毗河-万科五龙山翡翠郡,88.40㎡,东南,3室2厅1卫,中楼层（11层）,2500 元/月,CD2800700475769356288,2021-06-26,104.16484489775,30.780332167119,整租,/权属核验/精装/,有,租用车位,民水,民电,有,暂无数据,2021-07-02 19:21:31,成都
新都-大丰-凤凰山1号,93.00㎡,南,3室1厅1卫,中楼层（18层）,1800 元/月,CD2800664284538085376,2021-06-27,104.100095,30.765027,整租,/权属核验/精装/随时看房/,有,暂无数据,民水,民电,有,自采暖,2021-07-02 19:21:33,成都
新都-毗河-翰香府,115.30㎡,西南,3室1厅2卫,高楼层（6层）,1800 元/月,CD2747160741802156032,2021-06-25,104.17462,30.810908,整租,/权属核验/精装/双卫生间/随时看房/,无,暂无数据,民水,民电,有,暂无数据,2021-07-02 19:21:39,成都
新都-保利公园-保利公园198丁香郡,132.41㎡,东南,4室1厅2卫,中楼层（18层）,1800 元/月,CD2812289323561656320,2021-06-27,104.152979,30.761391,整租,/权属核验/双卫生间/随时看房/,有,暂无数据,民水,民电,有,自采暖,2021-07-02 19:21:42,成都
新都-保利公园-保利狮子湖,105.32㎡,南北,3室2厅1卫,低楼层（29层）,1900 元/月,CD2749807563817091072,2021-07-01,104.179625,30.750364,整租,/权属核验/精装/,有,暂无数据,民水,民电,有,暂无数据,2021-07-02 19:21:45,成都
新都-大丰-博雅新城A区,210.00㎡,东,5室1厅2卫,低楼层（27层）,1500 元/月,CD2752965556163313664,2021-06-27,104.055822,30.761414,整租,/权属核验/双卫生间/,有,租用车位,民水,民电,有,自采暖,2021-07-02 19:21:48,成都
新都-毗河-万科缇香荟,27.00㎡,南,1室0厅1卫,中楼层（32层）,700 元/月,CD2752056842284187648,2021-06-21,104.150009,30.794072,整租,/权属核验/近地铁/随时看房/,无,暂无数据,商水,商电,有,暂无数据,2021-07-02 19:21:51,成都
新都-保利公园-保利公园198玫瑰郡,110.00㎡,东南,3室2厅2卫,中楼层（18层）,2300 元/月,CD2801529436787449856,2021-06-27,104.151684,30.754889,整租,//权属核验/精装/双卫生间/随时看房/,有,租用车位,民水,民电,有,自采暖,2021-07-02 19:21:57,成都
新都-大丰-北新国际广场,102.25㎡,南,3室2厅2卫,低楼层（33层）,2600 元/月,CD2802078284794298368,2021-06-27,104.066057,30.778709,整租,/权属核验/精装/双卫生间/,有,租用车位,民水,民电,有,自采暖,2021-07-02 19:22:03,成都
新都-大丰-汇融悉尼湾达令港,68.62㎡,南,2室1厅1卫,高楼层（32层）,1700 元/月,CD2812860632846835712,2021-06-30,104.075196,30.769076,整租,/权属核验/精装/,有,暂无数据,民水,民电,有,自采暖,2021-07-02 19:22:05,成都
新都-毗河-万科双水岸,81.28㎡,西南,2室1厅1卫,中楼层（6层）,1400 元/月,CD2812915737344352256,2021-06-24,104.157069,30.795495,整租,//权属核验/随时看房/,无,暂无数据,民水,民电,有,自采暖,2021-07-02 19:22:09,成都
新都-大丰-保利城一期,93.18㎡,南,3室1厅1卫,高楼层（18层）,1800 元/月,CD2813115158421831680,2021-06-27,104.094675,30.762713,整租,/权属核验/精装/,有,暂无数据,民水,民电,有,暂无数据,2021-07-02 19:22:15,成都
新都-大丰-丰和日丽,154.14㎡,南,4室1厅2卫,高楼层（6层）,2500 元/月,CD2813120230383943680,2021-06-26,104.063814,30.766173,整租,/权属核验/近地铁/精装/双卫生间/随时看房/,无,暂无数据,民水,民电,有,自采暖,2021-07-02 19:22:18,成都
新都-新都城区-御城,72.38㎡,北,2室1厅1卫,高楼层（26层）,1400 元/月,CD2813115531547115520,2021-06-29,104.19316,30.820216,整租,//权属核验/近地铁/随时看房/,有,租用车位,民水,民电,有,暂无数据,2021-07-02 19:22:24,成都
新都-大丰-保利大都汇熙汇,33.00㎡,西,1室1厅1卫,中楼层（34层）,1200 元/月,CD2802842960461840384,2021-06-27,104.08009184217,30.759938746852,整租,/权属核验/精装/,有,暂无数据,暂无数据,暂无数据,有,暂无数据,2021-07-02 19:22:32,成都
新都-新都城区-同心苑(新都),97.37㎡,西南,2室2厅1卫,中楼层（5层）,1280 元/月,CD2802131213052559360,2021-06-28,104.196171,30.82771,整租,//权属核验/随时看房/,无,免费使用,暂无数据,暂无数据,有,暂无数据,2021-07-02 19:22:35,成都
新都-新都城区-信地兰卡威,112.80㎡,南,3室2厅2卫,中楼层（18层）,1900 元/月,CD2802763000955027456,2021-06-18,104.173862,30.839338,整租,/权属核验/精装/双卫生间/,有,暂无数据,民水,民电,有,暂无数据,2021-07-02 19:22:42,成都
新都-毗河-润扬双河鹭岛,89.43㎡,西南,3室2厅1卫,中楼层（18层）,2300 元/月,CD2812915637007941632,2021-06-27,104.157475,30.797419,整租,/权属核验/近地铁/精装/,有,暂无数据,民水,民电,有,自采暖,2021-07-02 19:22:46,成都
新都-新都城区-桂湖河畔南区,102.32㎡,南西南,3室2厅1卫,中楼层（6层）,1600 元/月,CD2813085928108081152,2021-07-01,104.159479,30.828941,整租,/权属核验/,无,租用车位,民水,暂无数据,有,自采暖,2021-07-02 19:22:54,成都
新都-毗河-华都九龙广场,56.08㎡,西,2室1厅1卫,中楼层（16层）,1000 元/月,CD2813756533329379328,2021-06-25,104.150421,30.797637,整租,/权属核验/近地铁/随时看房/,有,暂无数据,商水,商电,无,暂无数据,2021-07-02 19:23:03,成都
新都-大丰-保利城三期,100.57㎡,南,3室1厅1卫,中楼层（18层）,1800 元/月,CD2752193657938378752,2021-06-27,104.091302,30.758229,整租,/权属核验/精装/随时看房/,有,暂无数据,暂无数据,民电,有,自采暖,2021-07-02 19:23:12,成都
新都-毗河-万科缇香荟,27.00㎡,北,1室0厅1卫,低楼层（32层）,800 元/月,CD2754403103981191168,2021-06-10,104.150009,30.794072,整租,/权属核验/近地铁/随时看房/,无,暂无数据,商水,商电,有,暂无数据,2021-07-02 19:23:20,成都
新都-大丰-博雅新城C区,87.89㎡,东,2室1厅1卫,中楼层（27层）,700 元/月,CD2755594197372780544,2021-06-27,104.056053,30.764171,整租,/权属核验/随时看房/,有,租用车位,民水,民电,有,自采暖,2021-07-02 19:23:29,成都
新都-毗河-万科缇香荟,27.00㎡,东,1室0厅0卫,低楼层（32层）,800 元/月,CD2754238706700525568,2021-06-27,104.150009,30.794072,整租,/权属核验/近地铁/随时看房/,无,暂无数据,商水,商电,有,暂无数据,2021-07-02 19:23:33,成都
新都-保利公园-保利公园198蝴蝶谷西区,351.24㎡,东北,4室3厅3卫,低楼层（3层）,8500 元/月,CD2802979944894824448,2021-07-01,104.150453,30.750488,整租,/权属核验/,无,免费使用,民水,民电,有,暂无数据,2021-07-02 19:23:40,成都
新都-新都城区-友盛上都,40.21㎡,南,2室2厅2卫,低楼层（19层）,2000 元/月,CD2803428311353794560,2021-06-19,104.197971,30.824721,整租,/权属核验/近地铁/精装/双卫生间/随时看房/,有,暂无数据,商水,商电,有,自采暖,2021-07-02 19:23:45,成都
新都-毗河-缤纷翠微湖,88.94㎡,西南,3室1厅2卫,低楼层（30层）,2200 元/月,CD2753604809280978944,2021-06-27,104.172755,30.802728,整租,/权属核验/精装/双卫生间/随时看房/,有,租用车位,民水,民电,有,自采暖,2021-07-02 19:23:52,成都
新都-新都城区-英伦世家,99.82㎡,东,2室2厅1卫,中楼层（11层）,1900 元/月,CD2755139637101207552,2021-07-01,104.178487,30.813603,整租,/权属核验/随时看房/,有,租用车位,民水,民电,有,自采暖,2021-07-02 19:23:59,成都
新都-大丰-龙湖听蓝时光,33.24㎡,东,2室1厅1卫,中楼层（23层）,1600 元/月,CD2814463318985809920,2021-06-29,104.063365,30.768571,整租,/权属核验/近地铁/精装/,有,租用车位,商水,商电,无,暂无数据,2021-07-02 19:24:03,成都
新都-大丰-圣采泊尚,66.31㎡,西,2室2厅1卫,低楼层（30层）,1800 元/月,CD2814616681748905984,2021-06-30,104.075852,30.778161,整租,//权属核验/业主自荐/精装/随时看房/,有,暂无数据,民水,民电,有,自采暖,2021-07-02 19:24:10,成都
新都-新都城区-缤纷时代广场,46.79㎡,东,1室1厅1卫,低楼层（15层）,2200 元/月,CD2814495108085587968,2021-06-24,104.199467,30.815646,整租,/权属核验/精装/,有,暂无数据,民水,民电,有,自采暖,2021-07-02 19:24:15,成都
新都-保利公园-保利紫荆花语,105.81㎡,北,3室2厅2卫,高楼层（33层）,2300 元/月,CD2759227361680424960,2021-06-26,104.157177,30.760056,整租,/权属核验/精装/双卫生间/随时看房/,有,暂无数据,民水,民电,有,自采暖,2021-07-02 19:24:19,成都
新都-保利公园-保利公园198丁香郡,109.58㎡,东南,3室1厅2卫,中楼层（18层）,2500 元/月,CD2759954639331008512,2021-07-01,104.152979,30.761391,整租,/权属核验/精装/双卫生间/,有,暂无数据,民水,民电,有,自采暖,2021-07-02 19:24:27,成都
新都-大丰-时代锦翠,64.15㎡,南,2室1厅1卫,高楼层（16层）,1500 元/月,CD2804178178493382656,2021-06-29,104.069075,30.780881,整租,//权属核验/,有,暂无数据,民水,民电,有,自采暖,2021-07-02 19:24:35,成都
新都-毗河-华都九龙广场,49.19㎡,南,1室1厅1卫,高楼层（30层）,1100 元/月,CD2804228250438467584,2021-06-24,104.150421,30.797637,整租,/权属核验/随时看房/,有,暂无数据,暂无数据,暂无数据,有,暂无数据,2021-07-02 19:24:43,成都
新都-大丰-凤凰山1号,84.40㎡,东,2室1厅1卫,低楼层（17层）,1700 元/月,CD2804401311792242688,2021-06-23,104.100095,30.765027,整租,//权属核验/精装/随时看房/,有,暂无数据,民水,民电,有,自采暖,2021-07-02 19:24:52,成都
新都-保利公园-保利紫荆花语,105.81㎡,南,3室1厅2卫,高楼层（33层）,2400 元/月,CD2805182989414440960,2021-06-30,104.157177,30.760056,整租,//权属核验/精装/双卫生间/随时看房/,有,暂无数据,民水,民电,有,自采暖,2021-07-02 19:24:55,成都
新都-大丰-博雅新城A区,87.97㎡,东南,2室1厅1卫,中楼层（27层）,1600 元/月,CD2815065676262416384,2021-06-27,104.055822,30.761414,整租,/权属核验/,有,暂无数据,民水,民电,有,自采暖,2021-07-02 19:25:02,成都
新都-新都城区-汉嘉国际,58.27㎡,东南,3室1厅2卫,高楼层（13层）,2000 元/月,CD2805093429934571520,2021-06-29,104.195218,30.814258,整租,//权属核验/精装/双卫生间/随时看房/,有,租用车位,民水,民电,有,自采暖,2021-07-02 19:25:05,成都
新都-新都城区-七一森林城市花园,128.00㎡,东,3室2厅2卫,高楼层（30层）,1800 元/月,CD2494020724000563200,2021-06-28,104.178849,30.82736,整租,/权属核验/近地铁/双卫生间/,无,暂无数据,民水,民电,有,暂无数据,2021-07-02 19:25:12,成都
新都-新都城区-天香苑,116.77㎡,东南,3室1厅2卫,低楼层（6层）,1800 元/月,CD2485390973451386880,2021-07-01,104.187568,30.821082,整租,/权属核验/近地铁/双卫生间/随时看房/,无,暂无数据,暂无数据,暂无数据,暂无数据,暂无数据,2021-07-02 19:25:19,成都
新都-新都城区-香城名都,120.59㎡,南,3室2厅2卫,低楼层（11层）,2500 元/月,CD2809386097954791424,2021-06-24,104.176342,30.824989,整租,/权属核验/精装/双卫生间/,有,暂无数据,民水,民电,有,自采暖,2021-07-02 19:25:22,成都
新都-大丰-保利大都汇熙汇,143.00㎡,东南,4室2厅2卫,高楼层（34层）,2600 元/月,CD2773226898178973696,2021-06-27,104.08009184217,30.759938746852,整租,/权属核验/双卫生间/随时看房/,无,暂无数据,暂无数据,暂无数据,暂无数据,暂无数据,2021-07-02 19:25:26,成都
新都-大丰-汇融广场B区,91.31㎡,东南,3室2厅1卫,高楼层（40层）,2000 元/月,CD2816009618931851264,2021-06-30,104.067802,30.771689,整租,/权属核验/精装/,有,暂无数据,暂无数据,暂无数据,有,暂无数据,2021-07-02 19:25:35,成都
新都-大丰-城北优品道,95.87㎡,西南,3室2厅2卫,低楼层（31层）,1850 元/月,CD2788192452279017472,2021-06-30,104.084493,30.762945,整租,/权属核验/双卫生间/,有,暂无数据,商水,商电,有,暂无数据,2021-07-02 19:25:41,成都
新都-新都城区-我的大学,46.65㎡,东南,2室1厅1卫,中楼层（27层）,1400 元/月,CD2788932085661048832,2021-06-23,104.197626,30.827671,整租,//权属核验/近地铁/随时看房/,有,租用车位,民水,民电,有,暂无数据,2021-07-02 19:25:46,成都
新都-大丰-汇融悉尼湾库吉岛一期,109.27㎡,南,3室1厅2卫,高楼层（26层）,1600 元/月,CD2789836502946029568,2021-06-28,104.071884,30.773688,整租,/权属核验/近地铁/双卫生间/,有,暂无数据,民水,民电,有,自采暖,2021-07-02 19:25:53,成都
新都-大丰-兴想花园,83.72㎡,东南,3室1厅2卫,中楼层（25层）,2000 元/月,CD2789173760333725696,2021-06-27,104.069551,30.782843,整租,/权属核验/近地铁/精装/双卫生间/随时看房/,有,暂无数据,民水,民电,有,暂无数据,2021-07-02 19:26:02,成都
新都-毗河-万科缇香荟,27.00㎡,南,1室1厅1卫,低楼层（32层）,800 元/月,CD2789877440359702528,2021-06-09,104.150009,30.794072,整租,/权属核验/近地铁/随时看房/,无,暂无数据,商水,商电,有,暂无数据,2021-07-02 19:26:09,成都
新都-新都城区-恒大御府,121.00㎡,南,3室2厅2卫,高楼层（32层）,1600 元/月,CD2792768207248179200,2021-06-11,104.154623,30.841318,整租,/权属核验/精装/双卫生间/,有,暂无数据,暂无数据,暂无数据,有,自采暖,2021-07-02 19:26:11,成都
新都-大丰-圣采泊尚,80.00㎡,南,3室2厅1卫,中楼层（30层）,2000 元/月,CD2818269970176147456,2021-07-01,104.075852,30.778161,整租,//权属核验/业主自荐/新上/近地铁/精装/随时看房/,有,暂无数据,民水,民电,有,自采暖,2021-07-02 19:26:15,成都
新都-大丰-保利大都汇熙汇,36.00㎡,东南,1室1厅1卫,中楼层（34层）,1300 元/月,CD2793330686684307456,2021-06-27,104.08009184217,30.759938746852,整租,/权属核验/精装/,有,暂无数据,暂无数据,暂无数据,有,暂无数据,2021-07-02 19:26:19,成都
新都-保利公园-中洲·中央公园,115.56㎡,东南,3室1厅2卫,低楼层（8层）,800 元/月,CD2795495190960816128,2021-06-04,104.162315,30.752739,整租,/权属核验/双卫生间/随时看房/,有,租用车位,民水,民电,有,暂无数据,2021-07-02 19:26:27,成都
新都-大丰-保利大都汇熙汇,41.00㎡,南,1室1厅1卫,低楼层（34层）,1200 元/月,CD2797081234680332288,2021-06-27,104.08009184217,30.759938746852,整租,/权属核验/精装/随时看房/,有,暂无数据,暂无数据,暂无数据,有,暂无数据,2021-07-02 19:26:30,成都
新都-毗河-华都九龙广场,134.20㎡,北,1室0厅0卫,低楼层（16层）,2100 元/月,CD2821091457572806656,2021-07-01,104.150421,30.797637,整租,/权属核验/新上/近地铁/随时看房/,有,暂无数据,暂无数据,暂无数据,无,暂无数据,2021-07-02 19:26:33,成都
新都-大丰-保利大都汇熙汇,41.00㎡,南,1室1厅1卫,中楼层（34层）,1100 元/月,CD2797085180186337280,2021-06-27,104.08009184217,30.759938746852,整租,/权属核验/精装/随时看房/,有,暂无数据,暂无数据,暂无数据,有,暂无数据,2021-07-02 19:26:41,成都
新都-大丰-保利大都汇熙汇,36.32㎡,西南,1室1厅1卫,高楼层（34层）,1200 元/月,CD2797214011404861440,2021-06-27,104.08009184217,30.759938746852,整租,/权属核验/精装/,有,暂无数据,暂无数据,暂无数据,有,暂无数据,2021-07-02 19:26:43,成都
新都-保利公园-保利公园198丁香郡,108.61㎡,东,3室2厅2卫,高楼层（18层）,2000 元/月,CD2797683561380462592,2021-06-26,104.152979,30.761391,整租,//权属核验/精装/双卫生间/随时看房/,有,暂无数据,民水,民电,有,自采暖,2021-07-02 19:26:50,成都
新都-保利公园-保利公园198蔷薇郡,104.80㎡,东南,3室2厅2卫,中楼层（27层）,3200 元/月,CD2798589989389615104,2021-07-01,104.149809,30.760933,整租,/权属核验/精装/双卫生间/随时看房/,有,免费使用,民水,民电,有,自采暖,2021-07-02 19:26:59,成都
新都-大丰-汇融广场,38.77㎡,东南,1室1厅1卫,中楼层（28层）,1200 元/月,CD2820283724095569920,2021-07-01,104.068464,30.771766,整租,/权属核验/新上/随时看房/,有,暂无数据,商水,商电,无,集中供暖,2021-07-02 19:27:05,成都
新都-大丰-保利大都汇熙汇,115.00㎡,南,3室2厅2卫,高楼层（26层）,2900 元/月,CD2776824266962763776,2021-06-23,104.08009184217,30.759938746852,整租,/权属核验/精装/双卫生间/随时看房/,无,免费使用,暂无数据,暂无数据,暂无数据,暂无数据,2021-07-02 19:27:13,成都
新都-大丰-保利城四期中央郡,83.07㎡,南,3室1厅1卫,中楼层（25层）,1800 元/月,CD2779117058548572160,2021-06-27,104.094679,30.762482,整租,/权属核验/精装/随时看房/,有,暂无数据,民水,民电,有,自采暖,2021-07-02 19:27:18,成都
新都-大丰-保利城三期,85.59㎡,西南,3室2厅1卫,中楼层（18层）,2300 元/月,CD2778992636634341376,2021-06-27,104.091302,30.758229,整租,//权属核验/精装/随时看房/,有,暂无数据,民水,民电,有,自采暖,2021-07-02 19:27:24,成都
新都-大丰-五岳合福地广场,92.28㎡,南,3室1厅1卫,中楼层（27层）,1800 元/月,CD2811472060893626368,2021-07-01,104.075325,30.765598,整租,/权属核验/随时看房/,有,租用车位,民水,民电,有,暂无数据,2021-07-02 19:27:27,成都
新都-毗河-佳乐国际城二期,130.09㎡,东南,4室2厅2卫,中楼层（33层）,2750 元/月,CD2811652091368710144,2021-06-27,104.16845,30.789594,整租,//权属核验/精装/双卫生间/随时看房/,有,暂无数据,民水,民电,有,自采暖,2021-07-02 19:27:29,成都
新都-大丰-蓝光花满庭二期,84.57㎡,南,4室0厅2卫,中楼层（34层）,1300 元/月,CD2812320264614838272,2021-06-30,104.051527,30.769303,整租,//权属核验/双卫生间/随时看房/,有,暂无数据,民水,民电,有,自采暖,2021-07-02 19:27:35,成都
新都-保利公园-保利拉斐云邸,134.47㎡,南,4室2厅2卫,高楼层（32层）,2800 元/月,CD2781106989768376320,2021-06-25,104.164587,30.763116,整租,/权属核验/精装/双卫生间/随时看房/,有,暂无数据,民水,民电,有,暂无数据,2021-07-02 19:27:40,成都
新都-保利公园-保利公园198玫瑰郡,136.34㎡,东南,4室2厅2卫,高楼层（24层）,2600 元/月,CD2781030354163867648,2021-07-01,104.151684,30.754889,整租,/权属核验/精装/双卫生间/随时看房/,有,暂无数据,民水,民电,有,自采暖,2021-07-02 19:27:44,成都
新都-毗河-万科缇香荟,27.00㎡,南,1室1厅1卫,高楼层（32层）,800 元/月,CD2780254809847513088,2021-06-27,104.150009,30.794072,整租,/权属核验/近地铁/随时看房/,无,暂无数据,商水,商电,有,暂无数据,2021-07-02 19:27:51,成都
新都-保利公园-保利公园198玫瑰郡,134.00㎡,东南,4室2厅2卫,中楼层（24层）,2800 元/月,CD2781034603447074816,2021-07-01,104.151684,30.754889,整租,/权属核验/精装/双卫生间/随时看房/,有,暂无数据,民水,民电,有,自采暖,2021-07-02 19:27:55,成都
新都-新都城区-我的大学,34.67㎡,东南,1室0厅1卫,高楼层（24层）,1100 元/月,CD2812272709378252800,2021-06-27,104.197626,30.827671,整租,/权属核验/业主自荐/近地铁/精装/,有,暂无数据,民水,民电,有,暂无数据,2021-07-02 19:28:04,成都
新都-大丰-保利大都汇熙汇,350.00㎡,南,1室0厅1卫,中楼层（4层）,12000 元/月,CD2813096957088628736,2021-06-25,104.08009184217,30.759938746852,整租,/权属核验/,无,暂无数据,暂无数据,暂无数据,暂无数据,暂无数据,2021-07-02 19:28:07,成都
新都-新都城区-城隍庙巷6号,132.90㎡,南,3室2厅1卫,低楼层（7层）,1500 元/月,CD2813094859198971904,2021-06-25,104.168367,30.830174,整租,/权属核验/业主自荐/精装/,无,暂无数据,民水,民电,有,暂无数据,2021-07-02 19:28:12,成都
新都-新都城区-格林城市花园,117.00㎡,南北,4室2厅2卫,低楼层（30层）,2000 元/月,CD2813047912614346752,2021-06-27,104.15989423897,30.811773023411,整租,/权属核验/双卫生间/,有,暂无数据,暂无数据,暂无数据,暂无数据,暂无数据,2021-07-02 19:28:15,成都
新都-毗河-万科缇香荟,30.00㎡,南,1室0厅1卫,中楼层（32层）,700 元/月,CD2781876128284155904,2021-06-21,104.150009,30.794072,整租,/权属核验/近地铁/随时看房/,有,暂无数据,商水,商电,有,暂无数据,2021-07-02 19:28:21,成都
新都-毗河-富力桃园A区,107.11㎡,东南,3室2厅2卫,低楼层（32层）,1800 元/月,CD2783353299565281280,2021-06-26,104.151508,30.8036,整租,/权属核验/精装/双卫生间/随时看房/,有,暂无数据,民水,民电,有,自采暖,2021-07-02 19:28:26,成都
新都-大丰-龙湖听蓝湾,130.88㎡,南,4室2厅2卫,高楼层（40层）,2700 元/月,CD2815102576448774144,2021-06-26,104.071571,30.781377,整租,/权属核验/精装/双卫生间/,有,暂无数据,民水,民电,有,暂无数据,2021-07-02 19:28:29,成都
新都-大丰-保利城二期,91.71㎡,西南,3室1厅1卫,低楼层（18层）,1800 元/月,CD2815012903177166848,2021-07-01,104.095045,30.760292,整租,/权属核验/业主自荐/精装/,有,暂无数据,民水,民电,有,暂无数据,2021-07-02 19:28:36,成都
新都-保利公园-保利紫荆花语,86.67㎡,北,3室2厅2卫,低楼层（21层）,1800 元/月,CD2785395224224989184,2021-06-30,104.157177,30.760056,整租,/权属核验/精装/双卫生间/,有,暂无数据,民水,民电,有,自采暖,2021-07-02 19:28:39,成都
新都-保利公园-保利拉斐云邸,30.96㎡,东,1室0厅0卫,地下室,260 元/月,CD2784897873186668544,2021-06-20,104.164587,30.763116,整租,/权属核验/,无,租用车位,暂无数据,暂无数据,有,暂无数据,2021-07-02 19:28:42,成都
新都-毗河-堤亚纳河谷,78.27㎡,东,3室1厅1卫,低楼层（24层）,2500 元/月,CD2786973695925821440,2021-06-27,104.166365,30.799695,整租,/权属核验/精装/随时看房/,有,租用车位,暂无数据,暂无数据,有,自采暖,2021-07-02 19:28:51,成都
新都-新都城区-桂湖名城二期,37.56㎡,南,1室1厅1卫,中楼层（23层）,1200 元/月,CD2703534305283948544,2021-06-20,104.160653,30.822047,整租,/权属核验/近地铁/精装/,有,暂无数据,商水,商电,有,暂无数据,2021-07-02 19:28:58,成都
新都-大丰-汇融悉尼湾库吉岛一期,96.74㎡,西,2室1厅1卫,低楼层（26层）,1500 元/月,CD2804246540263096320,2021-06-28,104.071884,30.773688,整租,/权属核验/,有,暂无数据,民水,民电,有,自采暖,2021-07-02 19:29:06,成都
新都-新都城区-水沐环岛,76.25㎡,南,2室1厅1卫,低楼层（18层）,1500 元/月,CD2805163850033807360,2021-06-26,104.197258,30.809594,整租,//权属核验/精装/随时看房/,有,暂无数据,民水,民电,有,自采暖,2021-07-02 19:29:12,成都
新都-毗河-富力桃园A区,107.05㎡,东,3室2厅1卫,中楼层（32层）,1700 元/月,CD2707834815403016192,2021-06-27,104.151508,30.8036,整租,/权属核验/近地铁/精装/,有,暂无数据,民水,民电,有,自采暖,2021-07-02 19:29:19,成都
新都-大丰-保利爱尚里,43.00㎡,北,1室0厅1卫,中楼层（29层）,1100 元/月,CD2781024908497657856,2021-05-31,104.083685,30.760075,整租,/权属核验/精装/,有,租用车位,商水,商电,无,暂无数据,2021-07-02 19:29:26,成都
新都-保利公园-保利公园198丁香郡,107.96㎡,东北,3室2厅2卫,低楼层（18层）,2000 元/月,CD2554320731618156544,2021-06-26,104.152979,30.761391,整租,/权属核验/双卫生间/随时看房/,有,暂无数据,民水,民电,有,自采暖,2021-07-02 19:29:31,成都
新都-保利公园-保利公园198百合郡,129.18㎡,东南,3室2厅2卫,高楼层（26层）,1800 元/月,CD2562883519936741376,2021-06-27,104.15443,30.757341,整租,/权属核验/双卫生间/随时看房/,有,暂无数据,民水,民电,有,自采暖,2021-07-02 19:29:36,成都
新都-新都城区-芙蓉名城A区,138.39㎡,东,3室1厅2卫,高楼层（6层）,1600 元/月,CD2572470073109250048,2021-06-23,104.18441,30.819985,整租,/权属核验/近地铁/双卫生间/随时看房/,无,暂无数据,民水,民电,有,自采暖,2021-07-02 19:29:44,成都
新都-保利公园-保利公园198玫瑰郡,93.92㎡,东南,4室2厅2卫,中楼层（24层）,2300 元/月,CD2597118640515973120,2021-06-26,104.151684,30.754889,整租,/权属核验/精装/双卫生间/随时看房/,有,暂无数据,民水,民电,有,自采暖,2021-07-02 19:29:49,成都
新都-保利公园-保利公园198百合郡,90.92㎡,东南西南,2室1厅1卫,中楼层（18层）,2000 元/月,CD2592623190983311360,2021-06-22,104.15443,30.757341,整租,/权属核验/随时看房/,有,暂无数据,民水,民电,有,自采暖,2021-07-02 19:29:52,成都
新都-保利公园-保利拉斐云邸,134.46㎡,东南,4室2厅2卫,高楼层（33层）,2000 元/月,CD2629554366780284928,2021-06-26,104.164587,30.763116,整租,/权属核验/精装/双卫生间/随时看房/,无,租用车位,民水,民电,有,暂无数据,2021-07-02 19:29:58,成都
新都-毗河-华都九龙广场,820.24㎡,东南,1室1厅0卫,高楼层（21层）,13800 元/月,CD2635519482197983232,2021-06-25,104.150421,30.797637,整租,/权属核验/,有,租用车位,暂无数据,暂无数据,暂无数据,暂无数据,2021-07-02 19:30:03,成都
新都-毗河-佳乐国际城四期,120.00㎡,南北,3室2厅2卫,低楼层（32层）,1000 元/月,CD2787655347148693504,2021-06-24,104.162325,30.791738,整租,/权属核验/双卫生间/随时看房/,无,暂无数据,暂无数据,暂无数据,有,暂无数据,2021-07-02 19:30:12,成都
新都-大丰-保利大都汇熙汇,40.00㎡,东南,1室1厅1卫,低楼层（35层）,1500 元/月,CD2786979374971764736,2021-06-27,104.08009184217,30.759938746852,整租,/权属核验/精装/随时看房/,无,租用车位,暂无数据,暂无数据,暂无数据,暂无数据,2021-07-02 19:30:17,成都
新都-大丰-保利城四期中央郡,83.12㎡,南,3室2厅1卫,中楼层（30层）,1700 元/月,CD2799063670578225152,2021-06-15,104.094679,30.762482,整租,/权属核验/,有,租用车位,暂无数据,民电,有,暂无数据,2021-07-02 19:30:20,成都
新都-大丰-博雅新城A区,78.31㎡,东南,2室1厅1卫,高楼层（27层）,1500 元/月,CD2799770383900229632,2021-06-27,104.055822,30.761414,整租,/权属核验/,有,暂无数据,民水,民电,有,自采暖,2021-07-02 19:30:23,成都
新都-大丰-保利城三期,100.63㎡,西北,3室2厅2卫,低楼层（18层）,1800 元/月,CD2799818643217580032,2021-06-27,104.091302,30.758229,整租,/权属核验/双卫生间/随时看房/,有,暂无数据,暂无数据,暂无数据,有,自采暖,2021-07-02 19:30:25,成都
新都-毗河-传化国际新城,132.69㎡,南,4室2厅2卫,低楼层（3层）,1800 元/月,CD2800037927260782592,2021-07-01,104.145044,30.799547,整租,/权属核验/双卫生间/,有,暂无数据,民水,民电,有,自采暖,2021-07-02 19:30:28,成都
新都-大丰-保利春天花语,111.76㎡,南,4室2厅2卫,低楼层（33层）,1800 元/月,CD2799883113026043904,2021-06-30,104.076035,30.776327,整租,/权属核验/双卫生间/,有,暂无数据,民水,民电,有,自采暖,2021-07-02 19:30:35,成都
新都-毗河-万科缇香荟,27.00㎡,东南,1室1厅1卫,中楼层（32层）,1000 元/月,CD2769065582102839296,2021-06-27,104.150009,30.794072,整租,/权属核验/近地铁/随时看房/,无,暂无数据,商水,商电,有,暂无数据,2021-07-02 19:30:39,成都
新都-新都城区-泽瀚峰景,101.40㎡,东,3室2厅2卫,中楼层（18层）,1400 元/月,CD2769619965786472448,2021-06-27,104.145708,30.825768,整租,/权属核验/精装/双卫生间/随时看房/,有,暂无数据,民水,民电,有,暂无数据,2021-07-02 19:30:48,成都
新都-毗河-传化国际商务区,78.00㎡,东北,2室1厅1卫,高楼层（26层）,1600 元/月,CD2769645293057081344,2021-06-26,104.142462,30.797699,整租,/权属核验/精装/随时看房/,无,免费使用,暂无数据,暂无数据,有,暂无数据,2021-07-02 19:30:55,成都
新都-毗河-三佳悦都,88.00㎡,西南,3室2厅2卫,低楼层（30层）,2300 元/月,CD2770245045385691136,2021-06-26,104.160372,30.805866,整租,/权属核验/近地铁/精装/双卫生间/随时看房/,有,暂无数据,民水,民电,有,暂无数据,2021-07-02 19:31:01,成都
新都-毗河-传化国际新城,85.26㎡,东南,4室2厅1卫,高楼层（9层）,2400 元/月,CD2770203120540852224,2021-06-27,104.145044,30.799547,整租,/权属核验/精装/,有,暂无数据,民水,民电,有,自采暖,2021-07-02 19:31:09,成都
新都-新都城区-御城,73.68㎡,西南,2室1厅2卫,低楼层（26层）,1500 元/月,CD2770835100768665600,2021-06-11,104.19316,30.820216,整租,//权属核验/精装/双卫生间/随时看房/,有,租用车位,民水,民电,有,暂无数据,2021-07-02 19:31:18,成都
新都-毗河-华都九龙广场,48.29㎡,南,1室1厅1卫,高楼层（30层）,1200 元/月,CD2805765490008391680,2021-06-25,104.150421,30.797637,整租,/权属核验/精装/,有,暂无数据,暂无数据,暂无数据,有,暂无数据,2021-07-02 19:31:23,成都
新都-毗河-三佳悦都,51.00㎡,西南,2室1厅1卫,低楼层（25层）,800 元/月,CD2805766999026966528,2021-06-16,104.160372,30.805866,整租,/权属核验/近地铁/随时看房/,有,暂无数据,民水,民电,有,暂无数据,2021-07-02 19:31:32,成都
新都-毗河-华都九龙广场,150.64㎡,东,3室1厅1卫,低楼层（30层）,3800 元/月,CD2821065160486297600,2021-07-01,104.150421,30.797637,整租,/权属核验/新上/,有,暂无数据,暂无数据,暂无数据,无,自采暖,2021-07-02 19:31:37,成都
新都-新都城区-新都国际广场二期,75.51㎡,西南,2室1厅1卫,中楼层（29层）,1600 元/月,CD2765750076822257664,2021-06-10,104.191612,30.814854,整租,/权属核验/,有,暂无数据,民水,民电,有,暂无数据,2021-07-02 19:31:40,成都
新都-大丰-保利春天花语,89.90㎡,南,3室2厅2卫,低楼层（32层）,2400 元/月,CD2766791442201853952,2021-06-26,104.076035,30.776327,整租,/权属核验/近地铁/精装/双卫生间/,有,暂无数据,民水,民电,有,暂无数据,2021-07-02 19:31:48,成都
新都-大丰-兴想花园,130.68㎡,南,5室1厅2卫,高楼层（25层）,3150 元/月,CD2807337098108485632,2021-06-26,104.069551,30.782843,整租,/权属核验/双卫生间/,有,租用车位,民水,民电,有,暂无数据,2021-07-02 19:31:56,成都
新都-大丰-博雅新城A区,88.50㎡,东南,2室2厅1卫,低楼层（27层）,2200 元/月,CD2807781710312783872,2021-06-27,104.055822,30.761414,整租,//权属核验/精装/随时看房/,有,暂无数据,民水,民电,有,自采暖,2021-07-02 19:32:02,成都
新都-保利公园-熊猫基地生态园小区,108.31㎡,南,3室2厅2卫,中楼层（6层）,1500 元/月,CD2770109850066092032,2021-06-27,104.162629,30.748539,整租,/权属核验/精装/双卫生间/随时看房/,无,租用车位,民水,民电,有,暂无数据,2021-07-02 19:32:10,成都
新都-大丰-保利爱尚里,53.00㎡,南,1室1厅1卫,低楼层（29层）,1600 元/月,CD2769570443596931072,2021-06-07,104.083685,30.760075,整租,/权属核验/精装/随时看房/,有,暂无数据,暂无数据,暂无数据,无,暂无数据,2021-07-02 19:32:18,成都
新都-毗河-万科缇香荟,36.00㎡,南,1室0厅1卫,中楼层（32层）,1000 元/月,CD2769639910968672256,2021-06-27,104.150009,30.794072,整租,/权属核验/近地铁/精装/随时看房/,有,暂无数据,商水,商电,有,暂无数据,2021-07-02 19:32:24,成都
新都-保利公园-保利公园198百合郡,89.32㎡,东南,2室1厅1卫,高楼层（18层）,1800 元/月,CD2768830737166630912,2021-07-01,104.15443,30.757341,整租,/权属核验/随时看房/,有,暂无数据,民水,民电,有,自采暖,2021-07-02 19:32:30,成都
新都-毗河-万科五龙山璞院,93.76㎡,南北,3室2厅2卫,低楼层（17层）,3500 元/月,CD2771637099072593920,2021-06-30,104.178511,30.77554,整租,/权属核验/精装/双卫生间/,无,暂无数据,民水,民电,有,自采暖,2021-07-02 19:32:36,成都
新都-毗河-佳乐国际城四期,107.34㎡,东南,3室2厅2卫,高楼层（32层）,2200 元/月,CD2808682664503017472,2021-06-30,104.162325,30.791738,整租,/权属核验/精装/双卫生间/随时看房/,无,租用车位,暂无数据,暂无数据,有,暂无数据,2021-07-02 19:32:39,成都
新都-毗河-交大香洲半岛南庭,120.71㎡,东南,3室2厅2卫,中楼层（8层）,1500 元/月,CD2808712734676623360,2021-06-28,104.171376,30.799222,整租,//权属核验/精装/双卫生间/随时看房/,有,租用车位,民水,民电,有,自采暖,2021-07-02 19:32:46,成都
新都-新都城区-麦田国际社区,94.41㎡,东南南,3室2厅2卫,低楼层（26层）,1400 元/月,CD2736037942102327296,2021-06-30,104.161595,30.810872,整租,/权属核验/近地铁/精装/双卫生间/随时看房/,有,租用车位,暂无数据,民电,有,自采暖,2021-07-02 19:32:54,成都
新都-新都城区-汉城小区,82.08㎡,东西,2室2厅1卫,低楼层（11层）,1000 元/月,CD2814589858218524672,2021-07-01,104.147967,30.807698,整租,/权属核验/,有,免费使用,暂无数据,暂无数据,暂无数据,暂无数据,2021-07-02 19:33:03,成都
新都-新都城区-缤纷时代广场,33.32㎡,东南,1室1厅1卫,低楼层（15层）,2200 元/月,CD2814492934563700736,2021-06-24,104.199467,30.815646,整租,/权属核验/精装/,有,暂无数据,民水,民电,有,自采暖,2021-07-02 19:33:10,成都
新都-保利公园-保利海棠花语,66.63㎡,西南,2室1厅1卫,中楼层（15层）,1500 元/月,CD2814449271288635392,2021-06-27,104.149564,30.764328,整租,/权属核验/,有,暂无数据,民水,民电,有,自采暖,2021-07-02 19:33:13,成都
新都-大丰-常青藤三期,78.88㎡,东,2室1厅1卫,中楼层（26层）,1800 元/月,CD2815222517646761984,2021-07-01,104.063329,30.775663,整租,/权属核验/,有,暂无数据,民水,民电,有,自采暖,2021-07-02 19:33:15,成都
新都-大丰-保利城四期中央郡,95.29㎡,南,3室2厅2卫,高楼层（30层）,2400 元/月,CD2815301533427056640,2021-07-01,104.094679,30.762482,整租,/权属核验/精装/双卫生间/,有,暂无数据,暂无数据,民电,有,暂无数据,2021-07-02 19:33:20,成都
新都-大丰-保利春天花语,111.68㎡,南,4室2厅2卫,低楼层（33层）,2300 元/月,CD2815845197073104896,2021-07-01,104.076035,30.776327,整租,/权属核验/近地铁/精装/双卫生间/,有,暂无数据,民水,民电,有,自采暖,2021-07-02 19:33:29,成都
新都-大丰-城北优品道,38.55㎡,北,1室2厅1卫,高楼层（31层）,1200 元/月,CD2817340987716935680,2021-07-01,104.084493,30.762945,整租,/权属核验/业主自荐/新上/精装/随时看房/,有,暂无数据,商水,商电,有,暂无数据,2021-07-02 19:33:34,成都
新都-大丰-凤凰山1号,84.94㎡,南,3室2厅1卫,高楼层（17层）,1800 元/月,CD2818754699858558976,2021-06-28,104.100095,30.765027,整租,//权属核验/新上/精装/,有,暂无数据,民水,民电,有,自采暖,2021-07-02 19:33:37,成都
新都-大丰-保利春天花语,84.51㎡,东,3室1厅1卫,高楼层（32层）,1800 元/月,CD2807941305341321216,2021-06-24,104.076035,30.776327,整租,//权属核验/近地铁/精装/随时看房/,有,暂无数据,民水,民电,有,暂无数据,2021-07-02 19:33:42,成都
新都-新都城区-博海城一期,69.84㎡,东南,2室2厅1卫,中楼层（27层）,1500 元/月,CD2808563768215478272,2021-06-30,104.162789,30.818763,整租,//权属核验/随时看房/,有,租用车位,民水,民电,有,自采暖,2021-07-02 19:33:47,成都
新都-大丰-盛世名城,121.50㎡,北,5室2厅2卫,中楼层（21层）,5000 元/月,CD2808621206843441152,2021-06-23,104.074219,30.763744,整租,/权属核验/业主自荐/近地铁/精装/双卫生间/,有,租用车位,民水,民电,有,自采暖,2021-07-02 19:33:54,成都
新都-大丰-保利大都汇熙汇,115.00㎡,东南,3室2厅2卫,低楼层（34层）,2000 元/月,CD2808765916773621760,2021-06-27,104.08009184217,30.759938746852,整租,/权属核验/精装/双卫生间/随时看房/,无,暂无数据,暂无数据,暂无数据,暂无数据,暂无数据,2021-07-02 19:34:01,成都
新都-新都城区-水沐环岛,139.00㎡,南,3室2厅2卫,低楼层（12层）,3500 元/月,CD2809439168407805952,2021-06-29,104.197258,30.809594,整租,/权属核验/精装/双卫生间/,有,暂无数据,民水,民电,有,暂无数据,2021-07-02 19:34:06,成都
新都-毗河-佳乐国际城三期,78.76㎡,南,2室2厅1卫,高楼层（31层）,1700 元/月,CD2810715882291208192,2021-06-23,104.164896,30.791079,整租,//权属核验/精装/随时看房/,有,租用车位,民水,民电,有,暂无数据,2021-07-02 19:34:11,成都
新都-大丰-博雅新城E区,87.38㎡,东南,2室1厅1卫,高楼层（27层）,1700 元/月,CD2810086745675407360,2021-06-27,104.054382,30.765998,整租,/权属核验/精装/,有,暂无数据,民水,民电,有,自采暖,2021-07-02 19:34:17,成都
新都-大丰-保利大都汇熙汇,115.30㎡,东南,3室1厅2卫,低楼层（26层）,1900 元/月,CD2811415986522570752,2021-06-25,104.08009184217,30.759938746852,整租,//权属核验/精装/双卫生间/随时看房/,无,暂无数据,暂无数据,暂无数据,暂无数据,暂无数据,2021-07-02 19:34:22,成都
新都-毗河-富力桃园A区,128.49㎡,东南,4室2厅2卫,高楼层（32层）,2000 元/月,CD2810856781201817600,2021-06-26,104.151508,30.8036,整租,/权属核验/近地铁/双卫生间/随时看房/,有,暂无数据,民水,民电,有,自采暖,2021-07-02 19:34:25,成都
新都-毗河-香域中央,85.60㎡,东,2室2厅1卫,低楼层（26层）,1300 元/月,CD2811400430871904256,2021-06-27,104.172473,30.804674,整租,//权属核验/精装/随时看房/,有,暂无数据,民水,民电,有,暂无数据,2021-07-02 19:34:28,成都
新都-大丰-保利大都汇熙汇,41.00㎡,西,1室0厅1卫,低楼层（35层）,1300 元/月,CD2811691473224081408,2021-06-29,104.08009184217,30.759938746852,整租,/权属核验/精装/随时看房/,无,暂无数据,暂无数据,暂无数据,暂无数据,暂无数据,2021-07-02 19:34:36,成都
新都-新都城区-友盛上都,43.52㎡,西南,2室1厅2卫,低楼层（19层）,2000 元/月,CD2812148984062148608,2021-06-23,104.197971,30.824721,整租,/权属核验/近地铁/精装/双卫生间/随时看房/,有,暂无数据,商水,商电,有,自采暖,2021-07-02 19:34:39,成都
新都-毗河-佳乐国际城二期,99.59㎡,西,3室2厅2卫,低楼层（32层）,1000 元/月,CD2811560998509477888,2021-06-27,104.16845,30.789594,整租,/权属核验/双卫生间/随时看房/,有,暂无数据,民水,民电,有,自采暖,2021-07-02 19:34:48,成都
新都-大丰-保利大都汇熙汇,36.00㎡,西,1室0厅1卫,低楼层（34层）,1200 元/月,CD2812319438932811776,2021-06-29,104.08009184217,30.759938746852,整租,/权属核验/精装/随时看房/,有,租用车位,暂无数据,暂无数据,有,暂无数据,2021-07-02 19:34:57,成都
新都-毗河-爵领欧城,92.13㎡,东南,3室2厅2卫,低楼层（32层）,3000 元/月,CD2813121567561613312,2021-06-20,104.148393,30.782598,整租,/权属核验/精装/双卫生间/,有,暂无数据,民水,民电,有,暂无数据,2021-07-02 19:35:01,成都
新都-大丰-翔宇榜样,55.03㎡,南,3室2厅1卫,高楼层（18层）,1600 元/月,CD2813627053789167616,2021-06-26,104.067543,30.777255,整租,/权属核验/,有,暂无数据,民水,民电,有,暂无数据,2021-07-02 19:35:08,成都
新都-大丰-汇融悉尼湾达令港,68.82㎡,南,2室1厅1卫,高楼层（29层）,1500 元/月,CD2802209160131772416,2021-06-26,104.075196,30.769076,整租,//权属核验/近地铁/随时看房/,有,租用车位,民水,民电,有,自采暖,2021-07-02 19:35:11,成都
新都-新都城区-桂湖名城二期,36.08㎡,北,1室0厅1卫,中楼层（23层）,1300 元/月,CD2814337393807589376,2021-06-30,104.160653,30.822047,整租,/权属核验/近地铁/,有,暂无数据,商水,商电,有,暂无数据,2021-07-02 19:35:16,成都
新都-新都城区-东骏湖景湾四期,105.42㎡,东,3室2厅2卫,中楼层（18层）,2800 元/月,CD2762281163421646848,2021-06-10,104.192152,30.809296,整租,/权属核验/精装/双卫生间/,有,暂无数据,民水,民电,有,暂无数据,2021-07-02 19:35:22,成都
新都-保利公园-保利海棠花语,107.02㎡,西南,3室2厅2卫,低楼层（14层）,2400 元/月,CD2761551043249569792,2021-06-27,104.149564,30.764328,整租,/权属核验/精装/双卫生间/随时看房/,有,暂无数据,民水,民电,有,自采暖,2021-07-02 19:35:25,成都
新都-大丰-保利大都汇璟汇,123.94㎡,东南,4室2厅2卫,高楼层（4层）,5000 元/月,CD2805644707282296832,2021-06-27,104.07759089865,30.760055106225,整租,/权属核验/双卫生间/,有,租用车位,暂无数据,暂无数据,有,暂无数据,2021-07-02 19:35:32,成都
新都-毗河-润扬双河鹭岛,118.65㎡,南,3室2厅2卫,低楼层（6层）,2000 元/月,CD2805754674282766336,2021-06-26,104.157475,30.797419,整租,//权属核验/双卫生间/随时看房/,有,暂无数据,民水,民电,有,自采暖,2021-07-02 19:35:36,成都
新都-大丰-龙湖听蓝时光,39.33㎡,东南,1室0厅0卫,低楼层（23层）,1000 元/月,CD2760720993264599040,2021-06-26,104.063365,30.768571,整租,/权属核验/近地铁/随时看房/,有,暂无数据,商水,商电,无,暂无数据,2021-07-02 19:35:39,成都
新都-大丰-保利城二期,91.12㎡,南,3室1厅1卫,低楼层（17层）,1800 元/月,CD2761624016808067072,2021-06-27,104.095045,30.760292,整租,//权属核验/精装/随时看房/,有,暂无数据,民水,民电,有,自采暖,2021-07-02 19:35:44,成都
新都-毗河-传化国际新城,100.69㎡,西南,4室2厅2卫,低楼层（34层）,1900 元/月,CD2816060983393386496,2021-07-01,104.145044,30.799547,整租,//权属核验/双卫生间/随时看房/,有,暂无数据,民水,民电,有,自采暖,2021-07-02 19:35:50,成都
新都-保利公园-保利拉斐公馆,135.00㎡,南,4室2厅2卫,中楼层（31层）,1550 元/月,CD2768876239434555392,2021-06-27,104.161904,30.761696,整租,/权属核验/双卫生间/随时看房/,有,租用车位,民水,民电,有,暂无数据,2021-07-02 19:35:59,成都
新都-保利公园-二台子小区B区,86.00㎡,东南,2室2厅1卫,低楼层（6层）,1300 元/月,CD2820128629898887168,2021-07-01,104.16211,30.758467,整租,//权属核验/新上/精装/随时看房/,无,免费使用,暂无数据,暂无数据,有,暂无数据,2021-07-02 19:36:04,成都
新都-保利公园-保利公园198丁香郡,124.67㎡,南,4室2厅2卫,低楼层（26层）,1500 元/月,CD2643402496017432576,2021-06-22,104.152979,30.761391,整租,/权属核验/精装/双卫生间/,有,暂无数据,民水,民电,有,自采暖,2021-07-02 19:36:09,成都
新都-保利公园-保利狮子湖,121.82㎡,东,4室2厅2卫,高楼层（11层）,900 元/月,CD2733956978245107712,2021-06-24,104.179625,30.750364,整租,/权属核验/双卫生间/,有,暂无数据,民水,民电,有,暂无数据,2021-07-02 19:36:17,成都
新都-保利公园-中洲·中央公园,110.00㎡,东南,3室1厅2卫,中楼层（8层）,600 元/月,CD2746443712916619264,2021-06-27,104.162315,30.752739,整租,/权属核验/双卫生间/,有,暂无数据,民水,民电,有,暂无数据,2021-07-02 19:36:23,成都
新都-保利公园-保利公园198玫瑰郡,130.80㎡,南北,3室2厅2卫,中楼层（11层）,2300 元/月,CD2818693195037687808,2021-06-29,104.151684,30.754889,整租,//权属核验/业主自荐/新上/精装/双卫生间/随时看房/,有,免费使用,民水,民电,有,自采暖,2021-07-02 19:36:29,成都
新都-保利公园-保利拉斐云邸,134.00㎡,东南,4室2厅2卫,中楼层（33层）,1600 元/月,CD2699134700152700928,2021-06-26,104.164587,30.763116,整租,/权属核验/双卫生间/随时看房/,无,暂无数据,民水,民电,有,暂无数据,2021-07-02 19:36:35,成都
新都-保利公园-保利拉斐云邸,107.58㎡,东,3室1厅2卫,中楼层（32层）,1400 元/月,CD2795449161703489536,2021-06-30,104.164587,30.763116,整租,/权属核验/精装/双卫生间/随时看房/,有,租用车位,民水,民电,有,暂无数据,2021-07-02 19:36:42,成都
新都-保利公园-保利拉斐云邸,138.89㎡,西南,4室1厅2卫,中楼层（33层）,2000 元/月,CD2820124199882850304,2021-07-01,104.164587,30.763116,整租,//权属核验/新上/精装/双卫生间/,无,租用车位,民水,民电,有,暂无数据,2021-07-02 19:36:48,成都
新都-毗河-富力桃园B区,116.25㎡,北,3室2厅2卫,中楼层（32层）,1800 元/月,CD2648528051562094592,2021-06-19,104.155128,30.802933,整租,/权属核验/近地铁/精装/双卫生间/随时看房/,有,租用车位,民水,民电,有,自采暖,2021-07-02 19:36:54,成都
新都-毗河-富力桃园B区,113.44㎡,南,3室2厅2卫,低楼层（32层）,2000 元/月,CD2812111682086633472,2021-06-27,104.155128,30.802933,整租,//权属核验/近地铁/精装/双卫生间/随时看房/,有,暂无数据,民水,民电,有,自采暖,2021-07-02 19:37:00,成都
新都-毗河-万科双水岸,123.52㎡,南,4室2厅2卫,中楼层（18层）,2500 元/月,CD2816482170191740928,2021-06-26,104.157069,30.795495,整租,//权属核验/近地铁/精装/双卫生间/,有,租用车位,民水,民电,有,自采暖,2021-07-02 19:37:05,成都
新都-大丰-保利大都汇丨雅汇,126.00㎡,南,4室2厅2卫,中楼层（32层）,1800 元/月,CD2621108729726377984,2021-06-26,104.077547,30.76095,整租,/权属核验/精装/双卫生间/,无,暂无数据,暂无数据,暂无数据,暂无数据,暂无数据,2021-07-02 19:37:09,成都
新都-保利公园-保利公园198玫瑰郡,134.43㎡,南,4室2厅2卫,中楼层（24层）,2500 元/月,CD2752157276243763200,2021-07-02,104.151684,30.754889,整租,/权属核验/精装/双卫生间/,有,暂无数据,民水,民电,有,自采暖,2021-07-02 19:37:13,成都
新都-新都城区-中铁十三局住宅小区,109.95㎡,东南,3室1厅2卫,中楼层（20层）,2000 元/月,CD2797125035519639552,2021-07-02,104.176357,30.813072,整租,/权属核验/近地铁/精装/双卫生间/随时看房/,有,暂无数据,民水,民电,有,自采暖,2021-07-02 19:37:21,成都
新都-大丰-汇融广场,37.97㎡,东,1室1厅1卫,高楼层（28层）,1400 元/月,CD2812376637168164864,2021-07-02,104.068464,30.771766,整租,/权属核验/精装/随时看房/,有,暂无数据,商水,商电,无,集中供暖,2021-07-02 19:37:26,成都
新都-新都城区-格林城市花园,79.13㎡,东南,3室2厅1卫,中楼层（33层）,1900 元/月,CD2820257915301003264,2021-07-02,104.15989423897,30.811773023411,整租,//权属核验/业主自荐/新上/近地铁/精装/随时看房/,有,暂无数据,暂无数据,暂无数据,暂无数据,暂无数据,2021-07-02 19:37:34,成都
新都-毗河-富力桃园B区,113.83㎡,东,3室2厅2卫,高楼层（32层）,1800 元/月,CD2791401812417323008,2021-07-02,104.155128,30.802933,整租,/权属核验/近地铁/精装/双卫生间/随时看房/,有,暂无数据,民水,民电,有,自采暖,2021-07-02 19:37:42,成都
新都-毗河-传化国际新城,103.92㎡,西南,4室2厅1卫,中楼层（9层）,1500 元/月,CD2776659964138635264,2021-07-02,104.145044,30.799547,整租,/权属核验/随时看房/,有,租用车位,民水,民电,有,自采暖,2021-07-02 19:37:46,成都
新都-保利公园-保利公园198百合郡,132.99㎡,东北,4室2厅2卫,中楼层（18层）,1500 元/月,CD2735453419199537152,2021-07-02,104.15443,30.757341,整租,/权属核验/双卫生间/随时看房/,有,暂无数据,民水,民电,有,自采暖,2021-07-02 19:37:51,成都
新都-保利公园-保利公园198蔷薇郡,136.41㎡,东南,3室2厅2卫,低楼层（27层）,2100 元/月,CD2633101019819032576,2021-07-02,104.149809,30.760933,整租,/权属核验/精装/双卫生间/随时看房/,有,暂无数据,民水,民电,有,自采暖,2021-07-02 19:37:54,成都
新都-保利公园-保利公园198玫瑰郡,105.04㎡,东南,3室2厅2卫,高楼层（18层）,3000 元/月,CD2793440346133512192,2021-07-01,104.151684,30.754889,整租,//权属核验/精装/双卫生间/随时看房/,有,租用车位,民水,民电,有,自采暖,2021-07-02 19:38:02,成都
新都-新都城区-北新路105号,60.93㎡,东南,2室1厅1卫,低楼层（6层）,900 元/月,CD2810096836734353408,2021-06-26,104.16630386281,30.841652104119,整租,//权属核验/随时看房/,无,暂无数据,暂无数据,暂无数据,有,暂无数据,2021-07-02 19:38:05,成都
新都-新都城区-东骏湖景湾四期,98.04㎡,东南,3室2厅1卫,中楼层（18层）,2600 元/月,CD2770824985794068480,2021-06-26,104.192152,30.809296,整租,//权属核验/随时看房/,有,租用车位,民水,民电,有,暂无数据,2021-07-02 19:38:10,成都
新都-新都城区-东骏湖景湾二期,102.31㎡,西,3室2厅2卫,中楼层（11层）,2700 元/月,CD2750594496390496256,2021-07-02,104.195465,30.811639,整租,//权属核验/精装/双卫生间/随时看房/,有,暂无数据,民水,民电,有,暂无数据,2021-07-02 19:38:18,成都
新都-保利公园-保利公园198玫瑰郡,88.68㎡,东南南,2室1厅1卫,高楼层（18层）,1200 元/月,CD2797245729302134784,2021-06-27,104.151684,30.754889,整租,//权属核验/随时看房/,有,暂无数据,民水,民电,有,自采暖,2021-07-02 19:38:23,成都
新都-毗河-国光揽悦,92.93㎡,南,3室2厅1卫,高楼层（20层）,1800 元/月,CD2802035984517578752,2021-07-01,104.155644,30.807918,整租,//权属核验/近地铁/精装/随时看房/,有,暂无数据,民水,民电,有,自采暖,2021-07-02 19:38:25,成都
新都-毗河-万科双水岸,79.68㎡,西南,2室1厅1卫,高楼层（6层）,1800 元/月,CD2800057426437742592,2021-06-24,104.157069,30.795495,整租,//权属核验/随时看房/,无,暂无数据,民水,民电,有,自采暖,2021-07-02 19:38:31,成都
新都-毗河-丽水金都,130.01㎡,南,3室2厅2卫,低楼层（15层）,1800 元/月,CD2797774666905952256,2021-07-01,104.174851,30.80849,整租,//权属核验/业主自荐/双卫生间/,有,暂无数据,民水,民电,有,暂无数据,2021-07-02 19:38:40,成都
新都-新都城区-北欧印象,109.30㎡,东南,3室1厅2卫,中楼层（32层）,2600 元/月,CD2807885789777117184,2021-07-01,104.189735,30.818316,整租,//权属核验/近地铁/精装/双卫生间/随时看房/,有,租用车位,民水,民电,有,自采暖,2021-07-02 19:38:49,成都
新都-新都城区-川音嘉苑,93.09㎡,南,2室1厅1卫,高楼层（11层）,1800 元/月,CD2784837902884929536,2021-06-26,104.189866,30.811528,整租,//权属核验/精装/随时看房/,有,暂无数据,民水,民电,有,自采暖,2021-07-02 19:38:58,成都
新都-毗河-传化国际新城,50.37㎡,东南,2室2厅1卫,低楼层（9层）,1200 元/月,CD2669511248496041984,2021-06-27,104.145044,30.799547,整租,//权属核验/精装/随时看房/,有,暂无数据,民水,民电,有,暂无数据,2021-07-02 19:39:00,成都
新都-大丰-五岳合福地广场,92.72㎡,西,4室1厅1卫,中楼层（22层）,1500 元/月,CD2819630057470312448,2021-06-30,104.075325,30.765598,整租,//权属核验/新上/随时看房/,有,租用车位,民水,民电,有,暂无数据,2021-07-02 19:39:05,成都
新都-毗河-翰香府,121.03㎡,东南,3室2厅2卫,高楼层（6层）,1500 元/月,CD2741891839006621696,2021-07-01,104.17462,30.810908,整租,//权属核验/近地铁/精装/双卫生间/随时看房/,无,租用车位,民水,民电,有,暂无数据,2021-07-02 19:39:08,成都
新都-新都城区-维也纳花园一期,131.16㎡,南,3室2厅1卫,中楼层（6层）,1600 元/月,CD2749260427706761216,2021-06-26,104.188769,30.816614,整租,//权属核验/近地铁/随时看房/,无,租用车位,民水,民电,有,自采暖,2021-07-02 19:39:13,成都
新都-大丰-润禾花园,89.06㎡,西北北,3室1厅1卫,中楼层（24层）,2000 元/月,CD2820821373336174592,2021-07-01,104.071811,30.769239,整租,//权属核验/新上/近地铁/精装/随时看房/,有,暂无数据,民水,民电,有,暂无数据,2021-07-02 19:39:15,成都
新都-新都城区-缤纷新天地二期,31.01㎡,东,1室0厅1卫,中楼层（30层）,900 元/月,CD2810219985786642432,2021-07-02,104.199553,30.816578,整租,/权属核验/近地铁/精装/随时看房/,有,暂无数据,暂无数据,暂无数据,无,暂无数据,2021-07-02 19:39:24,成都
新都-新都城区-海伦国际一期,78.69㎡,东南,2室2厅1卫,中楼层（32层）,1800 元/月,CD2821678375767113728,2021-07-02,104.165284,30.820141,整租,/权属核验/新上/精装/,有,暂无数据,民水,民电,有,暂无数据,2021-07-02 19:39:33,成都
新都-新都城区-粮食物流小区,81.00㎡,南,2室2厅1卫,低楼层（18层）,1100 元/月,CD2816646940345761792,2021-07-02,104.14869118629,30.824371954673,整租,//随时看房/,无,暂无数据,暂无数据,暂无数据,暂无数据,暂无数据,2021-07-02 19:39:42,成都
新都-大丰-保利大都汇熙汇,35.00㎡,南,1室1厅1卫,中楼层（35层）,1300 元/月,CD2807873318416556032,2021-07-02,104.08009184217,30.759938746852,未知,/权属核验/精装/,无,暂无数据,暂无数据,暂无数据,暂无数据,暂无数据,2021-07-02 19:39:48,成都
新都-保利公园-保利拉斐云邸,156.00㎡,东南,4室2厅2卫,中楼层（33层）,2200 元/月,CD2731051360467288064,2021-07-02,104.164587,30.763116,整租,/权属核验/精装/双卫生间/随时看房/,无,租用车位,民水,民电,有,暂无数据,2021-07-02 19:39:56,成都
新都-保利公园-中洲·中央公园,114.00㎡,西北,3室1厅2卫,低楼层（33层）,1600 元/月,CD2665287509038342144,2021-07-02,104.162315,30.752739,整租,/权属核验/双卫生间/随时看房/,有,租用车位,民水,民电,有,暂无数据,2021-07-02 19:40:03,成都
新都-大丰-龙湖听蓝时光,33.27㎡,东,1室1厅1卫,高楼层（23层）,1550 元/月,CD2820970856803467264,2021-07-02,104.063365,30.768571,整租,/权属核验/新上/近地铁/精装/随时看房/,有,暂无数据,商水,商电,无,暂无数据,2021-07-02 19:40:07,成都
新都-大丰-方营小区,94.47㎡,东,3室2厅1卫,高楼层（6层）,1700 元/月,CD2818048137548546048,2021-06-28,104.06943558376,30.769180974446,整租,//权属核验/新上/近地铁/精装/随时看房/,无,暂无数据,暂无数据,暂无数据,有,暂无数据,2021-07-02 19:40:14,成都
新都-毗河-丽水金都,150.89㎡,西北,3室2厅2卫,低楼层（24层）,1800 元/月,CD2578805845656092672,2021-07-01,104.174851,30.80849,整租,/权属核验/近地铁/精装/双卫生间/随时看房/,有,暂无数据,暂无数据,暂无数据,有,暂无数据,2021-07-02 19:40:23,成都
新都-毗河-万科双水岸,132.47㎡,东,2室1厅1卫,低楼层（6层）,1600 元/月,CD2699839658518650880,2021-06-29,104.157069,30.795495,整租,/权属核验/精装/随时看房/,无,暂无数据,民水,民电,有,自采暖,2021-07-02 19:40:26,成都
新都-毗河-澳洲湾,89.00㎡,东南,2室1厅1卫,中楼层（11层）,2000 元/月,CD2728317563434958848,2021-06-30,104.161034,30.801344,整租,/权属核验/近地铁/精装/随时看房/,有,暂无数据,民水,民电,有,自采暖,2021-07-02 19:40:30,成都
新都-毗河-万科缇香荟,27.00㎡,东南,1室0厅1卫,高楼层（32层）,1200 元/月,CD2746949467939799040,2021-06-30,104.150009,30.794072,整租,/权属核验/近地铁/精装/随时看房/,无,暂无数据,商水,商电,有,暂无数据,2021-07-02 19:40:39,成都
新都-毗河-富力桃园A区,91.77㎡,东北,2室1厅1卫,低楼层（32层）,1100 元/月,CD2750525927732813824,2021-06-27,104.151508,30.8036,整租,//权属核验/精装/随时看房/,有,暂无数据,民水,民电,有,暂无数据,2021-07-02 19:40:42,成都
新都-毗河-万科缇香荟,27.00㎡,东南,1室0厅1卫,低楼层（32层）,1200 元/月,CD2767485474825584640,2021-07-01,104.150009,30.794072,整租,/权属核验/近地铁/精装/随时看房/,无,暂无数据,商水,商电,有,暂无数据,2021-07-02 19:40:50,成都
新都-毗河-香域中央,130.86㎡,南,3室1厅1卫,低楼层（26层）,1500 元/月,CD2778865620257603584,2021-06-24,104.172473,30.804674,整租,/权属核验/随时看房/,有,租用车位,暂无数据,暂无数据,有,暂无数据,2021-07-02 19:40:57,成都
新都-毗河-香域中央,128.95㎡,西南,3室2厅1卫,中楼层（18层）,1600 元/月,CD2783121645790044160,2021-06-24,104.172473,30.804674,整租,//权属核验/精装/随时看房/,有,租用车位,民水,民电,有,暂无数据,2021-07-02 19:41:01,成都
新都-毗河-华都九龙广场,47.62㎡,南,1室1厅1卫,高楼层（29层）,1100 元/月,CD2798370017622892544,2021-06-27,104.150421,30.797637,整租,//权属核验/近地铁/精装/随时看房/,有,暂无数据,商水,商电,有,暂无数据,2021-07-02 19:41:08,成都
新都-毗河-富力桃园B区,88.98㎡,东,1室0厅1卫,高楼层（32层）,750 元/月,CD2801314264957059072,2021-06-27,104.155128,30.802933,合租,//权属核验/近地铁/随时看房/,有,暂无数据,民水,民电,有,自采暖,2021-07-02 19:41:14,成都
新都-毗河-万科缇香荟,128.00㎡,东南,4室2厅2卫,高楼层（34层）,3100 元/月,CD2807944970265165824,2021-07-01,104.150009,30.794072,整租,//权属核验/近地铁/精装/双卫生间/随时看房/,有,暂无数据,暂无数据,暂无数据,有,暂无数据,2021-07-02 19:41:19,成都
新都-毗河-华都九龙广场,61.23㎡,东南,2室2厅1卫,中楼层（16层）,1800 元/月,CD2811609748351221760,2021-06-27,104.150421,30.797637,整租,/权属核验/近地铁/精装/随时看房/,有,暂无数据,商水,商电,无,暂无数据,2021-07-02 19:41:24,成都
新都-毗河-香域中央,89.24㎡,西南,2室2厅1卫,高楼层（11层）,1400 元/月,CD2817420354316935168,2021-07-01,104.172473,30.804674,整租,//权属核验/新上/近地铁/随时看房/,有,暂无数据,民水,民电,有,暂无数据,2021-07-02 19:41:28,成都
新都-毗河-华都九龙广场,69.36㎡,北,1室1厅1卫,中楼层（16层）,1300 元/月,CD2818083051496808448,2021-06-28,104.150421,30.797637,整租,/权属核验/新上/近地铁/随时看房/,有,暂无数据,商水,商电,无,暂无数据,2021-07-02 19:41:37,成都
新都-毗河-华都九龙广场,138.12㎡,北,2室1厅1卫,中楼层（16层）,3500 元/月,CD2818106996367302656,2021-06-28,104.150421,30.797637,整租,/权属核验/新上/近地铁/随时看房/,有,暂无数据,暂无数据,暂无数据,无,暂无数据,2021-07-02 19:41:43,成都
新都-毗河-翰香府,71.14㎡,南北,2室2厅1卫,中楼层（6层）,1500 元/月,CD2818669507344596992,2021-06-30,104.17462,30.810908,整租,/权属核验/新上/近地铁/,无,暂无数据,民水,民电,有,暂无数据,2021-07-02 19:41:48,成都
新都-大丰-保利城二期,161.10㎡,南,3室1厅1卫,高楼层（18层）,1800 元/月,CD2739868570224689152,2021-06-27,104.095045,30.760292,整租,/权属核验/精装/,有,暂无数据,民水,民电,有,暂无数据,2021-07-02 19:41:51,成都
新都-大丰-龙湖听蓝时光,33.29㎡,东,2室1厅1卫,低楼层（23层）,1600 元/月,CD2761538997585969152,2021-06-28,104.063365,30.768571,整租,/权属核验/近地铁/精装/随时看房/,有,暂无数据,商水,商电,无,暂无数据,2021-07-02 19:41:57,成都
新都-大丰-博雅新城D区,121.42㎡,南北,3室1厅2卫,低楼层（6层）,1550 元/月,CD2772538156786909184,2021-07-01,104.053515,30.764672,整租,//权属核验/双卫生间/,无,暂无数据,民水,民电,有,自采暖,2021-07-02 19:42:02,成都
新都-大丰-保利大都汇熙汇,88.00㎡,南西,1室1厅1卫,低楼层（35层）,1000 元/月,CD2782480244022444032,2021-06-27,104.08009184217,30.759938746852,整租,/权属核验/,无,暂无数据,暂无数据,暂无数据,暂无数据,暂无数据,2021-07-02 19:42:08,成都
新都-大丰-保利春天花语,50.41㎡,南,2室2厅1卫,低楼层（31层）,1800 元/月,CD2797617658646757376,2021-06-30,104.076035,30.776327,整租,//权属核验/近地铁/精装/,有,暂无数据,民水,民电,有,自采暖,2021-07-02 19:42:11,成都
新都-大丰-博雅新城D区,173.93㎡,东南,5室2厅2卫,高楼层（6层）,2000 元/月,CD2819360252531572736,2021-06-29,104.053515,30.764672,整租,/权属核验/新上/双卫生间/随时看房/,无,暂无数据,民水,民电,有,自采暖,2021-07-02 19:42:16,成都
新都-大丰-融创凯旋公馆,71.07㎡,西南,3室1厅1卫,中楼层（34层）,1500 元/月,CD2817377524810514432,2021-06-29,104.048153,30.764951,整租,//权属核验/新上/,有,暂无数据,民水,民电,有,自采暖,2021-07-02 19:42:25,成都
新都-毗河-汇景花园,46.87㎡,东南,2室1厅1卫,低楼层（18层）,1300 元/月,CD2790622501078835200,2021-07-01,104.187341,30.805862,整租,/权属核验/随时看房/,有,暂无数据,民水,民电,有,暂无数据,2021-07-02 19:42:28,成都
新都-保利公园-保利公园198百合郡,90.79㎡,东南,2室1厅1卫,高楼层（26层）,1700 元/月,CD2724557202940764160,2021-06-30,104.15443,30.757341,整租,/权属核验/随时看房/,有,暂无数据,民水,民电,有,自采暖,2021-07-02 19:42:37,成都
新都-毗河-佳乐国际城二期,151.27㎡,东南,4室2厅2卫,低楼层（21层）,3300 元/月,CD2775296942719377408,2021-06-27,104.16845,30.789594,整租,/权属核验/精装/双卫生间/随时看房/,有,租用车位,民水,民电,有,自采暖,2021-07-02 19:42:41,成都
新都-大丰-保利城三期,88.62㎡,东南,3室1厅1卫,低楼层（18层）,2500 元/月,CD2819647822729576448,2021-06-30,104.091302,30.758229,整租,/权属核验/新上/精装/随时看房/,有,暂无数据,民水,民电,有,自采暖,2021-07-02 19:42:46,成都
新都-新都城区-缤纷新天地,56.13㎡,东,2室1厅1卫,高楼层（31层）,1200 元/月,CD2748613507846250496,2021-07-02,104.199576,30.81679,整租,/权属核验/近地铁/随时看房/,有,租用车位,商水,商电,有,暂无数据,2021-07-02 19:42:53,成都
新都-毗河-富力桃园A区,107.05㎡,南,3室2厅2卫,低楼层（32层）,1500 元/月,CD2779698483983024128,2021-07-01,104.151508,30.8036,整租,/权属核验/近地铁/双卫生间/随时看房/,有,暂无数据,民水,民电,有,自采暖,2021-07-02 19:42:58,成都
新都-新都城区-旺府豪庭,62.31㎡,东南,2室2厅1卫,中楼层（18层）,1400 元/月,CD2810694513646116864,2021-06-28,104.196287,30.820333,整租,/权属核验/精装/,有,暂无数据,民水,民电,有,自采暖,2021-07-02 19:43:02,成都
新都-新都城区-学邻名苑,127.57㎡,南,3室2厅2卫,高楼层（6层）,2200 元/月,CD2747871256665145344,2021-07-01,104.185708,30.832608,整租,/权属核验/近地铁/精装/双卫生间/随时看房/,无,租用车位,暂无数据,暂无数据,有,暂无数据,2021-07-02 19:43:06,成都
新都-毗河-堤亚纳河谷,92.82㎡,东南,3室1厅2卫,中楼层（31层）,2000 元/月,CD2689983750967656448,2021-06-27,104.166365,30.799695,整租,/权属核验/精装/双卫生间/随时看房/,有,暂无数据,民水,民电,有,自采暖,2021-07-02 19:43:12,成都
新都-保利公园-保利紫荆花语,79.96㎡,东南,2室2厅1卫,中楼层（33层）,1500 元/月,CD2802718367050907648,2021-06-09,104.157177,30.760056,整租,/权属核验/随时看房/,有,暂无数据,民水,民电,有,自采暖,2021-07-02 19:43:16,成都
新都-大丰-北新润苑二期,88.97㎡,南,3室1厅1卫,高楼层（18层）,1600 元/月,CD2754400841565224960,2021-06-22,104.075342,30.772382,整租,/权属核验/近地铁/精装/,有,暂无数据,民水,民电,有,自采暖,2021-07-02 19:43:19,成都
新都-保利公园-保利紫荆花语,87.22㎡,西南,3室2厅1卫,低楼层（21层）,1600 元/月,CD2812991747141926912,2021-07-02,104.157177,30.760056,整租,//权属核验/随时看房/,有,租用车位,民水,民电,有,自采暖,2021-07-02 19:43:25,成都
新都-毗河-万科缇香荟,30.00㎡,南,1室1厅1卫,高楼层（32层）,1200 元/月,CD2821583176483749888,2021-07-02,104.150009,30.794072,整租,/权属核验/新上/近地铁/精装/,有,暂无数据,商水,商电,有,暂无数据,2021-07-02 19:43:29,成都
新都-新都城区-友盛上都,42.88㎡,北,1室1厅1卫,中楼层（19层）,1700 元/月,CD2802147745681645568,2021-07-02,104.197971,30.824721,整租,/权属核验/近地铁/,有,暂无数据,商水,商电,有,自采暖,2021-07-02 19:43:35,成都
新都-新都城区-邑品天都,95.76㎡,东南,3室2厅2卫,低楼层（18层）,1900 元/月,CD2813079473854365696,2021-07-02,104.19697,30.823275,整租,//权属核验/近地铁/双卫生间/随时看房/,有,租用车位,民水,民电,有,暂无数据,2021-07-02 19:43:39,成都
新都-大丰-融创凯旋东岸,86.48㎡,东南,3室1厅1卫,中楼层（34层）,1800 元/月,CD2811639913827532800,2021-07-02,104.050961,30.763578,整租,//权属核验/随时看房/,有,租用车位,暂无数据,暂无数据,有,暂无数据,2021-07-02 19:43:45,成都
新都-大丰-龙湖听蓝时光,33.00㎡,东,2室1厅1卫,中楼层（23层）,1600 元/月,CD2814518020519493632,2021-07-02,104.063365,30.768571,整租,/权属核验/近地铁/精装/,有,租用车位,商水,商电,无,暂无数据,2021-07-02 19:43:49,成都
新都-毗河-佳乐国际城二期,81.18㎡,东南,2室2厅1卫,中楼层（33层）,1400 元/月,CD2821051153138597888,2021-07-02,104.16845,30.789594,整租,//权属核验/新上/随时看房/,有,暂无数据,民水,民电,有,自采暖,2021-07-02 19:43:54,成都
新都-新都城区-汉嘉国际,91.30㎡,北,3室2厅1卫,中楼层（32层）,2800 元/月,CD2812283969516093440,2021-07-02,104.195218,30.814258,整租,//权属核验/精装/随时看房/,有,暂无数据,暂无数据,暂无数据,有,暂无数据,2021-07-02 19:44:00,成都
新都-大丰-嘉美华凯,127.87㎡,南,3室2厅2卫,高楼层（6层）,1300 元/月,CD2765056048158490624,2021-07-02,104.067888,30.766107,整租,//权属核验/近地铁/双卫生间/随时看房/,无,暂无数据,民水,民电,有,自采暖,2021-07-02 19:44:05,成都
新都-新都城区-状元府邸(新都),37.07㎡,北,1室1厅1卫,低楼层（11层）,900 元/月,CD2813822875004575744,2021-07-02,104.185414,30.822239,整租,//权属核验/随时看房/,有,租用车位,民水,民电,有,自采暖,2021-07-02 19:44:14,成都
新都-新都城区-我的大学,73.96㎡,东南,3室1厅1卫,高楼层（27层）,1400 元/月,CD2797124920755363840,2021-07-02,104.197626,30.827671,整租,/权属核验/精装/,有,暂无数据,民水,民电,有,暂无数据,2021-07-02 19:44:20,成都
新都-毗河-万科五龙山翡翠郡,52.17㎡,西南,3室2厅1卫,低楼层（9层）,2400 元/月,CD2612915255428521984,2021-07-02,104.16484489775,30.780332167119,整租,/权属核验/精装/,有,暂无数据,民水,民电,有,暂无数据,2021-07-02 19:44:27,成都
新都-新都城区-缤纷时代广场,33.93㎡,南,1室1厅1卫,低楼层（15层）,3800 元/月,CD2668037196443033600,2021-07-02,104.199467,30.815646,整租,/权属核验/随时看房/,有,暂无数据,民水,民电,有,自采暖,2021-07-02 19:44:30,成都
新都-毗河-汇景花园,49.12㎡,南,2室2厅1卫,低楼层（18层）,1300 元/月,CD2818137484452700160,2021-07-01,104.187341,30.805862,整租,//权属核验/新上/精装/随时看房/,有,暂无数据,民水,民电,有,暂无数据,2021-07-02 19:44:34,成都
新都-大丰-城北优品道,39.00㎡,东南,1室1厅1卫,高楼层（31层）,1000 元/月,CD2736988199120543744,2021-07-02,104.084493,30.762945,整租,/权属核验/精装/随时看房/,有,暂无数据,商水,商电,有,暂无数据,2021-07-02 19:44:38,成都
新都-毗河-华都九龙广场,46.82㎡,东南,1室1厅1卫,高楼层（29层）,600 元/月,CD2695614241750663168,2021-07-02,104.150421,30.797637,整租,/权属核验/近地铁/随时看房/,有,暂无数据,暂无数据,商电,有,暂无数据,2021-07-02 19:44:46,成都
新都-保利公园-中洲·中央公园,109.82㎡,东南,3室2厅1卫,中楼层（24层）,2000 元/月,CD2799873599346057216,2021-07-02,104.162315,30.752739,整租,/权属核验/精装/,有,暂无数据,民水,民电,有,暂无数据,2021-07-02 19:44:55,成都
新都-新都城区-英伦世家,136.57㎡,南,3室2厅2卫,中楼层（16层）,1700 元/月,CD2681107368430796800,2021-07-02,104.178487,30.813603,整租,/权属核验/双卫生间/随时看房/,有,租用车位,民水,民电,有,暂无数据,2021-07-02 19:44:59,成都
新都-毗河-富力桃园B区,85.92㎡,北,2室2厅1卫,高楼层（33层）,1900 元/月,CD2818114449687724032,2021-07-02,104.155128,30.802933,整租,/权属核验/新上/近地铁/精装/随时看房/,有,暂无数据,暂无数据,暂无数据,有,暂无数据,2021-07-02 19:45:05,成都
新都-保利公园-保利公园198百合郡,107.00㎡,南,3室2厅2卫,高楼层（18层）,2100 元/月,CD2579094833100488704,2021-07-02,104.15443,30.757341,整租,/权属核验/精装/双卫生间/,有,暂无数据,民水,民电,有,自采暖,2021-07-02 19:45:07,成都
新都-保利公园-保利公园198玫瑰郡,76.02㎡,东南,3室2厅2卫,中楼层（18层）,1600 元/月,CD2691097012296237056,2021-07-02,104.151684,30.754889,整租,/权属核验/双卫生间/随时看房/,有,暂无数据,民水,民电,有,自采暖,2021-07-02 19:45:10,成都
新都-保利公园-中洲·中央公园,94.08㎡,南,3室2厅1卫,高楼层（33层）,2000 元/月,CD2505550313986203648,2021-07-02,104.162315,30.752739,整租,/权属核验/,有,暂无数据,民水,民电,有,暂无数据,2021-07-02 19:45:13,成都
新都-保利公园-保利紫荆花语,86.67㎡,西北,3室2厅1卫,低楼层（33层）,2000 元/月,CD2706596313231007744,2021-07-02,104.157177,30.760056,整租,/权属核验/精装/,有,租用车位,民水,民电,有,自采暖,2021-07-02 19:45:20,成都
新都-新都城区-汉嘉国际,130.00㎡,南,3室1厅2卫,低楼层（11层）,2200 元/月,CD2741137182197817344,2021-07-02,104.195218,30.814258,整租,//权属核验/双卫生间/随时看房/,有,租用车位,民水,民电,有,自采暖,2021-07-02 19:45:25,成都
新都-新都城区-桂湖名城二期,35.45㎡,南,1室0厅1卫,高楼层（23层）,1100 元/月,CD2809363276688277504,2021-07-02,104.160653,30.822047,整租,/权属核验/近地铁/精装/,有,暂无数据,商水,商电,有,暂无数据,2021-07-02 19:45:27,成都
新都-大丰-嘉美华凯,58.32㎡,东,1室1厅1卫,高楼层（17层）,1400 元/月,CD2815212121233825792,2021-07-02,104.067888,30.766107,整租,//权属核验/精装/,无,暂无数据,民水,民电,有,自采暖,2021-07-02 19:45:35,成都
新都-保利公园-中洲·中央公园,115.40㎡,南,3室1厅2卫,低楼层（8层）,1900 元/月,CD2794234278328664064,2021-07-02,104.162315,30.752739,整租,/权属核验/精装/双卫生间/随时看房/,有,暂无数据,民水,民电,有,暂无数据,2021-07-02 19:45:44,成都
新都-保利公园-保利拉斐公馆,82.88㎡,东,4室2厅2卫,低楼层（32层）,2500 元/月,CD2686927368387837952,2021-07-02,104.161904,30.761696,整租,/权属核验/精装/双卫生间/,有,暂无数据,民水,民电,有,暂无数据,2021-07-02 19:45:47,成都
新都-新都城区-我的大学,46.65㎡,东南,2室1厅1卫,低楼层（27层）,1400 元/月,CD2820208030027882496,2021-07-02,104.197626,30.827671,整租,//权属核验/新上/近地铁/随时看房/,有,暂无数据,民水,民电,有,暂无数据,2021-07-02 19:45:52,成都
新都-新都城区-鲜花优活居,35.00㎡,东,1室0厅1卫,中楼层（15层）,1250 元/月,CD2820187929807429632,2021-07-02,104.195655,30.82648,整租,/权属核验/新上/精装/随时看房/,有,暂无数据,商水,商电,有,暂无数据,2021-07-02 19:46:00,成都
新都-大丰-北新润苑二期,79.61㎡,东南,2室1厅1卫,中楼层（15层）,1700 元/月,CD2807271242283876352,2021-07-02,104.075342,30.772382,整租,/权属核验/精装/随时看房/,有,暂无数据,民水,民电,有,自采暖,2021-07-02 19:46:07,成都
新都-大丰-润禾花园,88.56㎡,西南,3室1厅1卫,低楼层（18层）,1800 元/月,CD2793313999301910528,2021-07-01,104.071811,30.769239,整租,//权属核验/近地铁/精装/随时看房/,有,暂无数据,民水,民电,有,自采暖,2021-07-02 19:46:10,成都
新都-大丰-保利爱尚里,43.50㎡,南,1室1厅1卫,高楼层（29层）,1350 元/月,CD2728955400102608896,2021-07-02,104.083685,30.760075,整租,/权属核验/精装/随时看房/,有,暂无数据,商水,商电,无,暂无数据,2021-07-02 19:46:13,成都
新都-新都城区-格林城市花园,97.21㎡,东南,3室1厅2卫,高楼层（26层）,1700 元/月,CD2815243740699172864,2021-07-02,104.15989423897,30.811773023411,整租,//权属核验/精装/双卫生间/随时看房/,无,暂无数据,暂无数据,暂无数据,暂无数据,暂无数据,2021-07-02 19:46:16,成都
新都-新都城区-汉嘉国际,92.00㎡,南,3室1厅1卫,中楼层（30层）,2200 元/月,CD2741332926112202752,2021-07-02,104.195218,30.814258,整租,/权属核验/精装/,有,暂无数据,民水,民电,有,暂无数据,2021-07-02 19:46:20,成都
新都-新都城区-缤纷时代广场,46.07㎡,南,1室1厅1卫,低楼层（15层）,1400 元/月,CD2800105492658536448,2021-07-02,104.199467,30.815646,整租,/权属核验/随时看房/,有,暂无数据,民水,民电,有,自采暖,2021-07-02 19:46:26,成都
新都-新都城区-缤纷时代广场,33.93㎡,西北,2室1厅1卫,低楼层（15层）,1000 元/月,CD2797795677323927552,2021-07-02,104.199467,30.815646,整租,/权属核验/随时看房/,有,租用车位,民水,民电,有,自采暖,2021-07-02 19:46:34,成都
新都-毗河-华都九龙广场,46.83㎡,北,1室1厅1卫,高楼层（30层）,1150 元/月,CD2792811796241850368,2021-07-02,104.150421,30.797637,整租,/权属核验/精装/,有,暂无数据,暂无数据,暂无数据,有,暂无数据,2021-07-02 19:46:38,成都
新都-新都城区-和信天骄府,30.59㎡,东南,1室0厅1卫,低楼层（15层）,900 元/月,CD2796228493116456960,2021-07-02,104.15307,30.812765,整租,/权属核验/近地铁/随时看房/,有,暂无数据,商水,商电,无,暂无数据,2021-07-02 19:46:48,成都
新都-新都城区-新都国际广场一期,110.54㎡,东北,3室2厅1卫,高楼层（11层）,1700 元/月,CD2749061644029001728,2021-07-02,104.191571,30.816611,整租,/权属核验/,有,租用车位,民水,民电,有,自采暖,2021-07-02 19:46:52,成都
新都-新都城区-桂湖名城二期,35.55㎡,南西南,1室0厅1卫,中楼层（23层）,1000 元/月,CD2814377382671294464,2021-07-02,104.160653,30.822047,整租,/权属核验/近地铁/精装/随时看房/,有,暂无数据,商水,商电,有,暂无数据,2021-07-02 19:46:58,成都
新都-大丰-城北优品道,38.66㎡,东北,1室1厅1卫,中楼层（26层）,1300 元/月,CD2817255747095117824,2021-06-30,104.084493,30.762945,整租,/权属核验/新上/精装/,有,暂无数据,商水,商电,有,自采暖,2021-07-02 19:47:07,成都
新都-毗河-叠香庄园,77.70㎡,南,2室1厅1卫,低楼层（6层）,3000 元/月,CD2790534878477680640,2021-07-02,104.180486,30.81097,整租,/权属核验/精装/随时看房/,无,暂无数据,民水,民电,有,暂无数据,2021-07-02 19:47:11,成都
新都-新都城区-新都国际广场二期,75.74㎡,北,2室1厅1卫,中楼层（29层）,1400 元/月,CD2807784902899548160,2021-07-02,104.191612,30.814854,整租,//权属核验/随时看房/,有,暂无数据,民水,民电,有,暂无数据,2021-07-02 19:47:18,成都
新都-新都城区-橄榄郡,113.92㎡,南,3室2厅2卫,中楼层（17层）,2000 元/月,CD2806496415134515200,2021-07-02,104.189878,30.823345,整租,/权属核验/近地铁/精装/双卫生间/,有,暂无数据,民水,民电,有,暂无数据,2021-07-02 19:47:21,成都
新都-保利公园-保利拉斐公馆,98.22㎡,南北,3室1厅1卫,低楼层（32层）,2100 元/月,CD2660827062239510528,2021-07-02,104.161904,30.761696,整租,/权属核验/随时看房/,有,租用车位,民水,民电,有,暂无数据,2021-07-02 19:47:30,成都
新都-大丰-保利春天花语,111.77㎡,东南,4室2厅2卫,中楼层（33层）,2800 元/月,CD2795483342638948352,2021-07-02,104.076035,30.776327,整租,/权属核验/近地铁/精装/双卫生间/随时看房/,有,暂无数据,民水,民电,有,自采暖,2021-07-02 19:47:38,成都
新都-大丰-圣采泊尚,111.18㎡,西,4室2厅2卫,高楼层（30层）,2600 元/月,CD2771760220047671296,2021-07-02,104.075852,30.778161,整租,//权属核验/近地铁/精装/双卫生间/随时看房/,有,暂无数据,民水,民电,有,暂无数据,2021-07-02 19:47:43,成都
新都-新都城区-橄榄郡,61.46㎡,东,1室1厅1卫,高楼层（23层）,1400 元/月,CD2761534759116488704,2021-07-02,104.189878,30.823345,整租,//权属核验/近地铁/精装/,有,暂无数据,民水,民电,有,暂无数据,2021-07-02 19:47:52,成都
新都-新都城区-天府香城,103.31㎡,西南,3室1厅2卫,中楼层（5层）,2000 元/月,CD2775412607019401216,2021-07-02,104.186048,30.824715,整租,/权属核验/双卫生间/随时看房/,有,暂无数据,民水,民电,有,暂无数据,2021-07-02 19:47:56,成都
新都-新都城区-桂湖名城二期,35.98㎡,西北,1室1厅1卫,高楼层（23层）,1100 元/月,CD2771015212202205184,2021-07-02,104.160653,30.822047,整租,/权属核验/近地铁/精装/,有,暂无数据,商水,商电,有,暂无数据,2021-07-02 19:48:03,成都
新都-保利公园-保利公园198玫瑰郡,368.25㎡,东南南,4室2厅2卫,高楼层（24层）,2600 元/月,CD2734651182424801280,2021-07-02,104.151684,30.754889,整租,/权属核验/精装/双卫生间/,有,暂无数据,民水,民电,有,自采暖,2021-07-02 19:48:11,成都
新都-大丰-融创凯旋东岸,78.62㎡,东东南,3室1厅1卫,中楼层（34层）,1700 元/月,CD2767385770456260608,2021-07-02,104.050961,30.763578,整租,//权属核验/随时看房/,有,租用车位,民水,民电,有,暂无数据,2021-07-02 19:48:19,成都
新都-保利公园-保利公园198玫瑰郡,137.00㎡,东南南,3室2厅2卫,低楼层（11层）,1800 元/月,CD2752057061964513280,2021-07-02,104.151684,30.754889,整租,/权属核验/精装/双卫生间/随时看房/,有,暂无数据,民水,民电,有,自采暖,2021-07-02 19:48:28,成都
新都-新都城区-橄榄郡,126.62㎡,南,3室1厅2卫,中楼层（17层）,1950 元/月,CD2784026300514844672,2021-07-02,104.189878,30.823345,整租,/权属核验/近地铁/双卫生间/随时看房/,有,暂无数据,民水,民电,有,暂无数据,2021-07-02 19:48:35,成都
新都-新都城区-宜峰,73.83㎡,南,2室1厅1卫,低楼层（32层）,1000 元/月,CD2784169447924178944,2021-07-02,104.178772,30.837005,整租,/权属核验/随时看房/,有,暂无数据,民水,民电,有,自采暖,2021-07-02 19:48:39,成都
新都-毗河-丽水金都,93.90㎡,东,2室1厅1卫,高楼层（14层）,1400 元/月,CD2819548659283132416,2021-07-02,104.174851,30.80849,整租,//权属核验/业主自荐/新上/精装/,有,暂无数据,民水,民电,有,暂无数据,2021-07-02 19:48:46,成都
新都-毗河-叠香庄园,79.42㎡,南,3室2厅2卫,高楼层（6层）,1600 元/月,CD2784621691220279296,2021-07-02,104.180486,30.81097,整租,//权属核验/精装/双卫生间/,无,租用车位,民水,民电,有,自采暖,2021-07-02 19:48:55,成都
新都-毗河-三合嘉苑,130.57㎡,东,3室2厅2卫,高楼层（6层）,1500 元/月,CD2811583580307210240,2021-07-02,104.150861,30.784585,整租,/权属核验/双卫生间/随时看房/,无,暂无数据,民水,民电,有,暂无数据,2021-07-02 19:48:59,成都
新都-新都城区-雅舍河畔,114.21㎡,西南,3室1厅1卫,高楼层（18层）,1500 元/月,CD2816785381024858112,2021-07-02,104.176134,30.822065,整租,/权属核验/新上/随时看房/,有,暂无数据,民水,民电,有,暂无数据,2021-07-02 19:49:08,成都
新都-毗河-万科缇香荟,27.00㎡,北,1室0厅1卫,低楼层（32层）,800 元/月,CD2754914846532173824,2021-07-02,104.150009,30.794072,整租,/权属核验/近地铁/随时看房/,无,暂无数据,商水,商电,有,暂无数据,2021-07-02 19:49:17,成都
新都-新都城区-旺府豪庭,63.04㎡,南,2室1厅1卫,低楼层（18层）,1300 元/月,CD2819508948317773824,2021-07-02,104.196287,30.820333,整租,//权属核验/新上/随时看房/,有,暂无数据,民水,民电,有,自采暖,2021-07-02 19:49:26,成都
新都-保利公园-中洲·中央公园,112.36㎡,东南,3室2厅2卫,高楼层（8层）,500 元/月,CD2809228926344503296,2021-07-02,104.162315,30.752739,整租,/权属核验/双卫生间/随时看房/,有,暂无数据,民水,民电,有,暂无数据,2021-07-02 19:49:32,成都
新都-新都城区-竹韵新馆,160.00㎡,西南,3室2厅1卫,高楼层（6层）,1300 元/月,CD2731787253821997056,2021-07-02,104.157264,30.824698,整租,/权属核验/精装/,无,暂无数据,民水,民电,有,自采暖,2021-07-02 19:49:41,成都
新都-大丰-博雅新城C区,88.67㎡,东,2室1厅1卫,高楼层（27层）,1500 元/月,CD2690379346774343680,2021-07-02,104.056053,30.764171,整租,//权属核验/随时看房/,有,租用车位,民水,民电,有,自采暖,2021-07-02 19:49:47,成都
新都-保利公园-保利公园198丁香郡,130.94㎡,东北,4室1厅2卫,高楼层（18层）,2000 元/月,CD2617454501556666368,2021-07-02,104.152979,30.761391,整租,/权属核验/双卫生间/随时看房/,有,租用车位,民水,民电,有,自采暖,2021-07-02 19:49:51,成都
新都-大丰-保利大都汇璟汇,132.00㎡,南西南,4室1厅2卫,低楼层（33层）,2300 元/月,CD2634700060596125696,2021-07-02,104.07759089865,30.760055106225,整租,/权属核验/近地铁/精装/双卫生间/,有,暂无数据,暂无数据,暂无数据,有,暂无数据,2021-07-02 19:49:58,成都
新都-新都城区-香城名都,109.86㎡,南西南,3室2厅1卫,高楼层（7层）,600 元/月,CD2699258221088219136,2021-07-02,104.176342,30.824989,整租,/权属核验/近地铁/,无,租用车位,暂无数据,暂无数据,有,暂无数据,2021-07-02 19:50:06,成都
新都-大丰-龙湖听蓝时光,33.29㎡,西,1室1厅1卫,中楼层（23层）,1500 元/月,CD2811538936604925952,2021-07-02,104.063365,30.768571,整租,/权属核验/近地铁/精装/随时看房/,有,暂无数据,商水,商电,无,暂无数据,2021-07-02 19:50:13,成都
新都-新都城区-汉嘉国际,83.36㎡,西,2室2厅1卫,低楼层（33层）,1800 元/月,CD2821085294815100928,2021-07-02,104.195218,30.814258,整租,/权属核验/新上/近地铁/精装/随时看房/,有,暂无数据,暂无数据,暂无数据,有,暂无数据,2021-07-02 19:50:22,成都
新都-大丰-北延新居D区,51.00㎡,东,1室1厅1卫,高楼层（22层）,1200 元/月,CD2821660312216797184,2021-07-02,104.091421,30.76959,整租,/新上/,有,暂无数据,暂无数据,暂无数据,暂无数据,暂无数据,2021-07-02 19:50:29,成都
新都-大丰-九形道,112.35㎡,东南,3室1厅2卫,中楼层（27层）,2300 元/月,CD2821796029903405056,2021-07-02,104.072932,30.77165,整租,/权属核验/新上/近地铁/精装/双卫生间/,有,暂无数据,民水,民电,有,暂无数据,2021-07-02 19:50:37,成都
新都-大丰-保利爱尚里,90.05㎡,东南,3室2厅2卫,中楼层（32层）,1650 元/月,CD2789225634654584832,2021-07-02,104.083685,30.760075,整租,//权属核验/精装/双卫生间/随时看房/,有,租用车位,民水,民电,有,暂无数据,2021-07-02 19:50:40,成都
新都-保利公园-保利公园198丁香郡,106.88㎡,南,3室2厅2卫,高楼层（18层）,2200 元/月,CD2646458071026769920,2021-07-02,104.152979,30.761391,整租,/权属核验/精装/双卫生间/随时看房/,有,租用车位,民水,民电,有,自采暖,2021-07-02 19:50:48,成都
新都-毗河-翰香府,101.88㎡,南,3室2厅2卫,高楼层（6层）,1300 元/月,CD2814406302296711168,2021-07-02,104.17462,30.810908,整租,//权属核验/双卫生间/随时看房/,无,暂无数据,暂无数据,暂无数据,有,暂无数据,2021-07-02 19:50:55,成都
新都-大丰-保利城一期,70.12㎡,东南,2室2厅1卫,高楼层（18层）,1700 元/月,CD2814341736757723136,2021-07-02,104.094675,30.762713,整租,/权属核验/,有,暂无数据,民水,民电,有,暂无数据,2021-07-02 19:50:58,成都
新都-新都城区-汉嘉国际,92.58㎡,北,3室2厅1卫,高楼层（33层）,2600 元/月,CD2792628446520410112,2021-07-02,104.195218,30.814258,整租,//权属核验/精装/,有,暂无数据,暂无数据,暂无数据,有,暂无数据,2021-07-02 19:51:04,成都
新都-新都城区-汉嘉国际,133.57㎡,南,3室2厅2卫,高楼层（33层）,2200 元/月,CD2668677999322742784,2021-07-02,104.195218,30.814258,整租,/权属核验/近地铁/精装/双卫生间/随时看房/,有,租用车位,民水,民电,有,暂无数据,2021-07-02 19:51:11,成都
新都-大丰-北新润苑二期,89.80㎡,南,3室1厅1卫,低楼层（15层）,1900 元/月,CD2804208284016312320,2021-07-02,104.075342,30.772382,整租,/权属核验/精装/,有,暂无数据,民水,民电,有,自采暖,2021-07-02 19:51:18,成都
新都-新都城区-格林城市花园,15.00㎡,南,3室1厅1卫,高楼层（32层）,600 元/月,CD2786970895682912256,2021-07-02,104.15989423897,30.811773023411,合租,//权属核验/近地铁/精装/随时看房/,无,暂无数据,暂无数据,暂无数据,暂无数据,暂无数据,2021-07-02 19:51:24,成都
新都-大丰-保利春天花语,64.94㎡,南,3室2厅1卫,高楼层（29层）,1500 元/月,CD2813554305104355328,2021-07-02,104.076035,30.776327,整租,//权属核验/随时看房/,有,暂无数据,民水,民电,有,自采暖,2021-07-02 19:51:28,成都
新都-新都城区-万千城,47.11㎡,南,1室1厅1卫,中楼层（32层）,1450 元/月,CD2821002503079075840,2021-07-02,104.184717,30.825275,整租,/权属核验/新上/精装/,有,暂无数据,民水,民电,有,自采暖,2021-07-02 19:51:31,成都
新都-保利公园-保利公园198丁香郡,122.95㎡,南,4室2厅2卫,低楼层（18层）,1500 元/月,CD2789722172460384256,2021-07-02,104.152979,30.761391,整租,/权属核验/双卫生间/随时看房/,有,暂无数据,民水,民电,有,自采暖,2021-07-02 19:51:36,成都
新都-大丰-常青藤二期,114.83㎡,东,3室1厅2卫,低楼层（26层）,2100 元/月,CD2801322399650283520,2021-07-02,104.066994,30.773659,整租,/权属核验/近地铁/精装/双卫生间/随时看房/,有,免费使用,民水,民电,有,暂无数据,2021-07-02 19:51:41,成都
新都-新都城区-川音嘉苑,149.47㎡,南,4室1厅2卫,中楼层（11层）,1200 元/月,CD2803014526922915840,2021-06-25,104.189866,30.811528,整租,//权属核验/双卫生间/随时看房/,有,暂无数据,民水,民电,有,自采暖,2021-07-02 19:51:43,成都
新都-新都城区-华逸花园新都苑,100.85㎡,北,2室2厅2卫,高楼层（2层）,1050 元/月,CD2815891107328827392,2021-07-02,104.156492,30.826088,整租,/权属核验/双卫生间/随时看房/,无,暂无数据,民水,民电,暂无数据,暂无数据,2021-07-02 19:51:52,成都
新都-新都城区-金冠华庭,39.75㎡,南,1室1厅1卫,低楼层（11层）,750 元/月,CD2815752650979811328,2021-07-02,104.174834,30.816957,整租,//权属核验/近地铁/精装/随时看房/,有,暂无数据,民水,民电,有,自采暖,2021-07-02 19:51:57,成都
新都-新都城区-缤纷时代广场,36.52㎡,南,2室1厅1卫,高楼层（15层）,1400 元/月,CD2733199673363013632,2021-07-02,104.199467,30.815646,整租,/权属核验/精装/随时看房/,有,暂无数据,民水,民电,有,自采暖,2021-07-02 19:52:01,成都
新都-大丰-绿地城,77.40㎡,南,3室2厅1卫,低楼层（33层）,1600 元/月,CD2758571861196947456,2021-07-02,104.084691,30.766933,整租,/权属核验/精装/,有,暂无数据,民水,民电,有,暂无数据,2021-07-02 19:52:09,成都
武侯-丽都-幸福时光,35.17㎡,东南,1室0厅1卫,高楼层（12层）,1700 元/月,CD2807951769039011840,2021-07-01,104.038514,30.632458,整租,/权属核验/近地铁/,有,暂无数据,民水,民电,有,暂无数据,2021-07-02 19:52:15,成都
龙泉驿-龙泉驿城区-果壳里的城,90.00㎡,东,3室2厅1卫,中楼层（34层）,1900 元/月,CD2813834042934566912,2021-06-30,104.24264,30.581755,整租,/权属核验/近地铁/精装/,有,租用车位,民水,民电,有,自采暖,2021-07-02 19:52:22,成都
青羊-草堂-草堂西院,56.44㎡,西,1室1厅1卫,中楼层（6层）,1700 元/月,CD2802732395336302592,2021-06-30,104.02862274,30.6656969,整租,//权属核验/,无,暂无数据,民水,民电,有,自采暖,2021-07-02 19:52:27,成都
龙泉驿-龙泉驿城区-果壳里的城,88.12㎡,东南,3室2厅2卫,低楼层（34层）,2300 元/月,CD2813821139753631744,2021-06-21,104.24264,30.581755,整租,/权属核验/精装/双卫生间/,有,租用车位,民水,民电,有,自采暖,2021-07-02 19:52:32,成都
成华-万象城-华润二十四城一期,90.16㎡,东,2室2厅1卫,高楼层（32层）,3200 元/月,CD2795642538118356992,2021-07-01,104.125375,30.654918,整租,/权属核验/近地铁/精装/,有,暂无数据,民水,民电,有,暂无数据,2021-07-02 19:52:41,成都
郫都-郫县城区-龙光君悦华庭一期,84.59㎡,东南,3室1厅1卫,高楼层（26层）,1800 元/月,CD2816593024212549632,2021-07-01,103.888898,30.800258,整租,/权属核验/,有,暂无数据,民水,民电,有,暂无数据,2021-07-02 19:52:44,成都
双流-航空港-温哥华南苑,46.00㎡,南,1室0厅1卫,中楼层（16层）,1500 元/月,CD2803636257572528128,2021-06-25,103.995013,30.576175,整租,/权属核验/精装/,有,租用车位,民水,民电,有,自采暖,2021-07-02 19:52:48,成都
金牛-天回镇-北斗七星城,46.79㎡,南,1室1厅1卫,高楼层（30层）,1200 元/月,CD2780246325910831104,2021-06-27,104.106328,30.778166,整租,//权属核验/精装/随时看房/,有,暂无数据,商水,商电,有,暂无数据,2021-07-02 19:52:53,成都
