house_address,house_rental_area,house_orientation,house_layout,house_floor,house_rental_price,house_id,house_update_time,house_longitude,house_latitude,house_rental_method,house_tag,house_elevator,house_parking,house_water,house_electricity,house_gas,house_heating,create_time,city
金牛-驷马桥-绿地世纪城,86.62㎡,南,3室1厅1卫,高楼层（20层）,2400 元/月,CD2782394033484603392,2021-06-27,104.086035,30.726715,整租,//权属核验/近地铁/精装/随时看房/,有,暂无数据,民水,民电,有,暂无数据,2021-07-03 13:08:46,成都
金牛-金牛万达-盛世荷花,55.12㎡,东南,1室1厅1卫,低楼层（12层）,1500 元/月,CD2781199202951372800,2021-07-01,104.080591,30.696581,整租,//权属核验/近地铁/随时看房/,有,租用车位,民水,民电,有,自采暖,2021-07-03 13:08:51,成都
金牛-金牛万达-金牛万达D组团,88.60㎡,南,3室1厅1卫,中楼层（32层）,4300 元/月,CD2784825536072400896,2021-06-30,104.082388,30.693315,整租,//权属核验/近地铁/精装/随时看房/,有,暂无数据,民水,民电,有,自采暖,2021-07-03 13:08:56,成都
金牛-花牌坊-书香门第,131.28㎡,东北,3室1厅2卫,中楼层（23层）,3200 元/月,CD2781105343957311488,2021-07-02,104.068281,30.688263,整租,/权属核验/双卫生间/随时看房/,有,租用车位,民水,民电,有,暂无数据,2021-07-03 13:09:01,成都
金牛-华侨城-华侨城纯水岸二期,76.19㎡,北,2室1厅1卫,中楼层（33层）,2300 元/月,CD2782485597506510848,2021-06-27,104.033873,30.726402,整租,/权属核验/近地铁/随时看房/,有,暂无数据,民水,民电,有,自采暖,2021-07-03 13:09:08,成都
金牛-营门口-汇景新村(金牛),195.28㎡,东南,3室1厅1卫,高楼层（6层）,850 元/月,CD2782423342777909248,2021-06-27,104.044588,30.699461,合租,/权属核验/近地铁/,无,暂无数据,民水,民电,有,暂无数据,2021-07-03 13:09:11,成都
金牛-国宾-恒大西锦城,91.00㎡,南,2室2厅1卫,低楼层（29层）,3400 元/月,CD2782537057355177984,2021-06-27,104.017812,30.716763,整租,/权属核验/近地铁/随时看房/,有,租用车位,民水,民电,有,自采暖,2021-07-03 13:09:19,成都
金牛-金牛万达-中汇国际中心,48.05㎡,南,2室1厅1卫,中楼层（28层）,4500 元/月,CD2781841546499063808,2021-06-27,104.097818,30.697409,整租,/权属核验/近地铁/精装/,有,租用车位,商水,商电,无,暂无数据,2021-07-03 13:09:23,成都
金牛-驷马桥-凤翔云庭,89.00㎡,东南,2室2厅1卫,高楼层（20层）,2480 元/月,CD2817912349909065728,2021-06-30,104.082285,30.725204,整租,/业主自荐/新上/精装/,有,暂无数据,暂无数据,暂无数据,暂无数据,暂无数据,2021-07-03 13:09:28,成都
金牛-一品天下-锦城花园,147.00㎡,南,3室2厅2卫,低楼层（11层）,5500 元/月,CD2783147848110448640,2021-06-27,104.028077,30.695446,整租,/权属核验/近地铁/精装/双卫生间/随时看房/,有,租用车位,民水,民电,有,自采暖,2021-07-03 13:09:31,成都
金牛-营门口-九里教师苑,99.78㎡,东南,3室1厅1卫,高楼层（7层）,2200 元/月,CD2783283834333175808,2021-06-27,104.04905129,30.70835053,整租,/权属核验/近地铁/,无,暂无数据,民水,民电,有,暂无数据,2021-07-03 13:09:38,成都
金牛-金牛万达-龙门镇,83.40㎡,东南,2室1厅1卫,中楼层（31层）,2800 元/月,CD2783330378533322752,2021-06-26,104.068693,30.693268,整租,/权属核验/近地铁/精装/,有,租用车位,民水,民电,有,自采暖,2021-07-03 13:09:41,成都
金牛-高家庄-青房尚瑞天韵,89.64㎡,东北,2室2厅1卫,低楼层（26层）,2200 元/月,CD2782574021336629248,2021-06-26,104.009151,30.70694,整租,/权属核验/随时看房/,有,暂无数据,民水,民电,有,自采暖,2021-07-03 13:09:44,成都
金牛-石人小区-白果林银杏广场,47.60㎡,西,2室2厅2卫,中楼层（15层）,3200 元/月,CD2783364504069603328,2021-06-17,104.043769,30.676363,整租,/权属核验/近地铁/双卫生间/随时看房/,有,租用车位,民水,商电,无,自采暖,2021-07-03 13:09:48,成都
金牛-金牛万达-尚锦城,87.98㎡,东南,2室1厅1卫,高楼层（22层）,2500 元/月,CD2818961896991375360,2021-07-01,104.089388,30.695338,整租,/权属核验/新上/,有,租用车位,民水,民电,有,暂无数据,2021-07-03 13:09:57,成都
金牛-抚琴小区-熙城国际,35.65㎡,东南,1室0厅0卫,高楼层（21层）,3500 元/月,CD2784818758345031680,2021-06-27,104.04952,30.689304,整租,/权属核验/随时看房/,有,租用车位,民水,民电,无,暂无数据,2021-07-03 13:10:00,成都
金牛-马鞍路-银海中心,48.00㎡,南,1室1厅1卫,中楼层（21层）,2280 元/月,CD2318565258568417280,2021-06-11,104.0939851918,30.685759075421,整租,/权属核验/公寓/精装/押一付一/,有,免费使用,民水,民电,有,集中供暖,2021-07-03 13:10:06,成都
金牛-五块石-金都苑,88.00㎡,东南,2室1厅1卫,高楼层（18层）,2100 元/月,CD2786187512010784768,2021-06-30,104.068718,30.708305,整租,/权属核验/近地铁/随时看房/,有,租用车位,民水,民电,有,暂无数据,2021-07-03 13:10:11,成都
金牛-马鞍路-迪康银色诗典,18.00㎡,南,4室1厅2卫,低楼层（11层）,1200 元/月,CD2805929308516777984,2021-07-02,104.08379196547,30.68993252165,合租,/权属核验/公寓/精装/独立阳台/随时看房/,有,租用车位,民水,民电,有,自采暖,2021-07-03 13:10:16,成都
金牛-国宾-国宾时光汇,78.60㎡,东北,2室2厅1卫,高楼层（22层）,2600 元/月,CD2786804219670167552,2021-07-02,104.013859,30.72877,整租,//权属核验/近地铁/精装/随时看房/,有,暂无数据,民水,民电,有,暂无数据,2021-07-03 13:10:20,成都
金牛-马鞍路-迪康银色诗典,18.00㎡,南,4室1厅2卫,低楼层（11层）,1000 元/月,CD2821536068242259968,2021-07-02,104.08379196547,30.68993252165,合租,/权属核验/新上/公寓/精装/随时看房/,有,租用车位,民水,民电,有,自采暖,2021-07-03 13:10:23,成都
金牛-国宾-恒大西锦城,120.73㎡,东南,3室2厅2卫,低楼层（29层）,3600 元/月,CD2786258003370975232,2021-07-01,104.017812,30.716763,整租,/权属核验/近地铁/精装/双卫生间/,有,暂无数据,民水,民电,有,自采暖,2021-07-03 13:10:26,成都
金牛-金牛万达-平福路48号,26.00㎡,东南,4室1厅2卫,中楼层（7层）,800 元/月,CD2811446503380353024,2021-07-01,104.09696749122,30.68829992798,合租,/权属核验/公寓/月租/近地铁/精装/独立阳台/押一付一/随时看房/,无,免费使用,民水,民电,有,集中供暖,2021-07-03 13:10:32,成都
金牛-花照壁-香都美地,73.80㎡,西南北,2室1厅1卫,低楼层（6层）,2100 元/月,CD2786169155387400192,2021-06-27,104.04422702,30.71145813,整租,/权属核验/近地铁/精装/,无,租用车位,民水,民电,有,自采暖,2021-07-03 13:10:35,成都
金牛-花牌坊-北成星中心,86.00㎡,西南,2室2厅1卫,高楼层（32层）,4280 元/月,CD2812992951502766080,2021-06-29,104.07827476168,30.6863819365,整租,/公寓/精装/押一付一/随时看房/,有,暂无数据,民水,民电,有,暂无数据,2021-07-03 13:10:44,成都
金牛-花牌坊-一环路北一段279号,49.32㎡,西北,1室1厅1卫,中楼层（25层）,2100 元/月,CD2773838898823176192,2021-06-27,104.064883,30.691665,整租,/权属核验/近地铁/精装/,有,暂无数据,民水,民电,有,自采暖,2021-07-03 13:10:49,成都
金牛-营门口-汇景新村(金牛),118.93㎡,东南南,3室1厅2卫,低楼层（6层）,2600 元/月,CD2815745127044358144,2021-07-01,104.044588,30.699461,整租,/权属核验/近地铁/精装/双卫生间/,无,暂无数据,民水,民电,有,自采暖,2021-07-03 13:10:56,成都
金牛-国宾-东原亲亲里,85.81㎡,东西,3室1厅1卫,低楼层（19层）,2350 元/月,CD2775232631682367488,2021-07-01,104.010742,30.726612,整租,//权属核验/业主自荐/近地铁/,有,租用车位,民水,民电,有,自采暖,2021-07-03 13:11:02,成都
金牛-金府-金府国际,53.08㎡,东,1室1厅1卫,中楼层（31层）,1500 元/月,CD2815794635677368320,2021-06-30,104.049711,30.723717,整租,/权属核验/,有,暂无数据,民水,民电,有,暂无数据,2021-07-03 13:11:07,成都
金牛-沙湾-金沙北2路4号,42.87㎡,东北,2室1厅1卫,低楼层（7层）,1200 元/月,CD2816005744652976128,2021-07-01,104.051247,30.698094,整租,/权属核验/近地铁/随时看房/,无,暂无数据,民水,民电,有,自采暖,2021-07-03 13:11:10,成都
金牛-花照壁-金牛新都会,37.02㎡,西南,1室0厅1卫,中楼层（37层）,1800 元/月,CD2815779481724395520,2021-06-30,104.03152111,30.71143786,整租,/权属核验/随时看房/,有,暂无数据,民水,民电,无,暂无数据,2021-07-03 13:11:16,成都
金牛-金牛万达-瑞升城北橡树林,37.40㎡,西北,1室1厅1卫,高楼层（40层）,1800 元/月,CD2815895382499008512,2021-06-27,104.091105,30.691344,整租,/权属核验/精装/随时看房/,有,租用车位,民水,民电,无,暂无数据,2021-07-03 13:11:20,成都
金牛-五块石-幸福彼岸,165.72㎡,西,4室2厅3卫,高楼层（22层）,3700 元/月,CD2815925437967384576,2021-06-29,104.064596,30.722072,整租,//权属核验/近地铁/精装/随时看房/,有,暂无数据,民水,民电,有,暂无数据,2021-07-03 13:11:28,成都
金牛-国宾-翡翠海湾,135.36㎡,东南,3室2厅2卫,高楼层（18层）,3500 元/月,CD2815988847899582464,2021-07-02,104.013185,30.70942,整租,//权属核验/近地铁/精装/双卫生间/随时看房/,有,暂无数据,民水,民电,有,暂无数据,2021-07-03 13:11:36,成都
金牛-马鞍路-恒大曹家巷广场,75.04㎡,东南,2室1厅1卫,中楼层（42层）,3500 元/月,CD2775399580794634240,2021-06-27,104.096171,30.679737,整租,//权属核验/精装/随时看房/,有,免费使用,民水,民电,有,暂无数据,2021-07-03 13:11:39,成都
金牛-花牌坊-荷里活,35.31㎡,东南,2室1厅1卫,低楼层（24层）,3000 元/月,CD2775181352717795328,2021-06-27,104.055768,30.685513,整租,/权属核验/随时看房/,有,暂无数据,民水,民电,有,暂无数据,2021-07-03 13:11:43,成都
金牛-营门口-香木林加州国际,57.34㎡,东南,1室1厅1卫,低楼层（18层）,2500 元/月,CD2816596619963932672,2021-07-02,104.05111903,30.7006371,整租,/权属核验/近地铁/精装/,有,暂无数据,民水,民电,有,暂无数据,2021-07-03 13:11:45,成都
金牛-驷马桥-绿地世纪城,74.08㎡,南,2室1厅1卫,低楼层（21层）,2200 元/月,CD2816705520671932416,2021-07-01,104.086035,30.726715,整租,//权属核验/近地铁/随时看房/,有,租用车位,民水,民电,有,暂无数据,2021-07-03 13:11:48,成都
金牛-金牛万达-锦泰世家,111.25㎡,东,3室1厅2卫,高楼层（18层）,2900 元/月,CD2816579364353736704,2021-07-02,104.089533,30.696435,整租,//权属核验/精装/双卫生间/随时看房/,有,租用车位,民水,民电,有,自采暖,2021-07-03 13:11:51,成都
金牛-国宾-北京城建龙樾熙城二期,114.00㎡,东南,4室1厅2卫,中楼层（15层）,3600 元/月,CD2816523832129757184,2021-07-01,103.9885903658,30.730413139504,整租,//权属核验/精装/双卫生间/随时看房/,无,暂无数据,暂无数据,暂无数据,有,暂无数据,2021-07-03 13:11:55,成都
金牛-一品天下-凯丽豪景,85.00㎡,南,2室1厅1卫,中楼层（32层）,2800 元/月,CD2779735139264512000,2021-06-27,104.033199,30.692977,整租,/权属核验/近地铁/随时看房/,有,租用车位,民水,民电,有,自采暖,2021-07-03 13:12:02,成都
金牛-金牛万达-金牛万达A组团,86.76㎡,北,3室1厅1卫,中楼层（32层）,4200 元/月,CD2777448429092618240,2021-06-27,104.082415,30.69573,整租,/权属核验/近地铁/精装/,有,租用车位,民水,民电,有,自采暖,2021-07-03 13:12:05,成都
金牛-金府-万基兰御,10.00㎡,北,1室0厅0卫,地下室,320 元/月,CD2779106934203629568,2021-06-23,104.052003,30.71851,整租,/权属核验/近地铁/随时看房/,有,暂无数据,暂无数据,暂无数据,暂无数据,暂无数据,2021-07-03 13:12:11,成都
金牛-金府-兴元绿洲一期,92.10㎡,南,3室1厅1卫,低楼层（22层）,2000 元/月,CD2779658532222402560,2021-06-29,104.05342,30.72331347,整租,/权属核验/随时看房/,有,暂无数据,民水,民电,有,自采暖,2021-07-03 13:12:18,成都
金牛-高家庄-高家庄赞城,77.68㎡,西南,3室1厅1卫,低楼层（18层）,2400 元/月,CD2778352299390025728,2021-07-03,104.005358,30.711787,整租,//权属核验/精装/随时看房/,有,暂无数据,民水,民电,有,暂无数据,2021-07-03 13:12:23,成都
金牛-花牌坊-龙湖上城天街广场,78.00㎡,西南,2室2厅1卫,低楼层（39层）,4280 元/月,CD2780638897053368320,2021-06-29,104.07775951588,30.691294734041,整租,/公寓/精装/押一付一/随时看房/,有,暂无数据,民水,民电,有,暂无数据,2021-07-03 13:12:27,成都
金牛-金牛万达-金牛万达B组团,99.71㎡,东南,3室1厅0卫,中楼层（32层）,2100 元/月,CD2812992738499772416,2021-06-27,104.082491,30.694791,整租,/权属核验/近地铁/随时看房/,有,租用车位,民水,民电,有,自采暖,2021-07-03 13:12:30,成都
金牛-花照壁-交大智能九期,129.07㎡,东南,3室1厅2卫,高楼层（6层）,3500 元/月,CD2812915392673497088,2021-06-27,104.04428,30.708904,整租,//权属核验/近地铁/精装/双卫生间/随时看房/,无,暂无数据,民水,民电,有,自采暖,2021-07-03 13:12:39,成都
金牛-营门口-金房星座,138.32㎡,东南,4室2厅2卫,高楼层（26层）,3600 元/月,CD2768064570063847424,2021-07-01,104.047916,30.702031,整租,//权属核验/近地铁/双卫生间/随时看房/,有,暂无数据,民水,民电,有,暂无数据,2021-07-03 13:12:48,成都
金牛-花牌坊-北成星中心,77.00㎡,西南,2室2厅1卫,低楼层（32层）,3780 元/月,CD2628158492652863488,2021-06-24,104.07821991343,30.687684641559,整租,/公寓/精装/押一付一/随时看房/,有,暂无数据,民水,民电,有,暂无数据,2021-07-03 13:12:54,成都
金牛-金牛万达-金牛万达A组团,71.43㎡,南,2室1厅1卫,高楼层（32层）,2600 元/月,CD2769372921490587648,2021-06-27,104.082415,30.69573,整租,/权属核验/近地铁/随时看房/,有,暂无数据,民水,民电,有,自采暖,2021-07-03 13:12:58,成都
金牛-高家庄-远洋朗郡,74.42㎡,东南,2室1厅1卫,高楼层（17层）,2300 元/月,CD2768089039499706368,2021-06-27,103.986464,30.721319,整租,/权属核验/随时看房/,有,租用车位,民水,民电,有,暂无数据,2021-07-03 13:13:04,成都
金牛-高家庄-百仁安盛,143.48㎡,东南,3室2厅2卫,低楼层（18层）,2700 元/月,CD2769686369646690304,2021-06-26,103.998987,30.713739,整租,/权属核验/双卫生间/随时看房/,有,租用车位,民水,民电,有,自采暖,2021-07-03 13:13:09,成都
金牛-高家庄-百仁安盛,143.34㎡,东南,3室2厅2卫,低楼层（18层）,2800 元/月,CD2769675885782245376,2021-06-26,103.998987,30.713739,整租,/权属核验/双卫生间/随时看房/,有,暂无数据,民水,民电,有,自采暖,2021-07-03 13:13:13,成都
金牛-营门口-锦城名都,86.12㎡,西北,3室1厅1卫,低楼层（33层）,3800 元/月,CD2769474636692594688,2021-06-23,104.04688607,30.70580604,整租,/权属核验/近地铁/精装/,有,暂无数据,民水,民电,有,暂无数据,2021-07-03 13:13:19,成都
金牛-花牌坊-龙湖上城天街广场,87.00㎡,西南,2室2厅1卫,中楼层（33层）,4080 元/月,CD2689104140197429248,2021-06-29,104.07777415834,30.68933167572,整租,/公寓/精装/押一付一/随时看房/,有,暂无数据,民水,民电,有,暂无数据,2021-07-03 13:13:26,成都
金牛-高家庄-西线阳光,116.10㎡,东南南,3室1厅2卫,中楼层（18层）,2500 元/月,CD2768808485234671616,2021-06-27,104.000704,30.716025,整租,/权属核验/精装/双卫生间/随时看房/,有,暂无数据,民水,民电,有,自采暖,2021-07-03 13:13:28,成都
金牛-花牌坊-北成星中心,77.00㎡,西南,2室2厅1卫,中楼层（32层）,3780 元/月,CD2644863966836432896,2021-06-29,104.07827476168,30.6863819365,整租,/公寓/精装/押一付一/随时看房/,有,暂无数据,民水,民电,有,暂无数据,2021-07-03 13:13:31,成都
金牛-马鞍路-恒大曹家巷广场,80.24㎡,东南,2室1厅1卫,低楼层（39层）,3200 元/月,CD2770094349194117120,2021-07-02,104.096171,30.679737,整租,/权属核验/精装/随时看房/,有,免费使用,民水,民电,有,暂无数据,2021-07-03 13:13:40,成都
金牛-一品天下-蜀汉路2号,126.21㎡,西南,6室2厅2卫,中楼层（9层）,10000 元/月,CD2729681617080549376,2021-06-27,104.036059,30.688333,整租,/权属核验/近地铁/双卫生间/随时看房/,有,免费使用,民水,民电,有,自采暖,2021-07-03 13:13:43,成都
金牛-华侨城-华侨城原岸,113.56㎡,东南,3室2厅2卫,高楼层（34层）,5000 元/月,CD2728869842407915520,2021-06-27,104.052307,30.73317,整租,/权属核验/精装/双卫生间/,有,暂无数据,民水,民电,有,自采暖,2021-07-03 13:13:48,成都
金牛-金府-兴元绿洲一期,101.23㎡,西南,3室1厅2卫,高楼层（22层）,2800 元/月,CD2809991119512018944,2021-06-27,104.05342,30.72331347,整租,/权属核验/双卫生间/,有,暂无数据,民水,民电,有,自采暖,2021-07-03 13:13:55,成都
金牛-金牛万达-金牛万达C组团,72.67㎡,南,2室1厅1卫,低楼层（32层）,2800 元/月,CD2810071264171917312,2021-06-29,104.081133,30.69511,整租,/权属核验/近地铁/精装/,有,暂无数据,民水,民电,有,自采暖,2021-07-03 13:13:59,成都
金牛-五块石-蓝光中央天地,40.67㎡,东南,1室1厅1卫,中楼层（27层）,1300 元/月,CD2810012130299363328,2021-06-25,104.071927,30.713499,整租,/权属核验/随时看房/,有,租用车位,商水,商电,有,暂无数据,2021-07-03 13:14:06,成都
金牛-石人小区-融信公馆,112.69㎡,东南,3室1厅2卫,中楼层（30层）,6500 元/月,CD2810683864065261568,2021-07-01,104.041414,30.677042,整租,/权属核验/精装/双卫生间/,无,免费使用,暂无数据,暂无数据,有,暂无数据,2021-07-03 13:14:09,成都
金牛-花牌坊-北成星中心,78.00㎡,南,2室1厅1卫,中楼层（32层）,3780 元/月,CD2782013102752284672,2021-06-24,104.07821991343,30.687684641559,整租,/公寓/精装/押一付一/随时看房/,有,租用车位,民水,民电,有,暂无数据,2021-07-03 13:14:13,成都
金牛-金府-金府SOHO,57.09㎡,东南,2室1厅1卫,高楼层（31层）,1800 元/月,CD2810663950650449920,2021-06-30,104.04722132,30.71957988,整租,/权属核验/近地铁/随时看房/,有,暂无数据,商水,商电,有,暂无数据,2021-07-03 13:14:19,成都
金牛-一品天下-一品天下C区,76.25㎡,西南,2室2厅1卫,高楼层（9层）,2500 元/月,CD2810297500945629184,2021-07-02,104.032151,30.698514,整租,/权属核验/近地铁/,有,暂无数据,民水,民电,有,自采暖,2021-07-03 13:14:25,成都
金牛-花牌坊-龙湖上城天街广场,86.00㎡,西南,2室2厅1卫,低楼层（35层）,4080 元/月,CD2769570848422494208,2021-06-29,104.07755279834,30.690282176198,整租,/公寓/精装/押一付一/随时看房/,有,暂无数据,民水,民电,有,暂无数据,2021-07-03 13:14:27,成都
金牛-一品天下-凯丽豪景,104.98㎡,南,3室2厅2卫,低楼层（32层）,4500 元/月,CD2810185013587345408,2021-06-27,104.033199,30.692977,整租,/权属核验/近地铁/精装/双卫生间/,有,租用车位,民水,民电,有,自采暖,2021-07-03 13:14:31,成都
金牛-花牌坊-龙湖上城天街广场,78.00㎡,西南,2室2厅1卫,高楼层（37层）,4280 元/月,CD2769570802998452224,2021-06-29,104.07755279834,30.690282176198,整租,/公寓/精装/押一付一/随时看房/,有,暂无数据,民水,民电,有,暂无数据,2021-07-03 13:14:38,成都
金牛-花照壁-首开龙湖紫宸香颂,189.00㎡,西南西北,4室2厅2卫,中楼层（37层）,11340 元/月,CD2801467340837879808,2021-06-05,104.040546,30.704818,整租,/权属核验/近地铁/双卫生间/,有,暂无数据,商水,商电,有,暂无数据,2021-07-03 13:14:45,成都
金牛-花牌坊-双城,18.00㎡,东,4室0厅1卫,低楼层（33层）,800 元/月,CD2805089260905177088,2021-06-09,104.05907678859,30.684518376989,合租,/权属核验/公寓/精装/随时看房/,有,免费使用,民水,民电,有,集中供暖,2021-07-03 13:14:48,成都
金牛-高家庄-青房尚瑞天韵,123.68㎡,南北,3室2厅2卫,高楼层（26层）,3500 元/月,CD2799923269418369024,2021-06-27,104.009151,30.70694,整租,/权属核验/精装/双卫生间/,有,暂无数据,民水,民电,有,自采暖,2021-07-03 13:14:55,成都
金牛-金牛万达-锦泰世家,77.03㎡,东南,2室1厅1卫,中楼层（18层）,2500 元/月,CD2809564681486999552,2021-07-02,104.089533,30.696435,整租,//权属核验/,有,租用车位,民水,民电,有,自采暖,2021-07-03 13:14:59,成都
金牛-花牌坊-北成星中心,91.00㎡,西南,2室2厅1卫,低楼层（32层）,4180 元/月,CD2644179109957345280,2021-06-20,104.07827476168,30.6863819365,整租,/公寓/精装/押一付一/随时看房/,有,暂无数据,民水,民电,有,暂无数据,2021-07-03 13:15:08,成都
金牛-国宾-北京城建龙樾熙城,90.69㎡,西南,3室1厅2卫,低楼层（15层）,3500 元/月,CD2800159565298008064,2021-07-02,103.989426,30.729274,整租,/权属核验/业主自荐/精装/双卫生间/,有,暂无数据,民水,民电,有,暂无数据,2021-07-03 13:15:13,成都
金牛-花牌坊-北成星中心,91.54㎡,西南,2室2厅1卫,中楼层（32层）,4180 元/月,CD2644179115804475392,2021-06-29,104.07827476168,30.6863819365,整租,/公寓/精装/押一付一/随时看房/,有,暂无数据,民水,民电,有,暂无数据,2021-07-03 13:15:17,成都
金牛-一品天下-蓝光云鼎,56.10㎡,南,1室1厅1卫,高楼层（28层）,2500 元/月,CD2810116562470567936,2021-06-23,104.033911,30.693696,整租,//权属核验/精装/随时看房/,有,租用车位,民水,民电,有,自采暖,2021-07-03 13:15:24,成都
金牛-茶店子-明阳家在回廊,89.19㎡,东南,3室1厅1卫,高楼层（7层）,2800 元/月,CD2726068414388387840,2021-06-26,104.015999,30.70564,整租,/权属核验/近地铁/精装/随时看房/,无,暂无数据,民水,民电,有,自采暖,2021-07-03 13:15:30,成都
金牛-蜀汉路-三和花园,59.83㎡,南,2室2厅2卫,高楼层（7层）,1900 元/月,CD2726132281206390784,2021-06-26,104.024769,30.693773,整租,/权属核验/精装/双卫生间/,无,暂无数据,民水,民电,有,自采暖,2021-07-03 13:15:36,成都
金牛-天回镇-保利公园里,114.20㎡,南,3室2厅2卫,中楼层（29层）,2500 元/月,CD2810035306588815360,2021-07-02,104.096823,30.773437,整租,/权属核验/精装/双卫生间/,有,暂无数据,暂无数据,民电,有,暂无数据,2021-07-03 13:15:43,成都
金牛-金牛万达-富丽碧蔓汀,74.71㎡,东南,3室1厅1卫,高楼层（26层）,3200 元/月,CD2810081011071983616,2021-06-28,104.095072,30.693471,整租,/权属核验/近地铁/精装/,有,暂无数据,民水,民电,有,自采暖,2021-07-03 13:15:47,成都
金牛-马鞍路-恒大曹家巷广场,72.66㎡,东南,2室1厅1卫,中楼层（39层）,3600 元/月,CD2800612504504369152,2021-07-02,104.096171,30.679737,整租,/权属核验/近地铁/精装/,有,免费使用,民水,民电,有,暂无数据,2021-07-03 13:15:51,成都
金牛-金牛万达-龙门镇二期,93.65㎡,东南,3室1厅1卫,中楼层（32层）,3100 元/月,CD2800873088743645184,2021-06-24,104.067817,30.695034,整租,/权属核验/精装/,有,暂无数据,民水,民电,有,自采暖,2021-07-03 13:15:56,成都
金牛-国宾-西岸观邸,92.12㎡,东,2室1厅2卫,高楼层（32层）,3300 元/月,CD2800883518862278656,2021-06-24,104.018212,30.712976,整租,/权属核验/近地铁/双卫生间/随时看房/,有,暂无数据,民水,民电,有,自采暖,2021-07-03 13:16:02,成都
金牛-国宾-远洋朗基国宾御府,124.00㎡,东南,4室2厅2卫,低楼层（21层）,3000 元/月,CD2800534555403231232,2021-07-02,104.001005,30.732386,整租,/权属核验/近地铁/精装/双卫生间/随时看房/,有,暂无数据,民水,民电,有,暂无数据,2021-07-03 13:16:04,成都
金牛-花牌坊-中地锦尚,42.00㎡,东南,1室1厅1卫,高楼层（17层）,2000 元/月,CD2805117864624275456,2021-06-09,104.0628377899,30.685260051176,整租,/权属核验/公寓/精装/随时看房/,有,免费使用,商水,商电,无,集中供暖,2021-07-03 13:16:11,成都
金牛-花照壁-恒和华园,15.00㎡,北,4室1厅1卫,低楼层（6层）,608 元/月,CD2608684589950181376,2021-06-24,104.04217316115,30.713440970536,合租,/权属核验/公寓/近地铁/精装/随时看房/,无,暂无数据,民水,民电,有,暂无数据,2021-07-03 13:16:18,成都
金牛-花照壁-城市绿舟花园,8.00㎡,北,4室1厅2卫,中楼层（6层）,680 元/月,CD2608685907163234304,2021-06-24,104.040916,30.711186,合租,/权属核验/公寓/近地铁/精装/随时看房/,无,暂无数据,民水,民电,有,暂无数据,2021-07-03 13:16:22,成都
金牛-五块石-天悦汇,50.34㎡,东,1室1厅1卫,中楼层（25层）,2000 元/月,CD2809225895028998144,2021-07-02,104.062369,30.730035,整租,/权属核验/近地铁/精装/随时看房/,有,暂无数据,商水,商电,无,自采暖,2021-07-03 13:16:32,成都
金牛-花牌坊-西锦国际二期,13.00㎡,北,3室1厅1卫,高楼层（33层）,1100 元/月,CD2675334407443202048,2021-06-24,104.05322946109,30.68780526701,合租,/权属核验/公寓/精装/随时看房/,有,免费使用,民水,民电,有,集中供暖,2021-07-03 13:16:39,成都
金牛-国宾-万科金域西岭,90.63㎡,西南,2室2厅1卫,高楼层（35层）,2700 元/月,CD2809529091659931648,2021-07-02,104.019802,30.716406,整租,//权属核验/近地铁/精装/随时看房/,有,租用车位,民水,民电,有,暂无数据,2021-07-03 13:16:42,成都
金牛-营门口-香木林加州国际,11.00㎡,北,4室1厅2卫,中楼层（29层）,730 元/月,CD2675332091423760384,2021-06-24,104.05111903,30.7006371,合租,/权属核验/公寓/近地铁/精装/随时看房/,暂无数据,暂无数据,暂无数据,暂无数据,暂无数据,暂无数据,2021-07-03 13:16:50,成都
金牛-高家庄-远洋朗郡,83.00㎡,东南南,3室1厅1卫,中楼层（17层）,2300 元/月,CD2758060016329572352,2021-06-27,103.986464,30.721319,整租,/权属核验/随时看房/,有,暂无数据,民水,民电,有,暂无数据,2021-07-03 13:16:53,成都
金牛-花牌坊-双城,10.00㎡,北,4室1厅2卫,高楼层（28层）,900 元/月,CD2724648930070765568,2021-06-24,104.05892705258,30.685039781253,合租,/权属核验/公寓/精装/随时看房/,有,暂无数据,民水,民电,有,暂无数据,2021-07-03 13:16:58,成都
金牛-营门口-互利西一巷5号,55.08㎡,东南,3室1厅1卫,中楼层（6层）,1400 元/月,CD2758675972965539840,2021-06-27,104.045449,30.696673,整租,/权属核验/近地铁/随时看房/,无,暂无数据,民水,民电,有,自采暖,2021-07-03 13:17:03,成都
金牛-花牌坊-龙湖上城天街广场,45.03㎡,东,2室1厅1卫,高楼层（35层）,3600 元/月,CD2810116553411411968,2021-06-17,104.078801,30.688634,整租,/权属核验/精装/随时看房/,无,租用车位,商水,商电,无,暂无数据,2021-07-03 13:17:11,成都
金牛-金牛万达-金牛之心荷花池广场1期,51.17㎡,东南,1室0厅1卫,中楼层（22层）,1900 元/月,CD2810721790303666176,2021-06-27,104.083531,30.698361,整租,/权属核验/近地铁/精装/随时看房/,有,暂无数据,暂无数据,暂无数据,暂无数据,暂无数据,2021-07-03 13:17:15,成都
金牛-沙湾-万科加州湾,82.12㎡,东南,2室1厅1卫,高楼层（27层）,2500 元/月,CD2759231899901116416,2021-06-27,104.05138,30.699021,整租,/权属核验/近地铁/随时看房/,有,租用车位,民水,民电,有,自采暖,2021-07-03 13:17:20,成都
金牛-高家庄-白鸽岛尚,121.35㎡,东南,3室2厅1卫,高楼层（19层）,2600 元/月,CD2759266155964678144,2021-06-27,104.002464,30.714052,整租,/权属核验/,有,暂无数据,民水,民电,有,自采暖,2021-07-03 13:17:26,成都
金牛-国宾-檀香花园,7.00㎡,北,4室1厅1卫,高楼层（30层）,630 元/月,CD2759986477386432512,2021-06-24,104.01572069076,30.710333301709,合租,/权属核验/公寓/近地铁/精装/随时看房/,有,暂无数据,民水,民电,有,暂无数据,2021-07-03 13:17:31,成都
金牛-五块石-华润银杏华庭,90.94㎡,西南,3室1厅1卫,中楼层（20层）,1800 元/月,CD2759545669642354688,2021-06-19,104.071387,30.718928,整租,/权属核验/近地铁/随时看房/,有,暂无数据,民水,民电,有,自采暖,2021-07-03 13:17:36,成都
金牛-花照壁-蓝色空间如意府,9.00㎡,北,4室1厅1卫,高楼层（6层）,530 元/月,CD2657919912592818176,2021-06-24,104.04113240455,30.71469107335,合租,/权属核验/公寓/近地铁/精装/随时看房/,无,暂无数据,民水,民电,有,暂无数据,2021-07-03 13:17:42,成都
金牛-营门口-香木林加州国际,88.38㎡,西南,2室1厅1卫,中楼层（23层）,3000 元/月,CD2810115639774019584,2021-06-27,104.05111903,30.7006371,整租,/权属核验/近地铁/精装/,有,暂无数据,民水,民电,有,暂无数据,2021-07-03 13:17:44,成都
金牛-高家庄-两河锦地,77.50㎡,东,2室1厅1卫,中楼层（18层）,1900 元/月,CD2810685381849661440,2021-06-27,104.000595,30.711703,整租,//权属核验/随时看房/,有,暂无数据,民水,民电,有,自采暖,2021-07-03 13:17:52,成都
金牛-马鞍路-锦江岸,90.16㎡,南,2室1厅1卫,中楼层（23层）,2800 元/月,CD2811418351547719680,2021-06-26,104.092297,30.67917,整租,//权属核验/精装/,有,租用车位,民水,民电,有,自采暖,2021-07-03 13:18:00,成都
金牛-金牛万达-金牛万达D组团,69.08㎡,东南,2室1厅1卫,低楼层（32层）,2700 元/月,CD2811532107715706880,2021-06-27,104.082388,30.693315,整租,//权属核验/近地铁/精装/随时看房/,有,暂无数据,民水,民电,有,自采暖,2021-07-03 13:18:08,成都
金牛-花牌坊-五丁路18号,63.75㎡,东南,2室1厅1卫,中楼层（4层）,1300 元/月,CD2759948565701992448,2021-06-28,104.074164,30.691675,整租,/权属核验/近地铁/随时看房/,无,暂无数据,暂无数据,暂无数据,无,暂无数据,2021-07-03 13:18:11,成都
金牛-高家庄-远洋朗郡,77.68㎡,东南南,3室2厅1卫,高楼层（17层）,2300 元/月,CD2761414476275122176,2021-06-27,103.986464,30.721319,整租,/权属核验/随时看房/,有,暂无数据,民水,民电,有,暂无数据,2021-07-03 13:18:17,成都
金牛-天回镇-万圣家园五区,80.00㎡,南,2室1厅1卫,高楼层（18层）,1600 元/月,CD2810898475595087872,2021-06-22,104.10484965819,30.767267685708,整租,//精装/随时看房/,无,暂无数据,暂无数据,暂无数据,暂无数据,暂无数据,2021-07-03 13:18:25,成都
金牛-金府-中加水岸,10.00㎡,北,4室1厅2卫,低楼层（32层）,750 元/月,CD2676905831630643200,2021-06-24,104.05184542518,30.725179250382,合租,/权属核验/公寓/精装/随时看房/,有,免费使用,民水,民电,有,集中供暖,2021-07-03 13:18:33,成都
金牛-茶店子-育苗路8号,66.64㎡,东南,2室1厅1卫,中楼层（7层）,1500 元/月,CD2762290459878359040,2021-06-27,104.027691,30.708028,整租,/权属核验/随时看房/,无,暂无数据,暂无数据,暂无数据,有,暂无数据,2021-07-03 13:18:41,成都
金牛-花牌坊-西锦国际二期,7.00㎡,北,4室1厅1卫,中楼层（33层）,840 元/月,CD2657918917241995264,2021-06-24,104.05322946109,30.68780526701,合租,/权属核验/公寓/精装/随时看房/,有,免费使用,民水,民电,有,集中供暖,2021-07-03 13:18:49,成都
金牛-高家庄-两河锦地,86.50㎡,东南,2室2厅1卫,中楼层（18层）,1200 元/月,CD2762180420006051840,2021-06-26,104.000595,30.711703,整租,/权属核验/,有,暂无数据,民水,民电,有,自采暖,2021-07-03 13:18:54,成都
金牛-国宾-近郊民居,13.00㎡,北,4室1厅1卫,高楼层（7层）,680 元/月,CD2676907330482225152,2021-06-24,104.01071399564,30.718140362266,合租,/权属核验/公寓/精装/随时看房/,无,免费使用,民水,民电,有,集中供暖,2021-07-03 13:19:03,成都
金牛-一品天下-金港空中花园,65.76㎡,西南,1室1厅1卫,中楼层（7层）,1800 元/月,CD2762162243419783168,2021-06-27,104.031207,30.692295,整租,/权属核验/近地铁/随时看房/,无,租用车位,民水,民电,有,自采暖,2021-07-03 13:19:06,成都
金牛-花牌坊-西锦国际一期,20.00㎡,北,4室1厅2卫,中楼层（23层）,1105 元/月,CD2687000283309424640,2021-06-24,104.0537304619,30.687513344271,合租,/权属核验/公寓/精装/独立阳台/随时看房/,有,暂无数据,民水,民电,有,暂无数据,2021-07-03 13:19:15,成都
金牛-花牌坊-双城,57.53㎡,东南,1室1厅1卫,低楼层（33层）,2100 元/月,CD2787843966056267776,2021-07-02,104.059098,30.684706,整租,//权属核验/随时看房/,有,暂无数据,民水,民电,有,暂无数据,2021-07-03 13:19:20,成都
金牛-国宾-北京城建龙樾熙城,9.00㎡,北,5室1厅2卫,中楼层（15层）,630 元/月,CD2693409726926168064,2021-06-24,103.9889184074,30.729619514944,合租,/权属核验/公寓/精装/随时看房/,有,免费使用,民水,民电,有,集中供暖,2021-07-03 13:19:26,成都
金牛-营门口-锦城名都,104.00㎡,西南,3室1厅1卫,高楼层（32层）,3200 元/月,CD2731256826678493184,2021-06-27,104.04688607,30.70580604,整租,/权属核验/近地铁/随时看房/,有,租用车位,民水,民电,有,暂无数据,2021-07-03 13:19:29,成都
金牛-营门口-九里教师苑,19.00㎡,北,4室1厅1卫,中楼层（7层）,623 元/月,CD2608691379504947200,2021-07-03,104.04976094283,30.708539754137,合租,/权属核验/公寓/近地铁/精装/独立阳台/随时看房/,无,暂无数据,民水,民电,有,暂无数据,2021-07-03 13:19:38,成都
金牛-高家庄-龙湖源著东区,125.29㎡,东南,4室1厅2卫,高楼层（16层）,3800 元/月,CD2811635120065757184,2021-06-27,103.987831,30.719647,整租,//权属核验/精装/双卫生间/随时看房/,有,暂无数据,民水,民电,有,暂无数据,2021-07-03 13:19:41,成都
金牛-抚琴小区-抚琴西苑北区,88.76㎡,东南,3室1厅1卫,中楼层（7层）,2500 元/月,CD2805638993322967040,2021-07-02,104.04244981106,30.687317437034,整租,/权属核验/公寓/近地铁/精装/押一付一/随时看房/,无,免费使用,民水,民电,有,集中供暖,2021-07-03 13:19:46,成都
金牛-茶店子-阳曦芙蓉城,70.33㎡,东南,2室1厅1卫,低楼层（30层）,2000 元/月,CD2802866831520702464,2021-06-27,104.022512,30.703881,整租,/权属核验/近地铁/,有,租用车位,民水,民电,有,暂无数据,2021-07-03 13:19:49,成都
金牛-沙湾-现代城,56.00㎡,东南,1室1厅1卫,中楼层（31层）,2400 元/月,CD2820999789893140480,2021-07-02,104.053938,30.697429,整租,/权属核验/新上/公寓/近地铁/精装/,有,免费使用,民水,民电,有,集中供暖,2021-07-03 13:19:56,成都
金牛-营门口-银沙路98号,76.20㎡,东南,3室1厅1卫,高楼层（7层）,1700 元/月,CD2803492993628651520,2021-06-27,104.050776,30.703093,整租,//权属核验/近地铁/随时看房/,无,暂无数据,民水,民电,有,自采暖,2021-07-03 13:20:00,成都
金牛-金府-电建地产洺悦府,123.00㎡,南,3室2厅2卫,低楼层（48层）,2700 元/月,CD2803569935031476224,2021-06-27,104.058212,30.721984,整租,//权属核验/精装/双卫生间/随时看房/,无,租用车位,商水,商电,暂无数据,暂无数据,2021-07-03 13:20:06,成都
金牛-金牛万达-金牛万达D组团,88.50㎡,南,3室2厅1卫,高楼层（32层）,3800 元/月,CD2804151871198208000,2021-06-30,104.082388,30.693315,整租,/权属核验/近地铁/精装/,有,租用车位,民水,民电,有,自采暖,2021-07-03 13:20:14,成都
金牛-高家庄-高家庄赞城,34.43㎡,东南,1室0厅1卫,低楼层（22层）,1600 元/月,CD2804218673148477440,2021-06-11,104.005358,30.711787,整租,/权属核验/精装/随时看房/,有,暂无数据,民水,民电,有,暂无数据,2021-07-03 13:20:23,成都
金牛-金牛万达-金牛万达C组团,119.99㎡,南,4室2厅2卫,低楼层（32层）,5000 元/月,CD2734083709593722880,2021-06-27,104.081133,30.69511,整租,/权属核验/近地铁/精装/双卫生间/,有,租用车位,民水,民电,有,自采暖,2021-07-03 13:20:31,成都
金牛-营门口-互利西一巷4号,16.00㎡,南,5室1厅2卫,低楼层（6层）,650 元/月,CD2797750931054403584,2021-06-12,104.044864,30.697389,合租,/权属核验/公寓/月租/近地铁/精装/押一付一/随时看房/,无,租用车位,民水,民电,有,集中供暖,2021-07-03 13:20:39,成都
金牛-五块石-蓝光中央天地,32.25㎡,西北北,1室1厅1卫,低楼层（23层）,1900 元/月,CD2731704514414379008,2021-06-26,104.071927,30.713499,整租,/权属核验/近地铁/精装/随时看房/,有,暂无数据,商水,商电,有,暂无数据,2021-07-03 13:20:46,成都
金牛-国宾-恒大西锦城,90.31㎡,东南,2室1厅1卫,低楼层（29层）,2500 元/月,CD2731164197269274624,2021-06-24,104.017812,30.716763,整租,/权属核验/近地铁/精装/随时看房/,有,暂无数据,民水,民电,有,自采暖,2021-07-03 13:20:51,成都
金牛-蜀汉路-上层建筑,138.34㎡,东南,3室2厅2卫,高楼层（27层）,3500 元/月,CD2732592134803685376,2021-06-26,104.024212,30.694861,整租,/权属核验/双卫生间/,有,暂无数据,民水,民电,有,自采暖,2021-07-03 13:20:59,成都
金牛-花牌坊-龙湖·上城天玺,131.00㎡,东,3室2厅2卫,中楼层（45层）,9500 元/月,CD2804326863156289536,2021-06-30,104.07675583088,30.690820087105,整租,/权属核验/精装/双卫生间/随时看房/,有,租用车位,民水,民电,有,暂无数据,2021-07-03 13:21:03,成都
金牛-马鞍路-曹家巷恒大雅苑,64.00㎡,西北,2室1厅1卫,高楼层（29层）,3380 元/月,CD2812114239832473600,2021-06-23,104.09406,30.680153,整租,//精装/随时看房/,有,租用车位,民水,民电,有,暂无数据,2021-07-03 13:21:09,成都
金牛-马鞍路-曹家巷恒大雅苑,76.00㎡,西,2室2厅2卫,中楼层（30层）,3300 元/月,CD2812849077723865088,2021-06-26,104.09406,30.680153,整租,//精装/双卫生间/,有,暂无数据,民水,民电,有,暂无数据,2021-07-03 13:21:17,成都
金牛-华侨城-西城首峻,86.29㎡,东南,2室1厅1卫,中楼层（34层）,2000 元/月,CD2812941059221897216,2021-06-27,104.031467,30.716775,整租,//权属核验/业主自荐/,有,暂无数据,民水,民电,有,自采暖,2021-07-03 13:21:21,成都
金牛-五块石-玉居庵东路3号院,55.33㎡,南,2室1厅1卫,高楼层（7层）,1100 元/月,CD2812302714271170560,2021-06-27,104.076342,30.706844,整租,//权属核验/近地铁/随时看房/,无,租用车位,暂无数据,暂无数据,暂无数据,暂无数据,2021-07-03 13:21:29,成都
金牛-营门口-锦城名都,60.91㎡,东南,2室1厅1卫,中楼层（33层）,2300 元/月,CD2781154432832765952,2021-06-27,104.04688607,30.70580604,整租,/权属核验/近地铁/,有,租用车位,民水,民电,有,暂无数据,2021-07-03 13:21:36,成都
金牛-马鞍路-银海中心,58.00㎡,南,1室0厅1卫,中楼层（32层）,1800 元/月,CD2783147779726245888,2021-07-02,104.093558,30.686006,整租,/权属核验/精装/随时看房/,有,租用车位,民水,民电,有,暂无数据,2021-07-03 13:21:42,成都
金牛-营门口-香木林加州国际,94.40㎡,东,3室1厅1卫,高楼层（23层）,3000 元/月,CD2788397602926755840,2021-06-27,104.05111903,30.7006371,整租,/权属核验/近地铁/精装/,有,租用车位,民水,民电,有,暂无数据,2021-07-03 13:21:46,成都
金牛-五块石-杨柳新屯,44.72㎡,东南,1室1厅1卫,低楼层（6层）,1600 元/月,CD2820968288983719936,2021-07-02,104.056814,30.731029,整租,/权属核验/新上/近地铁/随时看房/,无,暂无数据,民水,民电,有,自采暖,2021-07-03 13:21:49,成都
金牛-马鞍路-恒大曹家巷广场三期,72.85㎡,东南,1室1厅1卫,低楼层（41层）,2600 元/月,CD2790701341788340224,2021-07-02,104.096457,30.679096,整租,/权属核验/精装/,有,暂无数据,商水,商电,有,暂无数据,2021-07-03 13:21:55,成都
金牛-茶店子-西宸原著,133.38㎡,南,4室2厅2卫,高楼层（45层）,4500 元/月,CD2799287465452773376,2021-06-25,104.023795,30.710111,整租,/权属核验/精装/双卫生间/,无,暂无数据,暂无数据,暂无数据,有,暂无数据,2021-07-03 13:22:01,成都
金牛-沙湾-现代城,89.69㎡,东南,2室1厅1卫,高楼层（31层）,3000 元/月,CD2808066253640974336,2021-06-27,104.053015,30.697927,整租,/权属核验/近地铁/精装/,有,暂无数据,民水,民电,有,自采暖,2021-07-03 13:22:06,成都
金牛-马鞍路-恒大曹家巷广场,88.23㎡,东南,3室2厅1卫,高楼层（42层）,4000 元/月,CD2732634481722146816,2021-06-16,104.096171,30.679737,整租,/权属核验/精装/,有,暂无数据,民水,民电,有,暂无数据,2021-07-03 13:22:11,成都
金牛-金府-五福佳苑,46.78㎡,南,1室1厅1卫,高楼层（18层）,1400 元/月,CD2812373730624544768,2021-06-22,104.061651,30.719204,整租,/精装/,有,租用车位,民水,民电,有,暂无数据,2021-07-03 13:22:19,成都
金牛-蜀汉路-黄忠芙蓉苑,74.75㎡,东南,2室1厅1卫,高楼层（6层）,1800 元/月,CD2735466958009925632,2021-06-27,104.018699,30.694535,整租,/权属核验/近地铁/,无,暂无数据,民水,民电,有,暂无数据,2021-07-03 13:22:22,成都
金牛-高家庄-蓝光金悦金沙,81.85㎡,东南,2室2厅1卫,低楼层（21层）,2500 元/月,CD2759498404861321216,2021-06-29,104.008022,30.703832,整租,/权属核验/精装/,有,暂无数据,民水,民电,有,自采暖,2021-07-03 13:22:29,成都
金牛-蜀汉路-新天地,103.64㎡,东南,3室2厅2卫,低楼层（18层）,2900 元/月,CD2759513447791337472,2021-06-29,104.025253,30.695046,整租,/权属核验/双卫生间/随时看房/,有,租用车位,民水,民电,有,自采暖,2021-07-03 13:22:36,成都
金牛-华侨城-华侨城原岸,14.00㎡,东,4室1厅1卫,低楼层（34层）,650 元/月,CD2673028022319456256,2021-06-20,104.052048,30.731855,合租,/权属核验/公寓/月租/精装/随时看房/,有,租用车位,民水,民电,有,暂无数据,2021-07-03 13:22:41,成都
金牛-营门口-香木林加州国际,114.85㎡,南,3室2厅2卫,低楼层（23层）,3200 元/月,CD2760188697197953024,2021-06-27,104.05111903,30.7006371,整租,/权属核验/近地铁/精装/双卫生间/,有,暂无数据,民水,民电,有,暂无数据,2021-07-03 13:22:44,成都
金牛-高家庄-金牛花园,88.43㎡,东南,3室1厅1卫,中楼层（17层）,2300 元/月,CD2762995980256419840,2021-07-02,103.998186,30.715807,整租,//权属核验/精装/随时看房/,有,暂无数据,民水,民电,有,自采暖,2021-07-03 13:22:52,成都
金牛-茶店子-育苗路8号,80.19㎡,南,3室1厅1卫,低楼层（7层）,2800 元/月,CD2763081548143542272,2021-06-27,104.027691,30.708028,整租,/权属核验/精装/,无,暂无数据,暂无数据,暂无数据,有,暂无数据,2021-07-03 13:23:02,成都
金牛-五块石-水韵天府,116.86㎡,东,2室2厅1卫,低楼层（18层）,2100 元/月,CD2762448388535353344,2021-06-29,104.073664,30.725517,整租,//权属核验/精装/,有,暂无数据,民水,民电,有,暂无数据,2021-07-03 13:23:05,成都
金牛-五块石-王贾•红豆华庭,48.70㎡,南,1室1厅1卫,中楼层（17层）,1550 元/月,CD2674634054598393856,2021-06-26,104.08000968463,30.72486587967,整租,/公寓/精装/押一付一/随时看房/,无,租用车位,民水,民电,有,暂无数据,2021-07-03 13:23:10,成都
金牛-金牛万达-蓝光富丽城,112.94㎡,西,3室2厅1卫,中楼层（18层）,2600 元/月,CD2731870134234267648,2021-06-27,104.089191,30.701068,整租,/权属核验/,有,租用车位,民水,民电,有,自采暖,2021-07-03 13:23:16,成都
金牛-高家庄-蓝光金悦金沙,7.00㎡,北,4室1厅1卫,中楼层（24层）,530 元/月,CD2675337849070419968,2021-06-24,104.0077545818,30.704539639119,合租,/权属核验/公寓/精装/随时看房/,有,免费使用,民水,民电,有,集中供暖,2021-07-03 13:23:25,成都
金牛-通惠门-新世界丽晶花园,18.00㎡,南,4室1厅2卫,中楼层（12层）,999 元/月,CD2674473398897754112,2021-06-23,104.05549994038,30.673709315977,合租,/权属核验/公寓/近地铁/随时看房/,有,免费使用,民水,民电,有,集中供暖,2021-07-03 13:23:34,成都
金牛-营门口-顶峰水岸汇景,134.23㎡,东南,3室2厅2卫,低楼层（33层）,3000 元/月,CD2762876104061755392,2021-07-02,104.042094,30.701034,整租,/权属核验/双卫生间/随时看房/,有,暂无数据,民水,民电,有,暂无数据,2021-07-03 13:23:41,成都
金牛-国宾-西岸观邸,93.04㎡,东南,4室2厅2卫,中楼层（32层）,2960 元/月,CD2733154791600693248,2021-06-08,104.018212,30.712976,整租,/权属核验/近地铁/精装/双卫生间/随时看房/,有,租用车位,民水,民电,有,自采暖,2021-07-03 13:23:50,成都
金牛-五块石-王贾•红豆华庭,16.00㎡,南,4室1厅1卫,低楼层（17层）,650 元/月,CD2727721574496485376,2021-06-20,104.07906376666,30.725449253881,合租,/公寓/押一付一/随时看房/,无,租用车位,民水,民电,有,集中供暖,2021-07-03 13:23:58,成都
金牛-九里堤-交大智能六期,70.03㎡,东南西北,2室1厅1卫,低楼层（7层）,1600 元/月,CD2761525989086601216,2021-06-27,104.059171,30.709264,整租,//权属核验/近地铁/随时看房/,无,租用车位,民水,民电,有,自采暖,2021-07-03 13:24:02,成都
金牛-高家庄-远洋朗郡,104.22㎡,东南,3室2厅2卫,中楼层（17层）,3000 元/月,CD2730533081328132096,2021-06-27,103.986464,30.721319,整租,/权属核验/精装/双卫生间/随时看房/,有,暂无数据,民水,民电,有,暂无数据,2021-07-03 13:24:09,成都
金牛-营门口-锦城名都,116.08㎡,东南,3室2厅2卫,中楼层（33层）,4500 元/月,CD2764622639350947840,2021-06-27,104.04688607,30.70580604,整租,/权属核验/近地铁/精装/双卫生间/随时看房/,有,暂无数据,民水,民电,有,自采暖,2021-07-03 13:24:17,成都
金牛-马鞍路-河畔星辉,95.00㎡,西南,2室1厅1卫,中楼层（10层）,3500 元/月,CD2763853448070823936,2021-06-27,104.082696,30.683351,整租,/权属核验/近地铁/,有,租用车位,民水,民电,无,暂无数据,2021-07-03 13:24:20,成都
金牛-花牌坊-西锦国际一期,64.20㎡,东,2室1厅1卫,中楼层（23层）,2800 元/月,CD2765782112379879424,2021-07-01,104.053192,30.687136,整租,//权属核验/近地铁/精装/随时看房/,有,租用车位,民水,民电,有,暂无数据,2021-07-03 13:24:24,成都
金牛-五块石-王贾•红豆华庭,13.00㎡,南,4室1厅1卫,低楼层（17层）,501 元/月,CD2727721575377018880,2021-06-20,104.07906376666,30.725449253881,合租,/公寓/押一付一/随时看房/,无,租用车位,民水,民电,有,集中供暖,2021-07-03 13:24:28,成都
金牛-蜀汉路-金都花园,202.99㎡,南,3室1厅2卫,低楼层（11层）,5200 元/月,CD2765768846131331072,2021-06-20,104.0192924,30.69850237,整租,/权属核验/精装/双卫生间/随时看房/,有,暂无数据,民水,民电,有,自采暖,2021-07-03 13:24:34,成都
金牛-抚琴小区-熙城国际,100.00㎡,东南,3室2厅1卫,高楼层（21层）,4000 元/月,CD2763817139256164352,2021-06-27,104.04952,30.689304,整租,/权属核验/精装/,有,租用车位,民水,民电,无,暂无数据,2021-07-03 13:24:40,成都
金牛-国宾-保利国宾首府二期,87.58㎡,东南,3室1厅2卫,中楼层（17层）,1500 元/月,CD2764337367614758912,2021-06-27,104.00829285312,30.722170404583,整租,/权属核验/近地铁/双卫生间/随时看房/,有,租用车位,民水,民电,有,暂无数据,2021-07-03 13:24:46,成都
金牛-抚琴小区-抚琴街南三巷,85.62㎡,东南,2室1厅1卫,低楼层（7层）,2000 元/月,CD2735547108365959168,2021-06-27,104.046179,30.686005,整租,/权属核验/近地铁/随时看房/,无,租用车位,暂无数据,暂无数据,有,暂无数据,2021-07-03 13:24:49,成都
金牛-国宾-保利学府城,121.00㎡,西南,4室2厅2卫,低楼层（31层）,3100 元/月,CD2733890850530017280,2021-06-07,104.01223884133,30.731304122038,整租,/权属核验/近地铁/精装/双卫生间/,有,暂无数据,暂无数据,民电,有,暂无数据,2021-07-03 13:24:55,成都
金牛-五块石-云景豪庭,20.00㎡,南,5室1厅1卫,高楼层（29层）,700 元/月,CD2728905536724025344,2021-07-01,104.07748219962,30.706020863601,合租,/权属核验/公寓/近地铁/押一付一/随时看房/,有,租用车位,民水,民电,有,集中供暖,2021-07-03 13:25:02,成都
金牛-五块石-王贾•红豆华庭,13.00㎡,南,4室1厅1卫,高楼层（17层）,501 元/月,CD2727721578220486656,2021-06-20,104.07976649442,30.725830074938,合租,/公寓/押一付一/随时看房/,有,租用车位,民水,民电,有,集中供暖,2021-07-03 13:25:05,成都
金牛-花照壁-金府路6号,230.00㎡,东东南南西南西,4室2厅4卫,中楼层（5层）,6000 元/月,CD2734842701609435136,2021-06-27,104.03472053,30.71192955,整租,/权属核验/随时看房/,无,暂无数据,民水,民电,有,暂无数据,2021-07-03 13:25:12,成都
金牛-营门口-互利西一巷8号,59.49㎡,东南,3室1厅1卫,高楼层（6层）,1500 元/月,CD2737713200002252800,2021-06-27,104.046035,30.697889,整租,/权属核验/近地铁/随时看房/,无,暂无数据,民水,民电,有,自采暖,2021-07-03 13:25:14,成都
金牛-国宾-翡翠海湾,131.06㎡,北,3室2厅2卫,中楼层（18层）,3100 元/月,CD2738946610942705664,2021-06-27,104.013185,30.70942,整租,/权属核验/近地铁/精装/双卫生间/随时看房/,有,暂无数据,民水,民电,有,暂无数据,2021-07-03 13:25:20,成都
金牛-一品天下-长城小区一期,48.85㎡,东,3室1厅1卫,高楼层（7层）,2000 元/月,CD2784776199480541184,2021-06-26,104.037695,30.69209,整租,/权属核验/近地铁/随时看房/,无,暂无数据,民水,民电,有,自采暖,2021-07-03 13:25:28,成都
金牛-高家庄-保利梧桐语,94.91㎡,东南南,3室2厅2卫,高楼层（18层）,2900 元/月,CD2763062106067836928,2021-06-05,103.998216,30.711229,整租,/权属核验/精装/双卫生间/随时看房/,有,租用车位,民水,民电,有,自采暖,2021-07-03 13:25:32,成都
金牛-金府-电建地产洺悦府,127.00㎡,东南,3室1厅2卫,中楼层（44层）,3500 元/月,CD2762164866956935168,2021-06-27,104.058212,30.721984,整租,/权属核验/精装/双卫生间/随时看房/,有,租用车位,民水,民电,有,自采暖,2021-07-03 13:25:37,成都
金牛-花牌坊-曦城,81.22㎡,东东南,2室1厅1卫,低楼层（33层）,2950 元/月,CD2762210535402373120,2021-06-26,104.059766,30.682789,整租,/权属核验/,有,租用车位,民水,民电,有,自采暖,2021-07-03 13:25:43,成都
金牛-茶店子-泰基花语廊,111.51㎡,东南,3室2厅1卫,低楼层（13层）,2700 元/月,CD2786801993912958976,2021-06-24,104.01705,30.705162,整租,/权属核验/,有,暂无数据,民水,民电,有,自采暖,2021-07-03 13:25:52,成都
金牛-抚琴小区-营通街99号,7.00㎡,北,4室1厅1卫,高楼层（7层）,620 元/月,CD2725425890049146880,2021-06-25,104.04225902958,30.689751499413,合租,/权属核验/公寓/精装/随时看房/,无,免费使用,民水,民电,有,集中供暖,2021-07-03 13:25:56,成都
金牛-五块石-云景豪庭,16.00㎡,东南,5室1厅1卫,高楼层（29层）,600 元/月,CD2728905539525279744,2021-07-01,104.07748219962,30.706020863601,合租,/权属核验/公寓/近地铁/押一付一/随时看房/,有,租用车位,民水,民电,有,集中供暖,2021-07-03 13:26:00,成都
金牛-花牌坊-龙湖上城天街广场,94.00㎡,南北,3室1厅1卫,高楼层（37层）,3600 元/月,CD2786830861143130112,2021-06-11,104.078801,30.688634,整租,/权属核验/精装/,有,租用车位,暂无数据,暂无数据,有,暂无数据,2021-07-03 13:26:05,成都
金牛-金牛万达-金牛万达D组团,89.00㎡,南,3室1厅1卫,中楼层（32层）,3300 元/月,CD2765738966941704192,2021-06-29,104.082388,30.693315,整租,/权属核验/近地铁/精装/随时看房/,有,暂无数据,民水,民电,有,自采暖,2021-07-03 13:26:08,成都
金牛-国宾-蜀西路38号,122.16㎡,南北,3室2厅2卫,低楼层（6层）,3400 元/月,CD2766021951540969472,2021-06-23,104.00419,30.718383,整租,/权属核验/精装/双卫生间/,无,暂无数据,暂无数据,暂无数据,暂无数据,暂无数据,2021-07-03 13:26:13,成都
金牛-五块石-云景豪庭,18.00㎡,东南,5室1厅2卫,高楼层（29层）,700 元/月,CD2728905540548960256,2021-07-01,104.07752799046,30.705129985823,合租,/权属核验/公寓/近地铁/押一付一/随时看房/,有,租用车位,民水,民电,有,集中供暖,2021-07-03 13:26:19,成都
金牛-五块石-云景豪庭,13.00㎡,南,5室1厅2卫,高楼层（29层）,510 元/月,CD2728905545195978752,2021-07-01,104.07752799046,30.705129985823,合租,/权属核验/公寓/近地铁/押一付一/随时看房/,有,租用车位,民水,民电,有,集中供暖,2021-07-03 13:26:26,成都
金牛-五块石-恒业星园,61.53㎡,东,2室0厅1卫,低楼层（18层）,2000 元/月,CD2787596466083348480,2021-06-25,104.06918,30.712319,整租,/权属核验/近地铁/精装/,有,租用车位,民水,民电,有,暂无数据,2021-07-03 13:26:33,成都
金牛-五块石-幸福彼岸,15.00㎡,南,4室1厅2卫,低楼层（18层）,699 元/月,CD2804293332095221760,2021-06-23,104.06466505162,30.721492154675,合租,/权属核验/公寓/月租/近地铁/精装/随时看房/,有,租用车位,民水,民电,有,集中供暖,2021-07-03 13:26:42,成都
金牛-国宾-普罗旺斯,201.92㎡,东南,5室2厅3卫,高楼层（5层）,5000 元/月,CD2765310658835644416,2021-06-10,104.015288,30.711695,整租,/权属核验/近地铁/精装/,无,免费使用,民水,民电,有,自采暖,2021-07-03 13:26:50,成都
金牛-国宾-恒大西锦城,32.88㎡,东南南,1室0厅0卫,地下室,400 元/月,CD2786289188633313280,2021-07-02,104.017812,30.716763,整租,/权属核验/近地铁/,有,暂无数据,暂无数据,暂无数据,有,自采暖,2021-07-03 13:26:53,成都
金牛-高家庄-华宇西城雅郡,74.61㎡,东南,3室1厅1卫,高楼层（18层）,1900 元/月,CD2765353400731713536,2021-06-27,103.993042,30.712618,整租,//权属核验/随时看房/,有,暂无数据,民水,民电,有,暂无数据,2021-07-03 13:27:00,成都
金牛-金牛万达-平安苑(金牛),30.00㎡,南,4室1厅2卫,高楼层（7层）,950 元/月,CD2821795936496254976,2021-07-02,104.09842183527,30.692953084296,合租,/权属核验/新上/公寓/近地铁/独立阳台/随时看房/,无,免费使用,民水,民电,有,集中供暖,2021-07-03 13:27:05,成都
金牛-天回镇-北斗七星城,45.28㎡,西,1室0厅0卫,低楼层（30层）,1200 元/月,CD2765847862372728832,2021-06-18,104.106328,30.778166,整租,/权属核验/精装/随时看房/,有,暂无数据,商水,商电,有,暂无数据,2021-07-03 13:27:11,成都
金牛-金牛万达-南玻公寓,12.00㎡,南,5室1厅1卫,高楼层（7层）,600 元/月,CD2781151175511113728,2021-06-23,104.08801888968,30.689640982691,合租,/权属核验/公寓/独立阳台/随时看房/,无,免费使用,民水,民电,有,集中供暖,2021-07-03 13:27:18,成都
金牛-高家庄-金泉阳光雅新苑,93.08㎡,西南,3室2厅1卫,高楼层（6层）,1500 元/月,CD2789058192385523712,2021-06-26,104.002814,30.710606,整租,/权属核验/,无,暂无数据,暂无数据,暂无数据,有,自采暖,2021-07-03 13:27:22,成都
金牛-沙湾-现代城,15.00㎡,南,4室0厅1卫,高楼层（31层）,800 元/月,CD2801685080320245760,2021-06-25,104.053461,30.697193,合租,/权属核验/公寓/近地铁/精装/独立阳台/押一付一/随时看房/,有,租用车位,民水,民电,有,集中供暖,2021-07-03 13:27:28,成都
金牛-金牛万达-平福路48号,20.00㎡,东南,5室1厅2卫,高楼层（7层）,800 元/月,CD2802039670555549696,2021-06-05,104.09696749122,30.68829992798,合租,/权属核验/公寓/月租/近地铁/精装/独立阳台/押一付一/随时看房/,无,暂无数据,民水,民电,有,自采暖,2021-07-03 13:27:34,成都
金牛-马鞍路-恒大曹家巷广场,75.06㎡,东南,2室1厅1卫,中楼层（41层）,4000 元/月,CD2770297526807699456,2021-06-27,104.096171,30.679737,整租,/权属核验/近地铁/精装/,有,免费使用,民水,民电,有,暂无数据,2021-07-03 13:27:41,成都
金牛-金牛万达-金牛万达D组团,69.08㎡,西南,2室1厅1卫,高楼层（32层）,2700 元/月,CD2790535099811373056,2021-06-27,104.082388,30.693315,整租,/权属核验/近地铁/,有,暂无数据,民水,民电,有,自采暖,2021-07-03 13:27:49,成都
金牛-沙湾-金沙横街2号,44.30㎡,东南,3室1厅1卫,高楼层（7层）,1300 元/月,CD2770103462812729344,2021-06-27,104.051902,30.698452,整租,//权属核验/近地铁/随时看房/,有,租用车位,民水,民电,有,暂无数据,2021-07-03 13:27:54,成都
金牛-国宾-保利国宾首府,18.00㎡,南,5室1厅5卫,低楼层（17层）,850 元/月,CD2804884388566286336,2021-06-09,104.00793799576,30.722756303204,合租,/权属核验/公寓/月租/近地铁/精装/押一付一/随时看房/,有,租用车位,民水,民电,有,暂无数据,2021-07-03 13:28:01,成都
金牛-马鞍路-曹家巷恒大雅苑,18.00㎡,东南,4室1厅2卫,高楼层（28层）,1059 元/月,CD2737657944333090816,2021-06-24,104.0941514156,30.679773573645,合租,/公寓/精装/随时看房/,有,租用车位,民水,民电,有,自采暖,2021-07-03 13:28:04,成都
金牛-蜀汉路-金沙别致,77.77㎡,东南,2室1厅1卫,中楼层（23层）,2500 元/月,CD2790506671582494720,2021-06-20,104.01991,30.69502,整租,/权属核验/,有,租用车位,民水,民电,有,暂无数据,2021-07-03 13:28:06,成都
金牛-营门口-香木林加州国际,18.00㎡,南,3室1厅1卫,高楼层（23层）,950 元/月,CD2760353218914689024,2021-07-03,104.050634,30.700493,合租,/权属核验/公寓/近地铁/精装/押一付一/随时看房/,有,租用车位,民水,民电,有,集中供暖,2021-07-03 13:28:12,成都
金牛-驷马桥-绿地世纪城,56.00㎡,西南,1室2厅1卫,高楼层（16层）,1800 元/月,CD2760154877878607872,2021-06-29,104.086215,30.727339,整租,/权属核验/公寓/近地铁/精装/押一付一/随时看房/,有,租用车位,民水,民电,有,暂无数据,2021-07-03 13:28:16,成都
金牛-茶店子-西宸原著御景,102.42㎡,南北,3室1厅1卫,中楼层（40层）,4000 元/月,CD2776653238848724992,2021-06-26,104.020525,30.709541,整租,/权属核验/近地铁/精装/,有,暂无数据,商水,商电,有,暂无数据,2021-07-03 13:28:25,成都
金牛-五块石-云景豪庭,15.00㎡,东南,5室1厅1卫,高楼层（29层）,550 元/月,CD2728905541337759744,2021-07-01,104.07748219962,30.706020863601,合租,/权属核验/公寓/近地铁/押一付一/随时看房/,有,租用车位,民水,民电,有,集中供暖,2021-07-03 13:28:28,成都
金牛-五块石-王贾•红豆华庭,73.48㎡,南,3室1厅1卫,低楼层（17层）,1850 元/月,CD2803655408831700992,2021-07-02,104.0786645941,30.726185927356,整租,/公寓/精装/押一付一/随时看房/,无,租用车位,民水,民电,有,暂无数据,2021-07-03 13:28:31,成都
金牛-高家庄-蓝光金悦金沙,8.00㎡,北,3室1厅1卫,高楼层（18层）,630 元/月,CD2676900699270553600,2021-06-24,104.00823951299,30.70465782912,合租,/权属核验/公寓/精装/随时看房/,有,免费使用,民水,民电,有,集中供暖,2021-07-03 13:28:37,成都
金牛-高家庄-华宇西城雅郡,7.00㎡,北,4室1厅1卫,高楼层（18层）,660 元/月,CD2676905681374167040,2021-05-19,103.99253177766,30.712917574908,合租,/权属核验/公寓/精装/随时看房/,有,免费使用,民水,民电,有,集中供暖,2021-07-03 13:28:40,成都
金牛-高家庄-龙湖源著东区,9.00㎡,北,4室1厅2卫,高楼层（16层）,640 元/月,CD2676905978338738176,2021-05-19,103.98837907066,30.718912461853,合租,/权属核验/公寓/精装/随时看房/,有,免费使用,民水,民电,有,集中供暖,2021-07-03 13:28:45,成都
金牛-高家庄-龙湖源著东区,11.00㎡,北,4室1厅2卫,高楼层（16层）,710 元/月,CD2676905979379195904,2021-05-19,103.98837907066,30.718912461853,合租,/权属核验/公寓/精装/随时看房/,有,免费使用,民水,民电,有,集中供暖,2021-07-03 13:28:47,成都
金牛-高家庄-蓝光金悦金沙,15.00㎡,北,4室1厅1卫,中楼层（33层）,750 元/月,CD2676903114979672064,2021-06-24,104.00752342287,30.704170205519,合租,/权属核验/公寓/精装/随时看房/,有,免费使用,民水,民电,有,集中供暖,2021-07-03 13:28:54,成都
金牛-金牛万达-炎华置信花千集,39.00㎡,南,1室0厅1卫,低楼层（20层）,1800 元/月,CD2778228140625887232,2021-06-27,104.07283,30.692703,整租,/权属核验/精装/,无,免费使用,商水,商电,暂无数据,暂无数据,2021-07-03 13:29:01,成都
金牛-国宾-北京城建龙樾熙城二期,94.30㎡,西南,3室2厅2卫,低楼层（15层）,2500 元/月,CD2778918093357842432,2021-06-27,103.9885903658,30.730413139504,整租,/权属核验/精装/双卫生间/,无,暂无数据,暂无数据,暂无数据,有,暂无数据,2021-07-03 13:29:06,成都
金牛-五块石-蓝光花满庭一期,86.85㎡,西,3室2厅1卫,中楼层（21层）,2300 元/月,CD2816804987995701248,2021-06-29,104.066524,30.728183,整租,//权属核验/随时看房/,有,暂无数据,民水,民电,有,自采暖,2021-07-03 13:29:11,成都
金牛-营门口-香木林加州国际,43.58㎡,西,2室1厅1卫,高楼层（18层）,2000 元/月,CD2705740871743315968,2021-06-27,104.05111903,30.7006371,整租,//权属核验/近地铁/随时看房/,有,暂无数据,民水,民电,有,暂无数据,2021-07-03 13:29:15,成都
金牛-蜀汉路-阳光金沙,97.00㎡,西,3室1厅1卫,中楼层（6层）,3000 元/月,CD2707964606805966848,2021-06-27,104.017918,30.696468,整租,/权属核验/近地铁/精装/,无,租用车位,民水,民电,有,自采暖,2021-07-03 13:29:23,成都
金牛-一品天下-澳林春天,43.93㎡,西南,2室1厅1卫,高楼层（23层）,2500 元/月,CD2708718079033999360,2021-06-27,104.043109,30.696236,整租,/权属核验/随时看房/,有,暂无数据,民水,民电,有,暂无数据,2021-07-03 13:29:32,成都
金牛-营门口-锦西名宅西区,23.74㎡,南,1室0厅0卫,低楼层（1层）,280 元/月,CD2715805084184485888,2021-06-27,104.051606,30.705209,整租,/权属核验/近地铁/随时看房/,无,租用车位,暂无数据,暂无数据,暂无数据,暂无数据,2021-07-03 13:29:35,成都
金牛-国宾-西岸观邸,187.21㎡,南,5室2厅2卫,低楼层（29层）,6000 元/月,CD2714412141909114880,2021-06-27,104.018212,30.712976,整租,/权属核验/双卫生间/随时看房/,有,暂无数据,民水,民电,有,自采暖,2021-07-03 13:29:43,成都
金牛-高家庄-远洋朗郡,77.81㎡,南,2室1厅1卫,低楼层（17层）,1600 元/月,CD2709995348008370176,2021-06-30,103.986464,30.721319,整租,/权属核验/随时看房/,有,暂无数据,民水,民电,有,暂无数据,2021-07-03 13:29:46,成都
金牛-高家庄-远洋朗郡,108.12㎡,南,3室1厅2卫,中楼层（17层）,3600 元/月,CD2712107514006077440,2021-06-27,103.986464,30.721319,整租,/权属核验/精装/双卫生间/,有,租用车位,民水,民电,有,暂无数据,2021-07-03 13:29:53,成都
金牛-金牛万达-龙门镇,10.00㎡,北,4室1厅1卫,高楼层（32层）,830 元/月,CD2815960335222317056,2021-06-24,104.068693,30.693268,合租,/公寓/近地铁/精装/随时看房/,暂无数据,暂无数据,暂无数据,暂无数据,暂无数据,暂无数据,2021-07-03 13:29:56,成都
金牛-驷马桥-芙华新大陆,16.00㎡,南,4室1厅2卫,中楼层（18层）,749 元/月,CD2819428519879385088,2021-06-29,104.078337,30.723331,合租,/权属核验/新上/公寓/精装/随时看房/,有,租用车位,民水,民电,有,集中供暖,2021-07-03 13:30:03,成都
金牛-花牌坊-北成星中心,50.20㎡,东南,1室0厅1卫,中楼层（26层）,2300 元/月,CD2710974639265554432,2021-06-24,104.078206,30.687466,整租,/权属核验/近地铁/精装/随时看房/,有,暂无数据,商水,商电,无,暂无数据,2021-07-03 13:30:10,成都
金牛-国宾-益州蓉苑,19.00㎡,西南,5室0厅3卫,低楼层（18层）,650 元/月,CD2758667725873086464,2021-07-02,104.02008447304,30.71414337176,合租,/权属核验/公寓/独立卫生间/月租/近地铁/精装/随时看房/,有,免费使用,民水,民电,有,集中供暖,2021-07-03 13:30:17,成都
金牛-金牛万达-树蓓巷1号,15.00㎡,南,4室1厅1卫,中楼层（7层）,750 元/月,CD2760696314919927808,2021-07-03,104.09839701781,30.691632323488,合租,/权属核验/公寓/近地铁/精装/押一付一/随时看房/,无,免费使用,民水,民电,有,集中供暖,2021-07-03 13:30:20,成都
金牛-金牛万达-北站东二路13号,74.00㎡,东南,2室1厅1卫,中楼层（7层）,1500 元/月,CD2610141143467835392,2021-06-27,104.08595751602,30.694416335764,整租,/权属核验/近地铁/随时看房/,无,暂无数据,暂无数据,民电,有,暂无数据,2021-07-03 13:30:25,成都
金牛-茶店子-千和银杏花苑,124.89㎡,东南南西南,3室1厅1卫,中楼层（6层）,2900 元/月,CD2610178629086486528,2021-07-01,104.01922555961,30.702199519268,整租,/权属核验/近地铁/随时看房/,无,暂无数据,民水,民电,有,自采暖,2021-07-03 13:30:31,成都
金牛-高家庄-青房尚瑞天韵,88.22㎡,西南,2室1厅1卫,低楼层（26层）,2200 元/月,CD2625888726261440512,2021-07-01,104.009151,30.70694,整租,/权属核验/精装/随时看房/,有,暂无数据,民水,民电,有,自采暖,2021-07-03 13:30:34,成都
金牛-天回镇-北斗七星城,100.02㎡,东南,2室1厅1卫,低楼层（27层）,600 元/月,CD2626746968302419968,2021-06-19,104.106328,30.778166,整租,/权属核验/随时看房/,有,免费使用,民水,民电,有,暂无数据,2021-07-03 13:30:39,成都
金牛-营门口-人居花照云庭,167.00㎡,东南,4室1厅2卫,中楼层（31层）,2500 元/月,CD2713769731529383936,2021-07-01,104.04271,30.704972,整租,/权属核验/近地铁/双卫生间/随时看房/,无,暂无数据,暂无数据,暂无数据,有,暂无数据,2021-07-03 13:30:43,成都
金牛-金牛万达-解放西街1号,112.16㎡,东南,3室1厅1卫,低楼层（7层）,2000 元/月,CD2726015395684696064,2021-06-20,104.089732,30.692596,整租,/权属核验/随时看房/,无,暂无数据,民水,民电,有,暂无数据,2021-07-03 13:30:45,成都
金牛-花牌坊-大华大厦,30.00㎡,东,1室1厅1卫,中楼层（28层）,1690 元/月,CD2762188519198957568,2021-05-23,104.05761824496,30.683603449196,整租,/权属核验/公寓/精装/押一付一/随时看房/,有,免费使用,商水,商电,有,集中供暖,2021-07-03 13:30:48,成都
金牛-国宾-国宾壹公馆,81.67㎡,北,3室2厅1卫,中楼层（25层）,2000 元/月,CD2716529409472602112,2021-07-02,104.016597,30.717749,整租,/权属核验/近地铁/,无,租用车位,民水,民电,有,暂无数据,2021-07-03 13:30:57,成都
金牛-沙湾-全兴花园,146.10㎡,南,4室2厅2卫,中楼层（6层）,4300 元/月,CD2725478941174267904,2021-06-27,104.065325,30.698603,整租,/权属核验/近地铁/精装/双卫生间/随时看房/,无,租用车位,民水,民电,有,自采暖,2021-07-03 13:31:06,成都
金牛-抚琴小区-熙城国际,30.28㎡,东,2室0厅1卫,中楼层（26层）,2500 元/月,CD2626722089209970688,2021-06-02,104.04952,30.689304,整租,/权属核验/近地铁/随时看房/,有,暂无数据,民水,民电,无,自采暖,2021-07-03 13:31:13,成都
金牛-茶店子-金色池塘,89.67㎡,东南,2室1厅1卫,高楼层（6层）,2200 元/月,CD2731202381885734912,2021-07-02,104.01818,30.702701,整租,//权属核验/精装/随时看房/,无,暂无数据,民水,民电,有,自采暖,2021-07-03 13:31:22,成都
金牛-马鞍路-曹家巷恒大雅苑,15.00㎡,东,4室1厅1卫,低楼层（29层）,1059 元/月,CD2767367355507154944,2021-06-20,104.09337507169,30.681219117877,合租,/公寓/近地铁/精装/独立阳台/押一付一/随时看房/,有,租用车位,民水,民电,有,暂无数据,2021-07-03 13:31:27,成都
金牛-国宾-西城星座,124.00㎡,西南,3室1厅2卫,低楼层（18层）,2900 元/月,CD2644094579515080704,2021-06-27,104.011951,30.710369,整租,/权属核验/近地铁/精装/双卫生间/随时看房/,有,暂无数据,商水,商电,有,自采暖,2021-07-03 13:31:34,成都
金牛-茶店子-阳曦芙蓉城,83.16㎡,东南,2室1厅1卫,低楼层（27层）,2200 元/月,CD2733883675392614400,2021-06-27,104.022512,30.703881,整租,/权属核验/近地铁/随时看房/,有,租用车位,民水,民电,有,暂无数据,2021-07-03 13:31:38,成都
金牛-华侨城-华侨城云岸,56.00㎡,东,1室1厅1卫,低楼层（22层）,2000 元/月,CD2734877754523648000,2021-06-30,104.036146,30.719755,整租,/权属核验/近地铁/,无,暂无数据,商水,商电,无,暂无数据,2021-07-03 13:31:43,成都
金牛-金牛万达-红花社区,73.53㎡,南,3室1厅1卫,高楼层（6层）,1800 元/月,CD2652141436464021504,2021-06-16,104.08860925556,30.696905841494,整租,/权属核验/近地铁/随时看房/,无,暂无数据,暂无数据,暂无数据,有,暂无数据,2021-07-03 13:31:50,成都
金牛-花牌坊-五丁路18号,64.50㎡,南,2室1厅1卫,高楼层（6层）,2200 元/月,CD2654179628377178112,2021-06-27,104.074164,30.691675,整租,/权属核验/近地铁/随时看房/,无,暂无数据,暂无数据,暂无数据,暂无数据,暂无数据,2021-07-03 13:31:54,成都
金牛-沙湾-西南大厦,45.00㎡,东,1室1厅1卫,高楼层（7层）,1770 元/月,CD2765973391927418880,2021-05-23,104.0590526079,30.700243676788,整租,/权属核验/公寓/近地铁/精装/押一付一/随时看房/,无,租用车位,商水,商电,无,集中供暖,2021-07-03 13:32:02,成都
金牛-营门口-锦城名都,124.38㎡,东南,3室2厅2卫,低楼层（33层）,3500 元/月,CD2794956057817399296,2021-06-27,104.04688607,30.70580604,整租,/权属核验/近地铁/精装/双卫生间/随时看房/,有,暂无数据,民水,民电,有,暂无数据,2021-07-03 13:32:09,成都
金牛-金府-金府国际,29.56㎡,南,2室1厅1卫,高楼层（31层）,3500 元/月,CD2795441649244192768,2021-06-27,104.049711,30.723717,整租,/权属核验/近地铁/,有,暂无数据,民水,民电,有,暂无数据,2021-07-03 13:32:15,成都
金牛-蜀汉路-益民苑,20.00㎡,南,4室1厅1卫,高楼层（7层）,950 元/月,CD2350442763729764352,2021-06-19,104.02402083514,30.691407060739,合租,/权属核验/公寓/精装/随时看房/,有,免费使用,民水,民电,有,集中供暖,2021-07-03 13:32:21,成都
金牛-国宾-保利国宾首府二期,10.00㎡,东南,5室1厅5卫,高楼层（17层）,501 元/月,CD2774080325209563136,2021-07-01,104.00873972798,30.722028058794,合租,/权属核验/公寓/月租/近地铁/精装/押一付一/随时看房/,有,租用车位,民水,民电,有,暂无数据,2021-07-03 13:32:25,成都
金牛-华侨城-量力健康城,76.65㎡,东南,2室1厅1卫,高楼层（32层）,1000 元/月,CD2796917653619613696,2021-07-01,104.05379,30.736456,整租,/权属核验/近地铁/随时看房/,有,暂无数据,民水,民电,有,暂无数据,2021-07-03 13:32:29,成都
金牛-金牛万达-蓝光富丽城,74.90㎡,东南,2室2厅1卫,低楼层（18层）,1650 元/月,CD2796895255851704320,2021-06-27,104.089191,30.701068,整租,/权属核验/近地铁/随时看房/,有,租用车位,民水,民电,有,自采暖,2021-07-03 13:32:36,成都
金牛-高家庄-西线阳光,88.11㎡,东南,2室1厅1卫,中楼层（18层）,2500 元/月,CD2797141635132301312,2021-06-26,104.000704,30.716025,整租,/权属核验/精装/,有,暂无数据,民水,民电,有,自采暖,2021-07-03 13:32:44,成都
金牛-国宾-保利国宾首府二期,12.00㎡,南,5室1厅5卫,高楼层（17层）,550 元/月,CD2774080289725751296,2021-07-01,104.00873972798,30.722028058794,合租,/权属核验/公寓/月租/近地铁/精装/押一付一/随时看房/,有,租用车位,民水,民电,有,暂无数据,2021-07-03 13:32:48,成都
金牛-营门口-和睦人家一二期,116.80㎡,东南,3室2厅2卫,高楼层（6层）,3000 元/月,CD2797842948396957696,2021-07-01,104.047171,30.699936,整租,//权属核验/近地铁/精装/双卫生间/随时看房/,无,暂无数据,民水,民电,有,自采暖,2021-07-03 13:32:56,成都
金牛-营门口-顶峰水岸汇景,12.00㎡,南,5室0厅2卫,高楼层（33层）,550 元/月,CD2821211735531732992,2021-07-01,104.04173181922,30.703545600004,合租,/权属核验/新上/公寓/月租/近地铁/精装/独立阳台/押一付一/随时看房/,有,免费使用,民水,民电,有,集中供暖,2021-07-03 13:32:59,成都
金牛-高家庄-远洋朗郡,78.24㎡,东南,2室1厅1卫,高楼层（17层）,2200 元/月,CD2797787528663941120,2021-06-27,103.986464,30.721319,整租,/权属核验/随时看房/,有,暂无数据,民水,民电,有,暂无数据,2021-07-03 13:33:03,成都
金牛-花牌坊-锦城世家,48.64㎡,东南,1室1厅1卫,高楼层（28层）,2500 元/月,CD2797920753733861376,2021-06-27,104.055648,30.68136,整租,/权属核验/近地铁/精装/,有,租用车位,民水,民电,有,自采暖,2021-07-03 13:33:11,成都
金牛-一品天下-锦城花园,146.00㎡,东南,3室2厅2卫,中楼层（11层）,4300 元/月,CD2797699760595935232,2021-06-27,104.028077,30.695446,整租,/权属核验/近地铁/双卫生间/随时看房/,有,租用车位,民水,民电,有,自采暖,2021-07-03 13:33:20,成都
金牛-通惠门-二道桥街72号,20.00㎡,南,4室1厅1卫,高楼层（8层）,880 元/月,CD2300130117160009728,2021-07-03,104.05583720793,30.676473001911,合租,/权属核验/公寓/近地铁/精装/独立阳台/押一付一/随时看房/,有,免费使用,民水,民电,有,集中供暖,2021-07-03 13:33:25,成都
金牛-高家庄-蓝光金悦金沙,83.89㎡,西,3室2厅1卫,高楼层（21层）,2800 元/月,CD2797649521591451648,2021-06-26,104.008022,30.703832,整租,/权属核验/精装/随时看房/,有,暂无数据,民水,民电,有,自采暖,2021-07-03 13:33:32,成都
金牛-五块石-王贾•红豆华庭,50.00㎡,北,1室1厅1卫,低楼层（17层）,1600 元/月,CD2797929643829895168,2021-06-27,104.079198,30.726621,整租,/,无,暂无数据,暂无数据,暂无数据,有,暂无数据,2021-07-03 13:33:41,成都
金牛-国宾-保利国宾首府,16.00㎡,东南,5室1厅5卫,低楼层（17层）,800 元/月,CD2804888093109796864,2021-06-09,104.00793799576,30.722756303204,合租,/权属核验/公寓/独立卫生间/月租/近地铁/精装/押一付一/随时看房/,有,租用车位,民水,民电,有,暂无数据,2021-07-03 13:33:47,成都
金牛-金府-电建地产洺悦府,123.00㎡,东,3室2厅2卫,中楼层（48层）,3700 元/月,CD2798661755532738560,2021-07-01,104.058212,30.721984,整租,/权属核验/精装/双卫生间/随时看房/,无,暂无数据,商水,商电,暂无数据,暂无数据,2021-07-03 13:33:52,成都
金牛-金牛万达-炎华置信花千集,91.00㎡,南,3室2厅2卫,中楼层（31层）,3500 元/月,CD2798489776033382400,2021-06-29,104.07283,30.692703,整租,/权属核验/精装/双卫生间/,有,租用车位,民水,民电,有,自采暖,2021-07-03 13:34:00,成都
金牛-金牛万达-龙门镇,10.00㎡,北,4室1厅1卫,中楼层（30层）,680 元/月,CD2668816880345038848,2021-06-24,104.068693,30.693268,合租,/公寓/近地铁/精装/随时看房/,暂无数据,暂无数据,暂无数据,暂无数据,暂无数据,暂无数据,2021-07-03 13:34:03,成都
金牛-金牛万达-香山苑,89.66㎡,西,3室1厅1卫,中楼层（23层）,2750 元/月,CD2799795529683845120,2021-07-02,104.09408,30.696592,整租,/权属核验/近地铁/随时看房/,有,租用车位,民水,民电,有,自采暖,2021-07-03 13:34:12,成都
金牛-金牛万达-中汇国际中心,85.50㎡,北,2室1厅2卫,高楼层（28层）,5500 元/月,CD2799999006468472832,2021-07-02,104.097818,30.697409,整租,/权属核验/近地铁/精装/双卫生间/,有,暂无数据,商水,商电,无,暂无数据,2021-07-03 13:34:14,成都
金牛-金牛万达-炎华置信花千集,97.00㎡,北,3室2厅2卫,高楼层（33层）,5500 元/月,CD2799916416873545728,2021-06-25,104.07283,30.692703,整租,/权属核验/近地铁/精装/双卫生间/随时看房/,有,暂无数据,民水,民电,有,暂无数据,2021-07-03 13:34:21,成都
金牛-金牛万达-龙门镇,15.00㎡,南,3室1厅1卫,高楼层（31层）,770 元/月,CD2818110504348950528,2021-06-27,104.069153,30.693348,合租,/新上/公寓/月租/近地铁/精装/押一付一/随时看房/,有,租用车位,民水,民电,有,集中供暖,2021-07-03 13:34:30,成都
金牛-金牛万达-富丽碧蔓汀,62.54㎡,东南,2室1厅1卫,高楼层（26层）,2500 元/月,CD2800133785327239168,2021-06-28,104.095072,30.693471,整租,/权属核验/精装/,有,暂无数据,民水,民电,有,自采暖,2021-07-03 13:34:37,成都
金牛-马鞍路-金华公寓,101.89㎡,南,2室2厅1卫,中楼层（23层）,3000 元/月,CD2800755862308651008,2021-06-29,104.081241,30.68548,整租,//权属核验/精装/随时看房/,有,租用车位,民水,民电,有,暂无数据,2021-07-03 13:34:44,成都
金牛-金牛万达-炎华置信花千集,42.00㎡,南,1室1厅1卫,中楼层（20层）,2039 元/月,CD2817252691888586752,2021-06-26,104.07419310517,30.693017547404,整租,/权属核验/公寓/精装/押一付一/随时看房/,有,租用车位,商水,商电,无,暂无数据,2021-07-03 13:34:51,成都
金牛-金牛万达-炎华置信花千集,42.00㎡,南,1室1厅1卫,高楼层（20层）,1989 元/月,CD2771013271933952000,2021-07-03,104.07419310517,30.693017547404,整租,/权属核验/公寓/精装/押一付一/随时看房/,有,租用车位,商水,商电,无,暂无数据,2021-07-03 13:34:57,成都
金牛-沙湾-为民新居,12.00㎡,东南,4室1厅1卫,低楼层（29层）,750 元/月,CD2665117951287631872,2021-07-03,104.04817,30.695424,合租,/公寓/近地铁/精装/押一付一/随时看房/,无,租用车位,民水,民电,有,暂无数据,2021-07-03 13:35:00,成都
金牛-蜀汉路-金都花园,89.19㎡,东南,2室1厅1卫,中楼层（11层）,3000 元/月,CD2810187133363421184,2021-07-02,104.0192924,30.69850237,整租,/权属核验/精装/随时看房/,有,暂无数据,民水,民电,有,自采暖,2021-07-03 13:35:07,成都
金牛-马鞍路-人民北路一段21号,98.50㎡,西南,4室1厅1卫,中楼层（7层）,2300 元/月,CD2810093427696877568,2021-06-30,104.080806,30.686587,整租,/权属核验/随时看房/,无,暂无数据,民水,民电,有,自采暖,2021-07-03 13:35:12,成都
金牛-国宾-保利国宾首府,110.00㎡,东南,3室2厅2卫,中楼层（27层）,3900 元/月,CD2626717141692588032,2021-07-03,104.00754127515,30.722305349711,整租,/权属核验/公寓/精装/押一付一/双卫生间/随时看房/,有,租用车位,民水,民电,有,暂无数据,2021-07-03 13:35:19,成都
金牛-沙湾-为民新居,16.00㎡,南,3室1厅1卫,低楼层（29层）,790 元/月,CD2522480302501675008,2021-07-03,104.04817,30.695405,合租,/公寓/近地铁/精装/独立阳台/押一付一/随时看房/,有,免费使用,民水,民电,有,暂无数据,2021-07-03 13:35:26,成都
金牛-金牛万达-晓初公寓(金牛),22.00㎡,南,5室1厅2卫,高楼层（7层）,900 元/月,CD2821795727267594240,2021-07-03,104.0974176742,30.689032542898,合租,/权属核验/新上/公寓/近地铁/独立阳台/随时看房/,无,免费使用,民水,民电,有,集中供暖,2021-07-03 13:35:32,成都
金牛-金牛万达-晓初公寓(金牛),22.00㎡,南,5室1厅2卫,高楼层（7层）,900 元/月,CD2821795696766615552,2021-07-03,104.0974176742,30.689032542898,合租,/权属核验/新上/公寓/近地铁/独立阳台/随时看房/,无,免费使用,民水,民电,有,集中供暖,2021-07-03 13:35:36,成都
金牛-马鞍路-飞大壹号广场,10.00㎡,南,5室0厅2卫,高楼层（34层）,580 元/月,CD2822287163213742080,2021-07-03,104.08927689067,30.686692832125,合租,/权属核验/新上/公寓/月租/近地铁/精装/押一付一/随时看房/,有,免费使用,民水,民电,有,集中供暖,2021-07-03 13:35:43,成都
金牛-高家庄-金牛花园,90.96㎡,西北,2室2厅1卫,低楼层（17层）,2000 元/月,CD2809934461309812736,2021-06-26,103.998186,30.715807,整租,/权属核验/随时看房/,有,暂无数据,民水,民电,有,自采暖,2021-07-03 13:35:50,成都
金牛-马鞍路-银海中心,8.00㎡,东南,4室1厅1卫,高楼层（33层）,890 元/月,CD2779863598104068096,2021-06-23,104.0939851918,30.685759075421,合租,/公寓/月租/精装/押一付一/随时看房/,有,租用车位,民水,民电,有,暂无数据,2021-07-03 13:35:54,成都
金牛-马鞍路-银海中心,7.00㎡,东南,4室1厅1卫,低楼层（32层）,790 元/月,CD2714079087152078848,2021-06-23,104.09294447315,30.684907951392,合租,/权属核验/公寓/月租/近地铁/精装/押一付一/随时看房/,有,租用车位,民水,民电,有,自采暖,2021-07-03 13:35:58,成都
金牛-五块石-智业福地,75.32㎡,东南,3室1厅1卫,中楼层（7层）,1750 元/月,CD2810827428371365888,2021-07-02,104.075195,30.713783,整租,//权属核验/精装/随时看房/,无,暂无数据,民水,民电,有,自采暖,2021-07-03 13:36:05,成都
金牛-金牛万达-芙蓉华庭,92.67㎡,东,2室1厅1卫,高楼层（18层）,2500 元/月,CD2810850041928097792,2021-06-30,104.095713,30.699426,整租,/权属核验/随时看房/,有,租用车位,民水,民电,有,自采暖,2021-07-03 13:36:11,成都
金牛-五块石-龙湖北城天街二期,80.20㎡,北,2室1厅1卫,低楼层（23层）,2500 元/月,CD2810855129341755392,2021-07-02,104.070694,30.717656,整租,//权属核验/近地铁/精装/,有,暂无数据,民水,民电,有,自采暖,2021-07-03 13:36:14,成都
金牛-驷马桥-绿地世纪城,74.08㎡,北,2室1厅1卫,高楼层（21层）,2000 元/月,CD2810803674316808192,2021-07-01,104.086035,30.726715,整租,/权属核验/近地铁/,有,租用车位,民水,民电,有,暂无数据,2021-07-03 13:36:18,成都
金牛-五块石-水韵天府,85.00㎡,西南,2室1厅1卫,中楼层（22层）,1600 元/月,CD2810954641746444288,2021-07-02,104.073664,30.725517,整租,//权属核验/随时看房/,有,暂无数据,民水,民电,有,暂无数据,2021-07-03 13:36:23,成都
金牛-茶店子-明阳家在回廊,116.95㎡,南,3室1厅1卫,低楼层（7层）,3000 元/月,CD2811421737039183872,2021-06-30,104.015999,30.70564,整租,//权属核验/精装/随时看房/,无,租用车位,民水,民电,有,自采暖,2021-07-03 13:36:29,成都
金牛-马鞍路-银海中心,6.00㎡,东南,4室1厅1卫,高楼层（33层）,740 元/月,CD2759000629920661504,2021-06-23,104.09294447315,30.684907951392,合租,/公寓/月租/近地铁/精装/押一付一/随时看房/,有,租用车位,民水,民电,有,暂无数据,2021-07-03 13:36:34,成都
金牛-天回镇-余家新城北苑,51.00㎡,东南,1室1厅1卫,高楼层（23层）,1000 元/月,CD2811515570825478144,2021-06-23,104.07018741211,30.802944246972,整租,/,有,租用车位,暂无数据,暂无数据,有,暂无数据,2021-07-03 13:36:41,成都
金牛-高家庄-保利梧桐语,59.74㎡,东南,2室1厅1卫,低楼层（18层）,2500 元/月,CD2811737538945875968,2021-06-27,103.998216,30.711229,整租,/权属核验/精装/随时看房/,有,暂无数据,民水,民电,有,自采暖,2021-07-03 13:36:49,成都
金牛-营门口-交大智能八期,40.26㎡,东南,1室1厅1卫,低楼层（6层）,1600 元/月,CD2812097105966415872,2021-06-27,104.048783,30.704871,整租,//权属核验/近地铁/,无,暂无数据,民水,民电,有,自采暖,2021-07-03 13:36:56,成都
金牛-马鞍路-银海中心,11.00㎡,东南,4室1厅1卫,中楼层（32层）,1080 元/月,CD2754120881344626688,2021-06-23,104.09294447315,30.684907951392,合租,/公寓/月租/近地铁/精装/押一付一/随时看房/,有,租用车位,民水,民电,有,自采暖,2021-07-03 13:37:04,成都
金牛-马鞍路-银海中心,6.00㎡,东南,4室1厅1卫,中楼层（32层）,870 元/月,CD2714066704216104960,2021-06-23,104.09294447315,30.684907951392,合租,/权属核验/公寓/月租/近地铁/精装/押一付一/随时看房/,有,租用车位,民水,民电,有,自采暖,2021-07-03 13:37:08,成都
金牛-金府-金府SOHO,90.41㎡,南,2室1厅1卫,中楼层（31层）,2500 元/月,CD2811602381618552832,2021-07-01,104.04722132,30.71957988,整租,/权属核验/近地铁/,有,暂无数据,商水,商电,有,暂无数据,2021-07-03 13:37:13,成都
金牛-马鞍路-曹家巷恒大雅苑,64.00㎡,东南,2室1厅2卫,高楼层（30层）,3000 元/月,CD2811454824661385216,2021-06-27,104.09406,30.680153,整租,/精装/双卫生间/,有,租用车位,民水,民电,有,暂无数据,2021-07-03 13:37:20,成都
金牛-马鞍路-银海中心,9.00㎡,东,4室1厅1卫,中楼层（33层）,1020 元/月,CD2756077291946909696,2021-06-23,104.09294447315,30.684907951392,合租,/公寓/月租/近地铁/精装/押一付一/随时看房/,有,租用车位,民水,民电,有,暂无数据,2021-07-03 13:37:27,成都
金牛-马鞍路-银海中心,9.00㎡,东南,4室1厅1卫,低楼层（33层）,920 元/月,CD2780336816082132992,2021-06-23,104.09294447315,30.684907951392,合租,/公寓/月租/近地铁/精装/押一付一/随时看房/,有,租用车位,民水,民电,有,暂无数据,2021-07-03 13:37:33,成都
金牛-马鞍路-银海中心,9.00㎡,东南,4室1厅1卫,高楼层（33层）,1020 元/月,CD2754102322950053888,2021-06-23,104.09294447315,30.684907951392,合租,/公寓/月租/近地铁/精装/押一付一/随时看房/,有,租用车位,民水,民电,有,暂无数据,2021-07-03 13:37:36,成都
金牛-天回镇-保利天汇,114.27㎡,南,3室2厅1卫,低楼层（34层）,1200 元/月,CD2812323542379798528,2021-06-27,104.10628301357,30.782996539077,整租,/权属核验/随时看房/,无,暂无数据,民水,民电,有,暂无数据,2021-07-03 13:37:41,成都
金牛-国宾-西岸观邸,86.97㎡,南,2室1厅1卫,中楼层（30层）,2500 元/月,CD2813577989709897728,2021-06-27,104.018212,30.712976,整租,/权属核验/精装/,有,暂无数据,民水,民电,有,自采暖,2021-07-03 13:37:48,成都
金牛-五块石-王贾•红豆华庭,18.00㎡,北,4室1厅1卫,中楼层（17层）,650 元/月,CD2773810336166584320,2021-07-03,104.0786645941,30.726185927356,合租,/公寓/精装/押一付一/随时看房/,无,租用车位,民水,民电,有,集中供暖,2021-07-03 13:37:52,成都
金牛-沙湾-为民新居,10.00㎡,南,4室1厅1卫,中楼层（29层）,750 元/月,CD2536723848490401792,2021-07-03,104.04817,30.695405,合租,/公寓/近地铁/精装/独立阳台/押一付一/随时看房/,有,租用车位,民水,民电,有,暂无数据,2021-07-03 13:37:55,成都
金牛-通惠门-西安北路三巷1号,54.88㎡,东南,3室1厅1卫,中楼层（7层）,2200 元/月,CD2813641174483468288,2021-06-27,104.053154,30.677824,整租,/权属核验/精装/,无,租用车位,民水,民电,有,自采暖,2021-07-03 13:38:02,成都
金牛-金牛万达-瑞升城北橡树林,33.38㎡,东南,1室1厅1卫,中楼层（39层）,1700 元/月,CD2814357113051561984,2021-07-02,104.091105,30.691344,整租,//权属核验/随时看房/,有,暂无数据,民水,民电,有,暂无数据,2021-07-03 13:38:06,成都
金牛-金牛万达-金牛万达A组团,74.37㎡,南,2室2厅1卫,高楼层（32层）,2500 元/月,CD2814540095511085056,2021-07-01,104.082415,30.69573,整租,//权属核验/近地铁/随时看房/,有,租用车位,民水,民电,有,自采暖,2021-07-03 13:38:11,成都
金牛-石人小区-秀城嘉园,74.25㎡,南,2室1厅1卫,中楼层（25层）,3200 元/月,CD2815033800097275904,2021-07-02,104.046128,30.679921,整租,/权属核验/精装/随时看房/,有,免费使用,民水,民电,有,自采暖,2021-07-03 13:38:20,成都
金牛-抚琴小区-营和巷52号,74.00㎡,西南,2室1厅1卫,中楼层（7层）,1700 元/月,CD2814395622289833984,2021-07-01,104.043873,30.687682,整租,/权属核验/近地铁/,无,租用车位,民水,民电,有,自采暖,2021-07-03 13:38:28,成都
金牛-营门口-锦城名都,95.71㎡,东南,3室1厅1卫,低楼层（33层）,3200 元/月,CD2815129968449683456,2021-07-02,104.04688607,30.70580604,整租,/权属核验/近地铁/精装/,有,租用车位,民水,民电,有,自采暖,2021-07-03 13:38:34,成都
金牛-五块石-王贾•红豆华庭,13.00㎡,南,4室1厅1卫,低楼层（17层）,501 元/月,CD2727721573556420608,2021-07-03,104.07906376666,30.725449253881,合租,/公寓/押一付一/随时看房/,无,租用车位,民水,民电,有,集中供暖,2021-07-03 13:38:37,成都
金牛-花牌坊-龙湖上城天街广场,46.37㎡,东,2室1厅1卫,高楼层（35层）,3800 元/月,CD2815376387517988864,2021-07-02,104.078801,30.688634,整租,/权属核验/精装/随时看房/,无,暂无数据,商水,商电,无,暂无数据,2021-07-03 13:38:45,成都
金牛-五块石-华霖金贸商厦,50.00㎡,西,1室1厅1卫,中楼层（19层）,1600 元/月,CD2815173982150729728,2021-06-30,104.065658,30.722085,整租,//权属核验/近地铁/精装/随时看房/,无,暂无数据,商水,商电,无,自采暖,2021-07-03 13:38:54,成都
金牛-马鞍路-中房北极星花园,46.99㎡,东,1室1厅1卫,低楼层（29层）,2400 元/月,CD2815390920504524800,2021-06-27,104.087188,30.685203,整租,//权属核验/,有,租用车位,民水,民电,有,暂无数据,2021-07-03 13:38:59,成都
金牛-五块石-龙湖北城天街二期,116.49㎡,东东南,3室2厅2卫,高楼层（23层）,3400 元/月,CD2815186075469742080,2021-06-27,104.070694,30.717656,整租,/权属核验/近地铁/精装/双卫生间/,有,租用车位,民水,民电,有,自采暖,2021-07-03 13:39:04,成都
金牛-蜀汉路-上层建筑,53.82㎡,东南,1室1厅1卫,低楼层（27层）,2600 元/月,CD2815288902221570048,2021-06-27,104.024212,30.694861,整租,/权属核验/精装/,无,暂无数据,暂无数据,暂无数据,有,自采暖,2021-07-03 13:39:12,成都
金牛-花牌坊-龙湖上城天街广场,80.24㎡,北,2室1厅1卫,高楼层（33层）,3500 元/月,CD2815910279123042304,2021-07-01,104.078801,30.688634,整租,/权属核验/精装/,有,暂无数据,民水,民电,暂无数据,暂无数据,2021-07-03 13:39:17,成都
金牛-五块石-天悦城,88.52㎡,西南,3室1厅1卫,中楼层（33层）,3300 元/月,CD2815964335371984896,2021-07-01,104.061651,30.730415,整租,//权属核验/业主自荐/近地铁/精装/随时看房/,有,租用车位,民水,民电,有,自采暖,2021-07-03 13:39:21,成都
金牛-抚琴小区-抚琴西南街45号,85.99㎡,北,3室1厅1卫,高楼层（6层）,3000 元/月,CD2815963743564349440,2021-06-27,104.044231,30.685914,整租,/权属核验/精装/,无,暂无数据,民水,民电,有,自采暖,2021-07-03 13:39:29,成都
金牛-蜀汉路-金都花园,89.19㎡,东南,2室1厅1卫,中楼层（11层）,2300 元/月,CD2815964826155884544,2021-06-28,104.0192924,30.69850237,整租,//权属核验/,有,租用车位,民水,民电,有,自采暖,2021-07-03 13:39:36,成都
金牛-国宾-恒大西锦城,87.00㎡,东南,2室2厅1卫,中楼层（29层）,2600 元/月,CD2816508769738440704,2021-07-02,104.017812,30.716763,整租,//权属核验/近地铁/精装/随时看房/,有,暂无数据,民水,民电,有,自采暖,2021-07-03 13:39:39,成都
金牛-五块石-云景豪庭,88.07㎡,南,3室1厅1卫,高楼层（29层）,2200 元/月,CD2816475337192374272,2021-07-01,104.077603,30.705533,整租,/权属核验/近地铁/精装/随时看房/,有,暂无数据,民水,民电,有,自采暖,2021-07-03 13:39:47,成都
金牛-五块石-王贾•红豆华庭,18.00㎡,南,4室1厅1卫,中楼层（17层）,650 元/月,CD2775269277677395968,2021-07-03,104.0786645941,30.726185927356,合租,/公寓/精装/押一付一/随时看房/,无,租用车位,民水,民电,有,集中供暖,2021-07-03 13:39:52,成都
金牛-茶店子-阳曦芙蓉城,86.80㎡,东南,3室2厅1卫,低楼层（31层）,2900 元/月,CD2816520043985379328,2021-06-30,104.022512,30.703881,整租,//权属核验/近地铁/精装/随时看房/,有,租用车位,民水,民电,有,暂无数据,2021-07-03 13:39:58,成都
金牛-一品天下-一品天下C区,120.83㎡,南,3室1厅1卫,高楼层（9层）,3200 元/月,CD2816162478688575488,2021-07-02,104.032151,30.698514,整租,/权属核验/近地铁/精装/随时看房/,有,暂无数据,民水,民电,有,自采暖,2021-07-03 13:40:01,成都
金牛-一品天下-二环路西三段24号,73.00㎡,东南,3室0厅1卫,高楼层（7层）,2050 元/月,CD2816631961496592384,2021-07-02,104.038821,30.69131,整租,/权属核验/随时看房/,无,暂无数据,民水,民电,有,暂无数据,2021-07-03 13:40:06,成都
金牛-金牛万达-龙门镇二期,90.98㎡,东南,3室1厅1卫,中楼层（33层）,3000 元/月,CD2817243695794372608,2021-07-02,104.067817,30.695034,整租,/权属核验/近地铁/精装/,有,暂无数据,民水,民电,有,自采暖,2021-07-03 13:40:09,成都
金牛-国宾-保利学府城,95.50㎡,东南,3室2厅2卫,高楼层（31层）,2900 元/月,CD2785540630309240832,2021-07-01,104.01223884133,30.731304122038,整租,/权属核验/近地铁/精装/双卫生间/,有,暂无数据,民水,民电,有,暂无数据,2021-07-03 13:40:12,成都
金牛-花照壁-金海岸,69.67㎡,南,2室2厅1卫,高楼层（6层）,2000 元/月,CD2786044712249991168,2021-06-29,104.042221,30.708214,整租,//权属核验/精装/随时看房/,无,暂无数据,民水,民电,有,自采暖,2021-07-03 13:40:18,成都
金牛-金牛万达-炎华置信花千集,20.00㎡,南,3室2厅2卫,中楼层（31层）,1600 元/月,CD2786161407979159552,2021-07-01,104.07283,30.692703,合租,/权属核验/精装/,无,暂无数据,民水,民电,有,自采暖,2021-07-03 13:40:24,成都
金牛-天回镇-万圣家园五区,82.00㎡,南,2室2厅1卫,高楼层（17层）,1600 元/月,CD2786781511305928704,2021-06-20,104.10484965819,30.767267685708,整租,/,无,暂无数据,暂无数据,暂无数据,暂无数据,暂无数据,2021-07-03 13:40:29,成都
金牛-营门口-银沙北街58号院,79.61㎡,东南,3室1厅1卫,中楼层（7层）,2100 元/月,CD2785534761873965056,2021-07-01,104.04902,30.703373,整租,//权属核验/近地铁/随时看房/,无,暂无数据,民水,民电,有,自采暖,2021-07-03 13:40:35,成都
金牛-茶店子-西城公馆,140.00㎡,西北,3室1厅2卫,高楼层（30层）,5000 元/月,CD2800673562245988352,2021-06-26,104.034511,30.7017,整租,/权属核验/近地铁/精装/双卫生间/随时看房/,有,租用车位,民水,民电,有,暂无数据,2021-07-03 13:40:41,成都
金牛-蜀汉路-阳光金沙,70.18㎡,南,2室1厅1卫,高楼层（6层）,2200 元/月,CD2651392836724850688,2021-06-17,104.017918,30.696468,整租,/权属核验/随时看房/,无,免费使用,民水,民电,有,自采暖,2021-07-03 13:40:47,成都
金牛-华侨城-保利天玺,118.52㎡,东,3室1厅1卫,高楼层（29层）,3000 元/月,CD2785581887882526720,2021-07-01,104.052287,30.738607,整租,/权属核验/精装/,无,暂无数据,民水,民电,有,暂无数据,2021-07-03 13:40:50,成都
金牛-金牛万达-人民北路二段198号,92.63㎡,东南南,4室1厅1卫,低楼层（5层）,3600 元/月,CD2800826435039150080,2021-06-29,104.08114299086,30.696884239465,整租,/权属核验/近地铁/,无,暂无数据,暂无数据,暂无数据,有,暂无数据,2021-07-03 13:40:53,成都
金牛-高家庄-百仁安盛,143.34㎡,东南,3室2厅2卫,低楼层（18层）,3500 元/月,CD2787782610175672320,2021-06-26,103.998987,30.713739,整租,/权属核验/精装/双卫生间/,有,暂无数据,民水,民电,有,自采暖,2021-07-03 13:41:00,成都
金牛-营门口-银沙新居,137.99㎡,西南,3室2厅2卫,高楼层（6层）,3400 元/月,CD2657020393298067456,2021-06-27,104.047282,30.703505,整租,/权属核验/近地铁/双卫生间/随时看房/,无,暂无数据,民水,民电,有,自采暖,2021-07-03 13:41:08,成都
金牛-马鞍路-恒大曹家巷广场,80.00㎡,东南,2室1厅1卫,中楼层（41层）,3600 元/月,CD2660630606995791872,2021-07-02,104.096171,30.679737,整租,/权属核验/近地铁/精装/随时看房/,有,免费使用,民水,民电,有,暂无数据,2021-07-03 13:41:13,成都
金牛-高家庄-居然小区,69.32㎡,西北,2室1厅1卫,高楼层（24层）,2600 元/月,CD2660232856844386304,2021-06-26,104.008186,30.708217,整租,/权属核验/精装/随时看房/,有,暂无数据,民水,民电,有,自采暖,2021-07-03 13:41:20,成都
金牛-华侨城-泽瑞西园,313.81㎡,东,5室2厅3卫,低楼层（1层）,14500 元/月,CD2656509695313330176,2021-06-29,104.020104,30.725208,整租,/权属核验/近地铁/随时看房/,无,租用车位,民水,民电,有,自采暖,2021-07-03 13:41:23,成都
金牛-金牛万达-荷花名都,67.09㎡,南,2室1厅1卫,高楼层（18层）,2000 元/月,CD2708654305422360576,2021-06-21,104.086995,30.696314,整租,/权属核验/近地铁/随时看房/,有,暂无数据,民水,民电,有,暂无数据,2021-07-03 13:41:29,成都
金牛-国宾-万科金域西岭,90.63㎡,南,2室1厅1卫,高楼层（35层）,3500 元/月,CD2712318040611233792,2021-06-07,104.019802,30.716406,整租,/权属核验/近地铁/精装/,有,暂无数据,民水,民电,有,暂无数据,2021-07-03 13:41:32,成都
金牛-抚琴小区-熙城国际,35.82㎡,南,1室0厅1卫,低楼层（21层）,1400 元/月,CD2713009205740044288,2021-06-27,104.04952,30.689304,整租,/权属核验/随时看房/,有,租用车位,民水,民电,无,暂无数据,2021-07-03 13:41:34,成都
金牛-茶店子-福祥家园瑞福苑,46.59㎡,南,1室1厅1卫,低楼层（6层）,1600 元/月,CD2807953579099291648,2021-06-30,104.025193,30.704044,整租,/权属核验/,无,租用车位,民水,民电,有,自采暖,2021-07-03 13:41:40,成都
金牛-华侨城-华侨城纯水岸二期,75.97㎡,东南,2室1厅1卫,中楼层（33层）,2500 元/月,CD2798665931784994816,2021-06-27,104.033873,30.726402,整租,/权属核验/近地铁/随时看房/,有,租用车位,民水,民电,有,自采暖,2021-07-03 13:41:43,成都
金牛-金牛万达-金牛万达B组团,99.71㎡,南,3室1厅2卫,高楼层（32层）,4300 元/月,CD2809274773408841728,2021-06-29,104.082491,30.694791,整租,//权属核验/近地铁/精装/双卫生间/随时看房/,有,暂无数据,民水,民电,有,自采暖,2021-07-03 13:41:46,成都
金牛-华侨城-西城首峻,59.98㎡,东南,2室1厅1卫,低楼层（33层）,1900 元/月,CD2808930095664726016,2021-06-27,104.031467,30.716775,整租,//权属核验/业主自荐/随时看房/,有,暂无数据,民水,民电,有,自采暖,2021-07-03 13:41:52,成都
金牛-金牛万达-富丽碧蔓汀,96.94㎡,东南,3室1厅2卫,高楼层（26层）,3400 元/月,CD2799976209813864448,2021-06-28,104.095072,30.693471,整租,/权属核验/近地铁/精装/双卫生间/,有,暂无数据,民水,民电,有,自采暖,2021-07-03 13:41:56,成都
金牛-五块石-水韵天府,127.00㎡,西,3室2厅2卫,高楼层（18层）,2500 元/月,CD2799846135999766528,2021-07-02,104.073664,30.725517,整租,/权属核验/精装/双卫生间/,有,暂无数据,民水,民电,有,暂无数据,2021-07-03 13:42:03,成都
金牛-茶店子-幸福春天,85.00㎡,西南,2室1厅1卫,高楼层（6层）,2200 元/月,CD2725167839815139328,2021-07-01,104.018257,30.701991,整租,//权属核验/近地铁/随时看房/,无,租用车位,民水,民电,有,自采暖,2021-07-03 13:42:09,成都
金牛-茶店子-锦城苑(金牛),53.60㎡,东南,1室1厅1卫,高楼层（7层）,2100 元/月,CD2799896011257430016,2021-06-19,104.026456,30.695249,整租,/权属核验/近地铁/精装/,有,暂无数据,商水,商电,有,自采暖,2021-07-03 13:42:18,成都
金牛-沙湾-现代城,84.03㎡,南,2室1厅1卫,高楼层（31层）,3200 元/月,CD2808713807260549120,2021-06-27,104.053015,30.697927,整租,//权属核验/近地铁/精装/,有,暂无数据,民水,民电,有,自采暖,2021-07-03 13:42:26,成都
金牛-花牌坊-中铁鹭岛艺术城,163.00㎡,南,4室2厅2卫,高楼层（43层）,7500 元/月,CD2799922676234461184,2021-06-28,104.059632,30.688759,整租,/权属核验/近地铁/精装/双卫生间/随时看房/,有,暂无数据,民水,民电,有,暂无数据,2021-07-03 13:42:30,成都
金牛-西南交大-四季香榭,112.52㎡,东南,3室2厅2卫,低楼层（6层）,3800 元/月,CD2774440700337995776,2021-07-02,104.04851593,30.71401881,整租,/权属核验/近地铁/双卫生间/随时看房/,无,租用车位,民水,民电,有,自采暖,2021-07-03 13:42:33,成都
金牛-一品天下-凯丽豪景,85.43㎡,东南,2室1厅1卫,高楼层（30层）,3000 元/月,CD2775172444787310592,2021-06-27,104.033199,30.692977,整租,/权属核验/近地铁/精装/,有,租用车位,民水,民电,有,自采暖,2021-07-03 13:42:40,成都
金牛-高家庄-高家庄赞城,68.52㎡,西,1室1厅1卫,高楼层（21层）,2500 元/月,CD2521658497410801664,2021-06-25,104.005358,30.711787,整租,/权属核验/精装/,有,暂无数据,民水,民电,有,暂无数据,2021-07-03 13:42:47,成都
金牛-高家庄-高家庄赞城,41.94㎡,东,2室1厅1卫,高楼层（22层）,2300 元/月,CD2500615544823357440,2021-06-25,104.005358,30.711787,整租,/权属核验/精装/随时看房/,有,暂无数据,民水,民电,有,暂无数据,2021-07-03 13:42:49,成都
金牛-金牛万达-金牛之心荷花池广场1期,69.00㎡,东,1室1厅1卫,高楼层（22层）,2500 元/月,CD2776829437088366592,2021-06-27,104.083531,30.698361,整租,/权属核验/近地铁/精装/随时看房/,有,租用车位,暂无数据,暂无数据,暂无数据,暂无数据,2021-07-03 13:42:53,成都
金牛-蜀汉路-金都花园,89.00㎡,南,1室1厅1卫,高楼层（11层）,2000 元/月,CD2792040343309123584,2021-06-29,104.0192924,30.69850237,整租,/权属核验/精装/,有,暂无数据,民水,民电,有,自采暖,2021-07-03 13:42:55,成都
金牛-马鞍路-恒大曹家巷广场,86.37㎡,南北,3室1厅1卫,高楼层（42层）,5200 元/月,CD2792813282594406400,2021-07-02,104.096171,30.679737,整租,/权属核验/精装/随时看房/,有,免费使用,民水,民电,有,暂无数据,2021-07-03 13:43:00,成都
金牛-金府-电建地产洺悦府,124.00㎡,南,3室2厅2卫,中楼层（48层）,3500 元/月,CD2794040894239031296,2021-06-27,104.058212,30.721984,整租,/权属核验/精装/双卫生间/,无,租用车位,商水,商电,暂无数据,暂无数据,2021-07-03 13:43:05,成都
金牛-花照壁-今日家园,88.00㎡,东南,2室1厅1卫,中楼层（6层）,2200 元/月,CD2793421058441748480,2021-06-27,104.04616082,30.70904364,整租,/权属核验/近地铁/精装/,无,暂无数据,民水,民电,有,自采暖,2021-07-03 13:43:09,成都
金牛-国宾-北京城建龙樾熙城二期,126.77㎡,西北,4室1厅2卫,低楼层（15层）,3300 元/月,CD2794731561797287936,2021-06-27,103.9885903658,30.730413139504,整租,/权属核验/精装/双卫生间/随时看房/,无,租用车位,暂无数据,暂无数据,有,暂无数据,2021-07-03 13:43:16,成都
金牛-茶店子-泰基花语廊,85.11㎡,东南,3室1厅1卫,高楼层（13层）,2300 元/月,CD2776079582976286720,2021-07-02,104.01705,30.705162,整租,//权属核验/精装/随时看房/,有,暂无数据,民水,民电,有,自采暖,2021-07-03 13:43:21,成都
金牛-蜀汉路-上品优空间,39.80㎡,东,1室1厅1卫,高楼层（11层）,1700 元/月,CD2794770892364980224,2021-07-02,104.02223,30.696879,整租,/权属核验/近地铁/,有,暂无数据,民水,民电,有,暂无数据,2021-07-03 13:43:25,成都
金牛-高家庄-华宇西城雅郡,77.62㎡,西北,3室1厅1卫,高楼层（18层）,2200 元/月,CD2794720826174210048,2021-06-27,103.993042,30.712618,整租,//权属核验/精装/随时看房/,有,租用车位,民水,民电,有,自采暖,2021-07-03 13:43:32,成都
金牛-茶店子-西城天下,132.33㎡,南,2室1厅1卫,低楼层（31层）,5500 元/月,CD2794072090909876224,2021-07-01,104.020531,30.699832,整租,/权属核验/近地铁/随时看房/,有,暂无数据,民水,民电,有,自采暖,2021-07-03 13:43:40,成都
金牛-国宾-恒大西锦城,123.04㎡,东南,3室2厅2卫,低楼层（29层）,3400 元/月,CD2794758066216632320,2021-06-27,104.017812,30.716763,整租,/权属核验/近地铁/精装/双卫生间/随时看房/,有,暂无数据,民水,民电,有,自采暖,2021-07-03 13:43:45,成都
金牛-蜀汉路-御都花园别墅,312.00㎡,东,5室2厅4卫,中楼层（5层）,11000 元/月,CD2539265489205460992,2021-06-27,104.016887,30.697524,整租,/权属核验/近地铁/精装/随时看房/,无,暂无数据,民水,民电,有,自采暖,2021-07-03 13:43:54,成都
金牛-茶店子-金牛座(金牛),140.00㎡,西南,3室2厅2卫,低楼层（30层）,5000 元/月,CD2566497358862876672,2021-06-26,104.031728,30.703808,整租,/权属核验/近地铁/精装/双卫生间/,有,租用车位,暂无数据,暂无数据,有,暂无数据,2021-07-03 13:44:02,成都
金牛-茶店子-锦城苑(金牛),83.81㎡,东南,3室2厅1卫,低楼层（7层）,2900 元/月,CD2563766967110467584,2021-06-27,104.026456,30.695249,整租,/权属核验/近地铁/随时看房/,无,租用车位,民水,民电,有,自采暖,2021-07-03 13:44:04,成都
金牛-营门口-凤凰栖,116.99㎡,西南,3室2厅2卫,高楼层（6层）,2600 元/月,CD2543238012528508928,2021-06-29,104.046046,30.702442,整租,//权属核验/近地铁/精装/双卫生间/随时看房/,无,租用车位,民水,民电,有,自采暖,2021-07-03 13:44:11,成都
金牛-茶店子-泰基花语廊,131.35㎡,东北,4室2厅2卫,中楼层（13层）,3200 元/月,CD2551914895671574528,2021-07-02,104.01705,30.705162,整租,/权属核验/近地铁/精装/双卫生间/随时看房/,有,租用车位,民水,民电,有,自采暖,2021-07-03 13:44:17,成都
金牛-华侨城-华侨城原岸,89.63㎡,东南,3室1厅1卫,中楼层（34层）,2700 元/月,CD2796217848601780224,2021-06-30,104.052307,30.73317,整租,/权属核验/精装/随时看房/,有,暂无数据,民水,民电,有,自采暖,2021-07-03 13:44:25,成都
金牛-国宾-万科金域西岭,171.59㎡,东,4室2厅3卫,低楼层（33层）,4600 元/月,CD2795568898832080896,2021-06-27,104.019802,30.716406,整租,/权属核验/近地铁/精装/随时看房/,有,暂无数据,民水,民电,有,自采暖,2021-07-03 13:44:30,成都
金牛-营门口-嘉洲华府,50.00㎡,南,1室1厅1卫,中楼层（8层）,1599 元/月,CD2795635354508730368,2021-06-27,104.049009,30.699354,整租,/权属核验/近地铁/随时看房/,有,暂无数据,民水,民电,有,暂无数据,2021-07-03 13:44:34,成都
金牛-高家庄-万科锦西润园,118.41㎡,东南,4室1厅1卫,低楼层（24层）,3350 元/月,CD2779837486598733824,2021-06-19,104.002209,30.715742,整租,/权属核验/精装/,有,暂无数据,民水,民电,有,自采暖,2021-07-03 13:44:43,成都
金牛-金牛万达-金牛万达D组团,89.00㎡,东南,3室1厅1卫,中楼层（32层）,3600 元/月,CD2779752916049993728,2021-06-27,104.082388,30.693315,整租,/权属核验/近地铁/,有,租用车位,民水,民电,有,自采暖,2021-07-03 13:44:48,成都
金牛-国宾-檀香花园,71.55㎡,东南,2室1厅1卫,低楼层（26层）,2300 元/月,CD2778946695499612160,2021-06-27,104.015252,30.709937,整租,/权属核验/近地铁/精装/,有,暂无数据,民水,民电,有,暂无数据,2021-07-03 13:44:56,成都
金牛-高家庄-远洋朗郡,108.62㎡,西,3室1厅2卫,低楼层（17层）,2200 元/月,CD2779518825342189568,2021-06-27,103.986464,30.721319,整租,/权属核验/双卫生间/随时看房/,有,租用车位,民水,民电,有,暂无数据,2021-07-03 13:45:04,成都
金牛-国宾-仁和香榭广场,86.00㎡,东南,3室2厅1卫,低楼层（22层）,3000 元/月,CD2795687568845307904,2021-07-02,104.016439,30.717833,整租,/权属核验/近地铁/精装/随时看房/,无,租用车位,暂无数据,暂无数据,暂无数据,暂无数据,2021-07-03 13:45:13,成都
金牛-国宾-西岸观邸,122.00㎡,南,4室2厅2卫,低楼层（30层）,3500 元/月,CD2805111899375534080,2021-06-27,104.018212,30.712976,整租,//权属核验/近地铁/精装/双卫生间/随时看房/,有,暂无数据,民水,民电,有,自采暖,2021-07-03 13:45:15,成都
金牛-营门口-香木林加州国际,42.21㎡,东南,2室2厅2卫,高楼层（18层）,2700 元/月,CD2804926733688774656,2021-06-30,104.05111903,30.7006371,整租,/权属核验/近地铁/双卫生间/,有,暂无数据,民水,民电,有,暂无数据,2021-07-03 13:45:18,成都
金牛-华侨城-华侨城原岸,85.37㎡,西南,3室1厅1卫,高楼层（30层）,2800 元/月,CD2805597551821332480,2021-06-27,104.052307,30.73317,整租,/权属核验/精装/,有,暂无数据,民水,民电,有,自采暖,2021-07-03 13:45:23,成都
金牛-金牛万达-瑞安城中汇,89.23㎡,东南,3室1厅1卫,低楼层（39层）,3300 元/月,CD2805783274260004864,2021-06-27,104.096761,30.698289,整租,//权属核验/近地铁/精装/随时看房/,有,暂无数据,民水,民电,有,自采暖,2021-07-03 13:45:32,成都
金牛-国宾-西岸观邸,92.12㎡,南,2室2厅2卫,中楼层（32层）,2400 元/月,CD2805836687019098112,2021-06-16,104.018212,30.712976,整租,/权属核验/近地铁/双卫生间/,有,暂无数据,民水,民电,有,自采暖,2021-07-03 13:45:39,成都
金牛-国宾-东原亲亲里,88.25㎡,东北,3室2厅2卫,中楼层（20层）,2800 元/月,CD2805845771168530432,2021-06-27,104.010742,30.726612,整租,//权属核验/近地铁/精装/双卫生间/随时看房/,有,暂无数据,民水,民电,有,自采暖,2021-07-03 13:45:41,成都
金牛-茶店子-茶店子正街96号,124.00㎡,南,3室1厅1卫,高楼层（30层）,3000 元/月,CD2806353405600071680,2021-07-01,104.033571,30.702633,整租,/权属核验/近地铁/精装/随时看房/,有,暂无数据,民水,民电,有,暂无数据,2021-07-03 13:45:50,成都
金牛-花牌坊-天合凯旋港,65.89㎡,东南,1室1厅1卫,高楼层（24层）,2300 元/月,CD2806491945742893056,2021-06-27,104.078007,30.685117,整租,/权属核验/近地铁/,有,租用车位,民水,民电,有,自采暖,2021-07-03 13:45:59,成都
金牛-马鞍路-一环路北三段2号,147.53㎡,西南,2室2厅2卫,高楼层（26层）,3500 元/月,CD2807144759171219456,2021-06-27,104.082422,30.690386,整租,//权属核验/近地铁/精装/双卫生间/随时看房/,有,租用车位,民水,民电,有,暂无数据,2021-07-03 13:46:02,成都
金牛-五块石-幸福彼岸,91.07㎡,南,2室1厅1卫,高楼层（22层）,2000 元/月,CD2806589986214772736,2021-06-29,104.064596,30.722072,整租,/权属核验/近地铁/精装/,有,暂无数据,民水,民电,有,暂无数据,2021-07-03 13:46:11,成都
金牛-国宾-北京城建龙樾熙城,90.69㎡,西南,3室2厅2卫,高楼层（15层）,3000 元/月,CD2807930321750720512,2021-06-30,103.989426,30.729274,整租,//权属核验/精装/双卫生间/随时看房/,有,暂无数据,民水,民电,有,暂无数据,2021-07-03 13:46:20,成都
金牛-沙湾-现代城,86.40㎡,东南,2室1厅1卫,高楼层（31层）,2500 元/月,CD2807332725889957888,2021-06-27,104.053015,30.697927,整租,/权属核验/近地铁/精装/,有,租用车位,民水,民电,有,自采暖,2021-07-03 13:46:25,成都
金牛-通惠门-宜家结庐缘,83.87㎡,东南,2室1厅1卫,中楼层（6层）,3500 元/月,CD2807221821127270400,2021-06-30,104.052037,30.67182,整租,//权属核验/精装/随时看房/,无,租用车位,民水,民电,有,自采暖,2021-07-03 13:46:32,成都
金牛-抚琴小区-熙城国际,60.85㎡,西南,2室1厅1卫,高楼层（28层）,2400 元/月,CD2807783696709722112,2021-06-27,104.04952,30.689304,整租,/权属核验/精装/,有,租用车位,民水,民电,无,暂无数据,2021-07-03 13:46:39,成都
金牛-蜀汉路-上层建筑,109.49㎡,东南,3室1厅2卫,高楼层（27层）,4100 元/月,CD2808771882424205312,2021-06-27,104.024212,30.694861,整租,//权属核验/精装/双卫生间/随时看房/,有,租用车位,民水,民电,有,自采暖,2021-07-03 13:46:47,成都
金牛-花牌坊-北成星中心,67.00㎡,南,2室1厅1卫,中楼层（32层）,3400 元/月,CD2808680742849085440,2021-07-02,104.078206,30.687466,整租,//权属核验/精装/随时看房/,有,租用车位,民水,民电,有,暂无数据,2021-07-03 13:46:53,成都
金牛-五块石-龙湖北城天街一期,108.83㎡,北,3室1厅2卫,低楼层（23层）,3200 元/月,CD2808219443430162432,2021-06-30,104.07485,30.717006,整租,/权属核验/近地铁/精装/双卫生间/随时看房/,有,租用车位,民水,民电,有,暂无数据,2021-07-03 13:46:59,成都
金牛-高家庄-金牛花园,116.46㎡,东南,3室2厅2卫,高楼层（17层）,3000 元/月,CD2808612870756515840,2021-07-02,103.998186,30.715807,整租,/权属核验/精装/双卫生间/随时看房/,有,免费使用,民水,民电,有,自采暖,2021-07-03 13:47:08,成都
金牛-五块石-幸福彼岸,20.00㎡,南,3室0厅0卫,高楼层（22层）,800 元/月,CD2808054592158572544,2021-06-27,104.064596,30.722072,合租,/权属核验/,有,暂无数据,民水,民电,有,暂无数据,2021-07-03 13:47:11,成都
金牛-营门口-金房苑西苑,136.32㎡,东南,3室2厅2卫,中楼层（6层）,3200 元/月,CD2809383282327175168,2021-07-01,104.04310263,30.70086199,整租,//权属核验/近地铁/精装/双卫生间/随时看房/,无,暂无数据,民水,民电,有,自采暖,2021-07-03 13:47:13,成都
金牛-马鞍路-曹家巷恒大雅苑,97.00㎡,西北,3室1厅1卫,中楼层（30层）,3700 元/月,CD2809339668452081664,2021-07-01,104.09406,30.680153,整租,/随时看房/,有,租用车位,民水,民电,有,暂无数据,2021-07-03 13:47:20,成都
金牛-天回镇-万圣家园A区,45.00㎡,东,1室1厅1卫,中楼层（20层）,900 元/月,CD2809435517165510656,2021-07-02,104.102952,30.769187,整租,//精装/,有,暂无数据,暂无数据,暂无数据,有,暂无数据,2021-07-03 13:47:23,成都
金牛-营门口-锦城名都,88.69㎡,东北,2室1厅1卫,低楼层（33层）,2300 元/月,CD2809573167880732672,2021-06-27,104.04688607,30.70580604,整租,/权属核验/近地铁/,有,暂无数据,民水,民电,有,暂无数据,2021-07-03 13:47:28,成都
金牛-五块石-天悦城,68.75㎡,西南,2室1厅1卫,高楼层（33层）,1800 元/月,CD2810116496905207808,2021-07-01,104.061651,30.730415,整租,//权属核验/近地铁/随时看房/,有,暂无数据,民水,民电,有,自采暖,2021-07-03 13:47:34,成都
金牛-一品天下-澳林春天,104.65㎡,南,3室2厅1卫,低楼层（18层）,3000 元/月,CD2810231195088977920,2021-07-02,104.043109,30.696236,整租,//权属核验/近地铁/精装/随时看房/,有,暂无数据,民水,民电,有,暂无数据,2021-07-03 13:47:40,成都
金牛-沙湾-锦西国际,33.00㎡,南,2室1厅1卫,高楼层（22层）,2200 元/月,CD2809986808027553792,2021-07-02,104.06200416,30.70025532,整租,//权属核验/近地铁/随时看房/,有,暂无数据,民水,民电,有,自采暖,2021-07-03 13:47:44,成都
金牛-国宾-保利学府城,121.11㎡,东南,3室1厅1卫,中楼层（31层）,2600 元/月,CD2798548663129866240,2021-06-27,104.01223884133,30.731304122038,整租,/权属核验/近地铁/精装/,有,暂无数据,民水,民电,有,暂无数据,2021-07-03 13:47:48,成都
金牛-五块石-五福丽景,69.64㎡,南,2室1厅1卫,高楼层（6层）,1000 元/月,CD2798617024019046400,2021-06-25,104.067718,30.713179,整租,/权属核验/随时看房/,无,租用车位,民水,民电,有,暂无数据,2021-07-03 13:47:54,成都
金牛-营门口-锦城名都,77.47㎡,东南,2室1厅1卫,低楼层（33层）,2800 元/月,CD2809367037779394560,2021-07-01,104.04688607,30.70580604,整租,//权属核验/业主自荐/近地铁/精装/随时看房/,有,暂无数据,民水,民电,有,暂无数据,2021-07-03 13:48:01,成都
金牛-金牛万达-龙门镇二期,91.22㎡,西南,2室1厅1卫,高楼层（33层）,2800 元/月,CD2817253798773530624,2021-07-02,104.067817,30.695034,整租,/权属核验/近地铁/精装/,有,暂无数据,民水,民电,有,自采暖,2021-07-03 13:48:07,成都
金牛-五块石-天悦汇,48.00㎡,西南,1室1厅1卫,高楼层（25层）,1700 元/月,CD2816734845919830016,2021-07-01,104.062369,30.730035,整租,/权属核验/近地铁/随时看房/,有,暂无数据,商水,商电,有,暂无数据,2021-07-03 13:48:15,成都
金牛-金牛万达-炎华置信花千集,40.00㎡,东,1室1厅1卫,高楼层（20层）,1800 元/月,CD2819647258025533440,2021-07-02,104.07283,30.692703,整租,/权属核验/新上/精装/随时看房/,有,暂无数据,商水,商电,无,暂无数据,2021-07-03 13:48:20,成都
金牛-花牌坊-天合凯旋港,53.73㎡,东南,1室0厅1卫,高楼层（24层）,2000 元/月,CD2820336574481842176,2021-07-02,104.078007,30.685117,整租,/权属核验/新上/近地铁/随时看房/,有,暂无数据,民水,民电,有,自采暖,2021-07-03 13:48:27,成都
金牛-华侨城-华侨城原岸,124.19㎡,东,3室1厅1卫,高楼层（30层）,4500 元/月,CD2773978250454499328,2021-06-27,104.052307,30.73317,整租,/权属核验/随时看房/,有,暂无数据,民水,民电,有,自采暖,2021-07-03 13:48:36,成都
金牛-五块石-蓝光中央天地,35.25㎡,东东北,2室1厅1卫,低楼层（23层）,3500 元/月,CD2773877205477105664,2021-06-26,104.071927,30.713499,整租,/权属核验/近地铁/精装/,有,租用车位,商水,商电,有,暂无数据,2021-07-03 13:48:40,成都
金牛-五块石-天悦汇,50.00㎡,东,1室1厅1卫,高楼层（25层）,1000 元/月,CD2776711961319587840,2021-06-24,104.062369,30.730035,整租,/权属核验/近地铁/随时看房/,有,暂无数据,商水,商电,无,自采暖,2021-07-03 13:48:47,成都
金牛-蜀汉路-御都花园别墅,228.08㎡,东南,3室1厅3卫,低楼层（5层）,12000 元/月,CD2748630249846603776,2021-06-27,104.016887,30.697524,整租,/权属核验/近地铁/精装/随时看房/,无,租用车位,民水,民电,有,自采暖,2021-07-03 13:48:52,成都
金牛-国宾-北京城建龙樾熙城,94.54㎡,东南,3室2厅2卫,中楼层（15层）,2900 元/月,CD2749376585877962752,2021-06-27,103.989426,30.729274,整租,/权属核验/精装/双卫生间/随时看房/,有,暂无数据,民水,民电,有,暂无数据,2021-07-03 13:48:59,成都
金牛-华侨城-华侨城东岸一期,142.71㎡,东南,3室2厅2卫,中楼层（4层）,7000 元/月,CD2750578371372531712,2021-07-02,104.043032,30.732398,整租,/权属核验/精装/双卫生间/随时看房/,有,免费使用,民水,民电,有,自采暖,2021-07-03 13:49:02,成都
金牛-营门口-汇景新村(金牛),142.87㎡,东南,4室2厅2卫,低楼层（6层）,3200 元/月,CD2750557995275657216,2021-07-01,104.044588,30.699461,整租,/权属核验/近地铁/双卫生间/随时看房/,无,暂无数据,民水,民电,有,自采暖,2021-07-03 13:49:11,成都
金牛-茶店子-锦城苑(金牛),65.00㎡,南北,3室2厅1卫,中楼层（7层）,2600 元/月,CD2753677870491770880,2021-06-27,104.026456,30.695249,整租,/权属核验/近地铁/,无,租用车位,民水,民电,有,自采暖,2021-07-03 13:49:13,成都
金牛-国宾-西岸观邸,94.52㎡,南,3室1厅1卫,高楼层（32层）,2800 元/月,CD2753684386560868352,2021-06-12,104.018212,30.712976,整租,/权属核验/近地铁/精装/,有,租用车位,民水,民电,有,自采暖,2021-07-03 13:49:17,成都
金牛-茶店子-金璐天下,75.00㎡,南,1室1厅1卫,高楼层（31层）,1800 元/月,CD2754202838329729024,2021-06-27,104.029709,30.708345,整租,/权属核验/近地铁/,有,暂无数据,商水,商电,无,自采暖,2021-07-03 13:49:23,成都
金牛-驷马桥-绿地世纪城,74.08㎡,南,4室1厅1卫,低楼层（20层）,2000 元/月,CD2752710021136785408,2021-06-27,104.086035,30.726715,整租,/权属核验/近地铁/,有,暂无数据,民水,民电,有,暂无数据,2021-07-03 13:49:26,成都
金牛-国宾-北京城建龙樾熙城,64.19㎡,南西,2室1厅1卫,高楼层（15层）,2600 元/月,CD2780409413973057536,2021-07-01,103.989426,30.729274,整租,/权属核验/精装/,有,暂无数据,民水,民电,有,暂无数据,2021-07-03 13:49:35,成都
金牛-花照壁-紫宸星座,37.21㎡,西北,1室1厅1卫,中楼层（28层）,2300 元/月,CD2779635836038422528,2021-06-27,104.037603,30.703106,整租,/权属核验/近地铁/精装/,有,暂无数据,商水,民电,暂无数据,暂无数据,2021-07-03 13:49:41,成都
金牛-花照壁-金牛新都会,43.64㎡,南西南西,1室0厅1卫,中楼层（37层）,4500 元/月,CD2756500135688282112,2021-06-27,104.03152111,30.71143786,整租,/权属核验/,有,暂无数据,民水,民电,无,暂无数据,2021-07-03 13:49:44,成都
金牛-花牌坊-龙湖上城天街广场,47.00㎡,西南,2室1厅1卫,中楼层（35层）,3800 元/月,CD2757094141761691648,2021-06-30,104.078801,30.688634,整租,/权属核验/精装/随时看房/,无,租用车位,商水,商电,无,暂无数据,2021-07-03 13:49:52,成都
金牛-蜀汉路-金都花园,141.00㎡,东北,3室2厅2卫,中楼层（11层）,4400 元/月,CD2756391217045708800,2021-06-27,104.0192924,30.69850237,整租,/权属核验/近地铁/精装/双卫生间/,有,租用车位,民水,民电,有,自采暖,2021-07-03 13:49:57,成都
金牛-五块石-龙湖北城天街二期,226.40㎡,东南,4室2厅3卫,高楼层（6层）,5000 元/月,CD2755755907228385280,2021-07-02,104.070694,30.717656,整租,/权属核验/近地铁/,有,暂无数据,民水,民电,有,自采暖,2021-07-03 13:50:05,成都
金牛-营门口-锦西名宅西区,147.14㎡,东南,3室2厅2卫,高楼层（6层）,3200 元/月,CD2756459268889640960,2021-06-27,104.051606,30.705209,整租,/权属核验/近地铁/双卫生间/随时看房/,无,租用车位,民水,民电,有,自采暖,2021-07-03 13:50:14,成都
金牛-高家庄-华宇西城雅郡,77.62㎡,东南,3室2厅1卫,高楼层（18层）,2100 元/月,CD2758476385046495232,2021-06-27,103.993042,30.712618,整租,//权属核验/精装/随时看房/,有,暂无数据,民水,民电,有,自采暖,2021-07-03 13:50:22,成都
金牛-金牛万达-金牛万达D组团,13.00㎡,南,2室0厅0卫,中楼层（32层）,850 元/月,CD2780604188106178560,2021-07-01,104.082388,30.693315,合租,//权属核验/近地铁/随时看房/,有,暂无数据,民水,民电,有,自采暖,2021-07-03 13:50:25,成都
金牛-花牌坊-西府花园,89.59㎡,南,2室1厅1卫,低楼层（11层）,3200 元/月,CD2781672088330059776,2021-06-26,104.052046,30.684056,整租,/权属核验/近地铁/,有,暂无数据,民水,民电,有,自采暖,2021-07-03 13:50:32,成都
金牛-花牌坊-龙湖上城天街广场,47.00㎡,东北,2室0厅1卫,高楼层（35层）,3800 元/月,CD2782560142586019840,2021-06-10,104.078801,30.688634,整租,/权属核验/精装/随时看房/,无,租用车位,商水,商电,无,暂无数据,2021-07-03 13:50:36,成都
金牛-九里堤-九里堤中路52号院,58.00㎡,南,2室1厅1卫,中楼层（7层）,1500 元/月,CD2782715546020347904,2021-06-26,104.06430165,30.70366692,整租,/权属核验/近地铁/,有,暂无数据,民水,民电,有,自采暖,2021-07-03 13:50:39,成都
金牛-天回镇-保利公园里,114.15㎡,东南,3室1厅2卫,高楼层（18层）,2400 元/月,CD2782566619900018688,2021-07-01,104.096823,30.773437,整租,/权属核验/近地铁/双卫生间/,无,暂无数据,暂无数据,暂无数据,有,暂无数据,2021-07-03 13:50:46,成都
金牛-国宾-北京城建龙樾熙城二期,113.48㎡,东南,2室2厅2卫,低楼层（15层）,2980 元/月,CD2758678248425521152,2021-06-27,103.9885903658,30.730413139504,整租,//权属核验/精装/双卫生间/随时看房/,无,暂无数据,暂无数据,暂无数据,有,暂无数据,2021-07-03 13:50:49,成都
金牛-五块石-中铁瑞景汇中心,87.12㎡,东南,3室2厅1卫,高楼层（39层）,2900 元/月,CD2784654906986856448,2021-06-27,104.073957,30.704899,整租,//权属核验/近地铁/精装/随时看房/,有,租用车位,民水,民电,有,暂无数据,2021-07-03 13:50:51,成都
金牛-国宾-西岸观邸,93.00㎡,南,3室2厅2卫,中楼层（32层）,2400 元/月,CD2760708352815677440,2021-06-27,104.018212,30.712976,整租,/权属核验/近地铁/精装/双卫生间/,有,暂无数据,民水,民电,有,自采暖,2021-07-03 13:50:57,成都
金牛-马鞍路-曹家巷恒大雅苑,65.00㎡,东,2室1厅1卫,低楼层（28层）,3200 元/月,CD2762230385390919680,2021-06-27,104.09406,30.680153,整租,/权属核验/精装/,有,租用车位,民水,民电,有,暂无数据,2021-07-03 13:51:00,成都
金牛-国宾-万科金域西岭,90.84㎡,东北,2室2厅1卫,中楼层（35层）,2400 元/月,CD2762173531297939456,2021-07-02,104.019802,30.716406,整租,/权属核验/近地铁/精装/,有,租用车位,民水,民电,有,暂无数据,2021-07-03 13:51:07,成都
金牛-高家庄-高家庄赞城,47.51㎡,东南,2室1厅1卫,中楼层（21层）,1450 元/月,CD2702688478248321024,2021-06-25,104.005358,30.711787,整租,/权属核验/精装/随时看房/,有,暂无数据,民水,民电,有,暂无数据,2021-07-03 13:51:13,成都
金牛-西南交大-交大智能五期,72.90㎡,西南,2室2厅1卫,中楼层（6层）,2200 元/月,CD2700032368600678400,2021-06-27,104.053641,30.71455,整租,/权属核验/近地铁/,无,暂无数据,民水,民电,有,暂无数据,2021-07-03 13:51:20,成都
金牛-高家庄-远洋朗郡,86.02㎡,东南南,2室1厅1卫,高楼层（17层）,2700 元/月,CD2700605272585674752,2021-06-27,103.986464,30.721319,整租,/权属核验/随时看房/,有,暂无数据,民水,民电,有,暂无数据,2021-07-03 13:51:26,成都
金牛-高家庄-两河锦地,85.63㎡,东南,2室2厅1卫,低楼层（18层）,2000 元/月,CD2700555805056573440,2021-06-19,104.000595,30.711703,整租,/权属核验/随时看房/,有,暂无数据,民水,民电,有,自采暖,2021-07-03 13:51:31,成都
金牛-金牛万达-蓝光富丽城,23.55㎡,东,1室0厅0卫,地下室（1层）,300 元/月,CD2709337166718443520,2021-06-27,104.089191,30.701068,整租,/权属核验/近地铁/,无,暂无数据,暂无数据,暂无数据,无,自采暖,2021-07-03 13:51:39,成都
金牛-高家庄-保利梧桐语,59.70㎡,东南,2室1厅1卫,高楼层（18层）,2300 元/月,CD2708642457981296640,2021-06-27,103.998216,30.711229,整租,/权属核验/精装/随时看房/,有,暂无数据,民水,民电,有,自采暖,2021-07-03 13:51:44,成都
金牛-金府-电建地产洺悦府,118.55㎡,西南,4室1厅2卫,低楼层（41层）,4000 元/月,CD2707263375876038656,2021-06-27,104.058212,30.721984,整租,/权属核验/双卫生间/随时看房/,有,暂无数据,暂无数据,民电,有,暂无数据,2021-07-03 13:51:50,成都
金牛-五块石-天悦城,89.48㎡,北,3室1厅1卫,低楼层（33层）,3000 元/月,CD2749297483275575296,2021-07-01,104.061651,30.730415,整租,/权属核验/近地铁/精装/,有,暂无数据,民水,民电,有,暂无数据,2021-07-03 13:51:56,成都
金牛-高家庄-保利梧桐语,60.00㎡,东,2室1厅1卫,中楼层（13层）,2400 元/月,CD2754277412736352256,2021-07-01,103.998216,30.711229,整租,/权属核验/精装/,有,暂无数据,民水,民电,有,自采暖,2021-07-03 13:52:04,成都
金牛-五块石-蓝光花满庭一期,165.45㎡,北,4室2厅2卫,低楼层（21层）,5000 元/月,CD2752694611280936960,2021-06-27,104.066524,30.728183,整租,/权属核验/近地铁/精装/双卫生间/,有,暂无数据,民水,民电,有,暂无数据,2021-07-03 13:52:08,成都
金牛-通惠门-宜家结庐缘,166.50㎡,东南,3室1厅1卫,高楼层（6层）,5500 元/月,CD2751980474409951232,2021-07-01,104.052037,30.67182,整租,/权属核验/近地铁/随时看房/,无,租用车位,民水,民电,有,自采暖,2021-07-03 13:52:11,成都
金牛-九里堤-菁华园,35.28㎡,东南,1室0厅1卫,高楼层（6层）,1200 元/月,CD2712286196516012032,2021-06-26,104.061367,30.711927,整租,/权属核验/,无,租用车位,民水,民电,有,自采暖,2021-07-03 13:52:19,成都
金牛-茶店子-西门先生,36.00㎡,东南,1室1厅1卫,低楼层（34层）,1500 元/月,CD2712162299166064640,2021-07-01,104.023923,30.70613,整租,/权属核验/近地铁/,有,租用车位,商水,商电,无,暂无数据,2021-07-03 13:52:23,成都
金牛-花牌坊-中铁鹭岛艺术城,87.79㎡,南,3室1厅1卫,低楼层（43层）,3600 元/月,CD2724465634011791360,2021-06-27,104.059632,30.688759,整租,/权属核验/近地铁/随时看房/,有,暂无数据,民水,民电,有,暂无数据,2021-07-03 13:52:30,成都
金牛-高家庄-百仁安盛,136.57㎡,东南,3室2厅2卫,低楼层（18层）,3000 元/月,CD2710923265442062336,2021-06-26,103.998987,30.713739,整租,/权属核验/双卫生间/随时看房/,有,租用车位,民水,民电,有,自采暖,2021-07-03 13:52:32,成都
金牛-高家庄-西线阳光,86.26㎡,东南,3室1厅1卫,低楼层（18层）,2500 元/月,CD2725226073314041856,2021-06-26,104.000704,30.716025,整租,/权属核验/精装/随时看房/,有,暂无数据,民水,民电,有,自采暖,2021-07-03 13:52:35,成都
金牛-一品天下-蓝光花好月圆,51.54㎡,东南,1室1厅1卫,中楼层（11层）,1900 元/月,CD2758086407670210560,2021-06-17,104.034669,30.690195,整租,/权属核验/,有,暂无数据,民水,民电,有,暂无数据,2021-07-03 13:52:43,成都
金牛-高家庄-远洋朗郡,79.90㎡,西北东北,2室1厅1卫,低楼层（17层）,2200 元/月,CD2757790696697511936,2021-07-02,103.986464,30.721319,整租,/权属核验/精装/随时看房/,有,暂无数据,民水,民电,有,暂无数据,2021-07-03 13:52:50,成都
金牛-高家庄-紫坪铺,138.28㎡,东南,3室2厅2卫,高楼层（6层）,2600 元/月,CD2724524243370393600,2021-06-26,104.008776,30.710494,整租,/权属核验/精装/双卫生间/,有,租用车位,暂无数据,暂无数据,有,自采暖,2021-07-03 13:52:56,成都
金牛-五块石-天悦汇,35.00㎡,东,1室1厅1卫,中楼层（25层）,600 元/月,CD2727578004636581888,2021-07-01,104.062369,30.730035,整租,/权属核验/近地铁/随时看房/,有,暂无数据,商水,商电,无,自采暖,2021-07-03 13:53:04,成都
金牛-茶店子-金穗苑(金牛),200.00㎡,东南,4室2厅2卫,中楼层（18层）,5000 元/月,CD2728140792303992832,2021-06-20,104.02478,30.699333,整租,/权属核验/近地铁/双卫生间/随时看房/,有,租用车位,民水,民电,有,自采暖,2021-07-03 13:53:10,成都
金牛-花照壁-金牛新都会,81.77㎡,南北,2室2厅1卫,高楼层（37层）,2500 元/月,CD2729044294307414016,2021-06-27,104.03152111,30.71143786,整租,/权属核验/,有,暂无数据,民水,民电,有,暂无数据,2021-07-03 13:53:13,成都
金牛-国宾-国宾壹公馆,44.00㎡,南,1室0厅1卫,中楼层（6层）,2000 元/月,CD2728367904570474496,2021-07-02,104.016597,30.717749,整租,/权属核验/近地铁/,无,租用车位,暂无数据,暂无数据,暂无数据,暂无数据,2021-07-03 13:53:19,成都
金牛-金牛万达-金牛万达D组团,100.68㎡,东,3室1厅1卫,高楼层（32层）,3400 元/月,CD2728258339627868160,2021-06-29,104.082388,30.693315,整租,/权属核验/近地铁/随时看房/,有,暂无数据,民水,民电,有,自采暖,2021-07-03 13:53:25,成都
金牛-国宾-恒大西锦城,83.92㎡,东南,2室1厅1卫,高楼层（29层）,2300 元/月,CD2728384535741079552,2021-06-06,104.017812,30.716763,整租,/权属核验/近地铁/精装/,有,暂无数据,民水,民电,有,自采暖,2021-07-03 13:53:31,成都
金牛-茶店子-西延锦绣,160.89㎡,西南,4室1厅2卫,中楼层（5层）,3800 元/月,CD2729572150955474944,2021-06-29,104.020266,30.702461,整租,/权属核验/近地铁/精装/双卫生间/随时看房/,无,暂无数据,民水,民电,有,自采暖,2021-07-03 13:53:40,成都
金牛-花牌坊-国贸大厦,300.00㎡,东南,4室1厅1卫,中楼层（18层）,12000 元/月,CD2728035082773741568,2021-06-27,104.057046,30.682241,整租,/权属核验/近地铁/,有,租用车位,暂无数据,暂无数据,无,暂无数据,2021-07-03 13:53:43,成都
金牛-花照壁-金府路6号,230.00㎡,东南,5室3厅3卫,中楼层（5层）,6500 元/月,CD2762887461397856256,2021-06-27,104.03472053,30.71192955,整租,/权属核验/精装/随时看房/,无,租用车位,民水,民电,有,暂无数据,2021-07-03 13:53:46,成都
金牛-国宾-保利学府城,121.00㎡,南,4室2厅2卫,中楼层（30层）,3300 元/月,CD2762176012815958016,2021-06-27,104.01223884133,30.731304122038,整租,/权属核验/近地铁/精装/双卫生间/,有,暂无数据,民水,民电,有,自采暖,2021-07-03 13:53:49,成都
金牛-营门口-银沙路8号,81.85㎡,西南,2室1厅1卫,中楼层（7层）,1800 元/月,CD2734711400894308352,2021-06-27,104.049819,30.699927,整租,//权属核验/近地铁/随时看房/,无,暂无数据,民水,民电,有,暂无数据,2021-07-03 13:53:56,成都
金牛-金牛万达-炎华置信花千集,44.00㎡,南,1室1厅1卫,高楼层（20层）,3000 元/月,CD2803563219296460800,2021-06-28,104.07283,30.692703,整租,/权属核验/精装/随时看房/,有,暂无数据,商水,商电,无,暂无数据,2021-07-03 13:54:00,成都
金牛-金牛万达-瑞安城中汇,131.85㎡,东南,3室2厅2卫,高楼层（29层）,4600 元/月,CD2791950032075759616,2021-06-27,104.096761,30.698289,整租,/权属核验/近地铁/精装/双卫生间/随时看房/,有,暂无数据,民水,民电,有,自采暖,2021-07-03 13:54:03,成都
金牛-高家庄-蓝光金悦金沙,83.89㎡,西南,3室1厅1卫,低楼层（21层）,3200 元/月,CD2804174224154173440,2021-06-26,104.008022,30.703832,整租,/权属核验/,有,暂无数据,民水,民电,有,自采暖,2021-07-03 13:54:08,成都
金牛-高家庄-白鸽岛尚,151.60㎡,东南,4室1厅2卫,低楼层（19层）,3000 元/月,CD2680419190837616640,2021-06-27,104.002464,30.714052,整租,/权属核验/双卫生间/随时看房/,有,暂无数据,民水,民电,有,自采暖,2021-07-03 13:54:15,成都
金牛-通惠门-河畔芙蓉,60.52㎡,南,1室0厅0卫,地下室,500 元/月,CD2680416862881726464,2021-06-29,104.056735,30.674456,整租,/权属核验/近地铁/随时看房/,无,租用车位,暂无数据,暂无数据,有,暂无数据,2021-07-03 13:54:21,成都
金牛-五块石-幸福彼岸,124.00㎡,南,3室2厅2卫,中楼层（22层）,2400 元/月,CD2676860930524192768,2021-07-02,104.064596,30.722072,整租,/权属核验/近地铁/双卫生间/,有,租用车位,民水,民电,有,暂无数据,2021-07-03 13:54:30,成都
金牛-国宾-檀香花园,100.83㎡,东南,3室1厅1卫,高楼层（26层）,2600 元/月,CD2804908931359440896,2021-07-02,104.015252,30.709937,整租,//权属核验/近地铁/精装/随时看房/,有,暂无数据,民水,民电,有,自采暖,2021-07-03 13:54:37,成都
金牛-茶店子-西西里二期,77.46㎡,东南,2室1厅1卫,低楼层（34层）,2400 元/月,CD2804402921196748800,2021-07-02,104.025943,30.707689,整租,//权属核验/精装/随时看房/,有,租用车位,民水,民电,有,自采暖,2021-07-03 13:54:42,成都
金牛-高家庄-金牛花园,91.51㎡,东南,3室1厅2卫,高楼层（17层）,2200 元/月,CD2804250916642103296,2021-06-27,103.998186,30.715807,整租,/权属核验/精装/双卫生间/随时看房/,有,暂无数据,民水,民电,有,自采暖,2021-07-03 13:54:44,成都
金牛-天回镇-万圣家园五区,45.00㎡,南北,1室1厅1卫,中楼层（15层）,1500 元/月,CD2792568924867674112,2021-06-25,104.10484965819,30.767267685708,整租,//精装/随时看房/,无,暂无数据,暂无数据,暂无数据,暂无数据,暂无数据,2021-07-03 13:54:52,成都
金牛-马鞍路-曹家巷恒大雅苑,58.00㎡,东南,2室1厅1卫,中楼层（30层）,3000 元/月,CD2805222993276436480,2021-07-02,104.09406,30.680153,整租,/近地铁/精装/,有,租用车位,民水,民电,有,暂无数据,2021-07-03 13:54:58,成都
金牛-国宾-远洋朗基国宾御府,148.00㎡,东南,4室2厅1卫,中楼层（6层）,800 元/月,CD2805842494083317760,2021-07-01,104.001005,30.732386,整租,/权属核验/近地铁/,有,暂无数据,民水,民电,有,暂无数据,2021-07-03 13:55:07,成都
金牛-金牛万达-炎华置信花千集,38.99㎡,东,1室0厅1卫,中楼层（20层）,1600 元/月,CD2794955238291800064,2021-06-27,104.07283,30.692703,整租,//权属核验/业主自荐/随时看房/,无,暂无数据,商水,商电,暂无数据,暂无数据,2021-07-03 13:55:11,成都
金牛-金府-金府旺角,60.00㎡,东,2室0厅1卫,高楼层（15层）,1500 元/月,CD2697863427447062528,2021-06-29,104.043549,30.722355,整租,/权属核验/近地铁/随时看房/,无,暂无数据,暂无数据,暂无数据,暂无数据,暂无数据,2021-07-03 13:55:15,成都
金牛-马鞍路-银海中心,50.25㎡,东,3室1厅1卫,中楼层（32层）,2000 元/月,CD2700699906620006400,2021-06-27,104.093558,30.686006,整租,/权属核验/近地铁/随时看房/,有,暂无数据,民水,民电,有,自采暖,2021-07-03 13:55:23,成都
金牛-营门口-和睦人家一二期,90.66㎡,西南,3室2厅1卫,高楼层（6层）,2600 元/月,CD2696232581439438848,2021-06-27,104.047171,30.699936,整租,/权属核验/近地铁/随时看房/,无,暂无数据,民水,民电,有,暂无数据,2021-07-03 13:55:26,成都
金牛-花牌坊-中铁鹭岛艺术城,78.90㎡,东南,2室1厅1卫,低楼层（30层）,3500 元/月,CD2796999802183745536,2021-06-17,104.059632,30.688759,整租,/权属核验/随时看房/,有,暂无数据,民水,民电,有,暂无数据,2021-07-03 13:55:34,成都
金牛-驷马桥-绿地世纪城,86.95㎡,南,3室1厅1卫,高楼层（20层）,2500 元/月,CD2796454435952263168,2021-07-02,104.086035,30.726715,整租,/权属核验/近地铁/随时看房/,有,暂无数据,民水,民电,有,暂无数据,2021-07-03 13:55:38,成都
金牛-花牌坊-曦城,72.50㎡,西南,2室1厅1卫,低楼层（34层）,3000 元/月,CD2806504637262471168,2021-06-30,104.059766,30.682789,整租,//权属核验/精装/随时看房/,有,暂无数据,民水,民电,有,自采暖,2021-07-03 13:55:44,成都
金牛-国宾-恒大西锦城,15.00㎡,东,1室0厅0卫,地下室,300 元/月,CD2796422072291557376,2021-07-01,104.017812,30.716763,整租,/权属核验/近地铁/随时看房/,有,暂无数据,暂无数据,暂无数据,有,自采暖,2021-07-03 13:55:48,成都
金牛-石人小区-白果林银杏广场,45.78㎡,西南,1室1厅2卫,高楼层（15层）,2550 元/月,CD2796974114085011456,2021-06-25,104.043769,30.676363,整租,/权属核验/近地铁/双卫生间/随时看房/,有,暂无数据,民水,商电,无,自采暖,2021-07-03 13:55:51,成都
金牛-沙湾-现代城,55.72㎡,西北,2室1厅1卫,低楼层（31层）,2100 元/月,CD2807139555399180288,2021-07-01,104.053015,30.697927,整租,//权属核验/近地铁/随时看房/,有,租用车位,民水,民电,有,自采暖,2021-07-03 13:55:59,成都
金牛-一品天下-南洋公寓(金牛),77.36㎡,东南,2室1厅1卫,高楼层（6层）,1900 元/月,CD2706461262925545472,2021-06-30,104.028058,30.690059,整租,/权属核验/近地铁/随时看房/,无,暂无数据,民水,民电,有,自采暖,2021-07-03 13:56:05,成都
金牛-金牛万达-金牛之心荷花池广场1期,71.10㎡,南,1室1厅1卫,中楼层（26层）,2300 元/月,CD2807101755005861888,2021-06-27,104.083531,30.698361,整租,/权属核验/近地铁/,有,暂无数据,暂无数据,商电,无,暂无数据,2021-07-03 13:56:13,成都
金牛-茶店子-锦城苑(金牛),47.58㎡,东,1室0厅1卫,高楼层（7层）,1700 元/月,CD2797174164694777856,2021-06-26,104.026456,30.695249,整租,/权属核验/近地铁/随时看房/,有,暂无数据,民水,商电,有,自采暖,2021-07-03 13:56:16,成都
金牛-茶店子-茶店子育苗路10号,65.00㎡,东南,2室1厅1卫,高楼层（6层）,1500 元/月,CD2797909256802934784,2021-06-27,104.027679,30.706571,整租,//权属核验/随时看房/,无,暂无数据,民水,民电,有,自采暖,2021-07-03 13:56:20,成都
金牛-花照壁-首开龙湖紫宸一组团,170.02㎡,东南,4室2厅2卫,高楼层（32层）,4000 元/月,CD2798017168829054976,2021-07-01,104.03858102244,30.706530445924,整租,/权属核验/近地铁/双卫生间/,有,暂无数据,暂无数据,暂无数据,有,暂无数据,2021-07-03 13:56:28,成都
金牛-金牛万达-瑞安城中汇,49.86㎡,东南,1室1厅1卫,低楼层（28层）,3500 元/月,CD2703619834650042368,2021-06-29,104.096761,30.698289,整租,/权属核验/近地铁/精装/,有,暂无数据,商水,商电,无,暂无数据,2021-07-03 13:56:36,成都
金牛-花牌坊-龙湖上城天街广场,158.00㎡,东南,4室2厅2卫,中楼层（45层）,7500 元/月,CD2701549195223384064,2021-06-08,104.078801,30.688634,整租,/权属核验/近地铁/精装/双卫生间/随时看房/,无,租用车位,民水,民电,有,暂无数据,2021-07-03 13:56:41,成都
金牛-国宾-泰逸美景,134.29㎡,东南,3室1厅2卫,低楼层（8层）,3500 元/月,CD2705135272387158016,2021-06-27,104.012881,30.710876,整租,/权属核验/近地铁/精装/双卫生间/,有,暂无数据,民水,民电,有,自采暖,2021-07-03 13:56:49,成都
金牛-沙湾-明苑公寓,164.13㎡,东,4室2厅2卫,低楼层（7层）,4000 元/月,CD2797694500032749568,2021-07-01,104.050339,30.693262,整租,/权属核验/双卫生间/随时看房/,无,暂无数据,民水,民电,有,自采暖,2021-07-03 13:56:56,成都
金牛-五块石-龙湖北城天街一期,106.27㎡,南,3室1厅2卫,中楼层（23层）,3000 元/月,CD2806640774999965696,2021-07-02,104.07485,30.717006,整租,//权属核验/近地铁/精装/双卫生间/随时看房/,有,暂无数据,民水,民电,有,暂无数据,2021-07-03 13:56:59,成都
金牛-金牛万达-金牛万达D组团,80.73㎡,南,3室1厅1卫,中楼层（32层）,3200 元/月,CD2807352109639671808,2021-07-01,104.082388,30.693315,整租,//权属核验/近地铁/随时看房/,有,暂无数据,民水,民电,有,自采暖,2021-07-03 13:57:05,成都
金牛-马鞍路-中房北极星花园,53.54㎡,南,2室1厅1卫,高楼层（29层）,2700 元/月,CD2807897063931781120,2021-06-27,104.087188,30.685203,整租,/权属核验/精装/,有,租用车位,民水,民电,有,暂无数据,2021-07-03 13:57:13,成都
金牛-国宾-北京城建龙樾熙城,64.19㎡,东南,2室1厅1卫,高楼层（15层）,2500 元/月,CD2808102239871442944,2021-07-01,103.989426,30.729274,整租,/权属核验/精装/,有,暂无数据,民水,民电,有,暂无数据,2021-07-03 13:57:19,成都
金牛-高家庄-青房天韵华庭,79.93㎡,东南,2室1厅1卫,中楼层（16层）,2400 元/月,CD2809256463392833536,2021-06-27,104.009522,30.708357,整租,/权属核验/精装/,有,暂无数据,民水,民电,有,自采暖,2021-07-03 13:57:25,成都
金牛-花照壁-紫宸星座,36.00㎡,东,1室0厅1卫,低楼层（28层）,1800 元/月,CD2755139511145988096,2021-07-01,104.037603,30.703106,整租,/权属核验/近地铁/,有,暂无数据,商水,民电,暂无数据,暂无数据,2021-07-03 13:57:34,成都
金牛-国宾-泰逸美景,99.32㎡,东南,2室1厅1卫,中楼层（11层）,2200 元/月,CD2756354761917218816,2021-06-29,104.012881,30.710876,整租,/权属核验/近地铁/精装/,有,暂无数据,民水,民电,有,自采暖,2021-07-03 13:57:37,成都
金牛-沙湾-智业公寓,118.67㎡,东,3室1厅1卫,低楼层（7层）,2500 元/月,CD2755081673665150976,2021-07-01,104.059221,30.695785,整租,/权属核验/近地铁/随时看房/,无,暂无数据,民水,民电,有,自采暖,2021-07-03 13:57:41,成都
金牛-花照壁-金府汽配城,66.43㎡,西南,1室0厅0卫,低楼层（2层）,6400 元/月,CD2816728885419851776,2021-06-30,104.03131519661,30.711949583396,整租,/权属核验/,无,暂无数据,暂无数据,暂无数据,暂无数据,暂无数据,2021-07-03 13:57:48,成都
金牛-花照壁-首开龙湖紫宸香颂,153.34㎡,东南,4室1厅1卫,中楼层（36层）,9200 元/月,CD2816661454609465344,2021-07-01,104.040546,30.704818,整租,/权属核验/近地铁/精装/,有,暂无数据,商水,暂无数据,有,暂无数据,2021-07-03 13:57:53,成都
金牛-金牛万达-荷花名都,69.14㎡,南,2室1厅1卫,中楼层（18层）,2200 元/月,CD2816627906141495296,2021-06-29,104.086995,30.696314,整租,/权属核验/近地铁/,有,租用车位,暂无数据,暂无数据,有,暂无数据,2021-07-03 13:57:57,成都
金牛-沙湾-光荣西路60号,71.44㎡,西南,2室1厅1卫,高楼层（7层）,1600 元/月,CD2816754712508891136,2021-06-27,104.049029,30.695556,整租,/权属核验/近地铁/,无,暂无数据,民水,民电,有,自采暖,2021-07-03 13:58:04,成都
金牛-五块石-天悦汇,47.65㎡,南,1室1厅1卫,高楼层（25层）,1700 元/月,CD2816711780435501056,2021-07-01,104.062369,30.730035,整租,/权属核验/近地铁/随时看房/,有,暂无数据,商水,商电,有,暂无数据,2021-07-03 13:58:12,成都
金牛-华侨城-华侨城原岸,90.00㎡,南,3室2厅1卫,中楼层（30层）,3000 元/月,CD2756372381743726592,2021-06-27,104.052307,30.73317,整租,/权属核验/精装/,有,暂无数据,民水,民电,有,自采暖,2021-07-03 13:58:16,成都
金牛-天回镇-中南海棠集,136.00㎡,南,4室2厅2卫,中楼层（27层）,1000 元/月,CD2816865707105452032,2021-06-26,104.099867,30.77769,整租,/权属核验/双卫生间/,无,暂无数据,民水,民电,有,暂无数据,2021-07-03 13:58:19,成都
金牛-沙湾-公安局宿舍(金牛区),91.88㎡,南,3室2厅1卫,中楼层（7层）,2400 元/月,CD2810262504561975296,2021-06-21,104.048432,30.697047,整租,/权属核验/近地铁/精装/,无,暂无数据,民水,民电,有,自采暖,2021-07-03 13:58:28,成都
金牛-五块石-蓝光花满庭一期,66.49㎡,北,2室1厅1卫,中楼层（20层）,1500 元/月,CD2810116490253312000,2021-07-02,104.066524,30.728183,整租,//权属核验/近地铁/随时看房/,有,租用车位,民水,民电,有,暂无数据,2021-07-03 13:58:32,成都
金牛-金牛万达-中汇国际中心,61.59㎡,北,2室1厅1卫,高楼层（28层）,3500 元/月,CD2819508705668628480,2021-07-01,104.097818,30.697409,整租,/权属核验/新上/近地铁/精装/,有,暂无数据,商水,商电,无,暂无数据,2021-07-03 13:58:37,成都
金牛-驷马桥-绿地世纪城,103.00㎡,南,3室2厅2卫,高楼层（24层）,2500 元/月,CD2812380983121690624,2021-07-02,104.086035,30.726715,整租,/权属核验/近地铁/双卫生间/,有,租用车位,民水,民电,有,暂无数据,2021-07-03 13:58:46,成都
金牛-金府-金府国际,35.00㎡,东南,1室1厅1卫,中楼层（32层）,1200 元/月,CD2810184975100682240,2021-06-30,104.049711,30.723717,整租,/权属核验/随时看房/,有,暂无数据,民水,民电,有,暂无数据,2021-07-03 13:58:49,成都
金牛-华侨城-华侨城纯水岸三期,73.85㎡,南,2室2厅1卫,高楼层（33层）,2300 元/月,CD2810705128389353472,2021-06-27,104.034744,30.727171,整租,/权属核验/近地铁/,有,暂无数据,民水,民电,有,自采暖,2021-07-03 13:58:54,成都
金牛-国宾-电子十所宿舍,92.45㎡,东南,3室1厅1卫,高楼层（6层）,1800 元/月,CD2810736637519339520,2021-06-27,104.02461,30.714485,整租,/权属核验/近地铁/,无,租用车位,民水,民电,有,自采暖,2021-07-03 13:58:56,成都
金牛-驷马桥-绿地世纪城,121.00㎡,北,4室2厅2卫,中楼层（20层）,3500 元/月,CD2810762555667529728,2021-07-02,104.086035,30.726715,整租,/权属核验/近地铁/精装/双卫生间/,有,租用车位,民水,民电,有,暂无数据,2021-07-03 13:59:04,成都
金牛-马鞍路-恒大曹家巷广场,88.22㎡,东南,2室1厅1卫,中楼层（42层）,3600 元/月,CD2802163781940019200,2021-06-27,104.096171,30.679737,整租,//权属核验/精装/随时看房/,有,免费使用,民水,民电,有,暂无数据,2021-07-03 13:59:13,成都
金牛-金牛万达-解放路一段97号,61.17㎡,东南,2室1厅1卫,中楼层（7层）,1500 元/月,CD2811684259868450816,2021-06-28,104.096679,30.69672,整租,//权属核验/随时看房/,无,租用车位,暂无数据,暂无数据,暂无数据,暂无数据,2021-07-03 13:59:18,成都
金牛-花牌坊-天合凯旋港,51.89㎡,东南南,1室0厅1卫,高楼层（21层）,1700 元/月,CD2802247398619873280,2021-07-01,104.078007,30.685117,整租,/权属核验/近地铁/,有,租用车位,民水,民电,有,自采暖,2021-07-03 13:59:24,成都
金牛-九里堤-佳美花园,85.48㎡,西南,3室2厅1卫,低楼层（6层）,2000 元/月,CD2802056998282608640,2021-07-01,104.05544966,30.71418645,整租,//权属核验/近地铁/随时看房/,无,暂无数据,民水,民电,有,自采暖,2021-07-03 13:59:30,成都
金牛-马鞍路-凤凰大厦,153.48㎡,南,4室2厅2卫,高楼层（15层）,3600 元/月,CD2812162207737970688,2021-06-24,104.086277,30.683972,整租,/权属核验/精装/双卫生间/随时看房/,有,租用车位,民水,民电,有,暂无数据,2021-07-03 13:59:35,成都
金牛-金牛万达-瑞升城北橡树林,37.51㎡,东南,1室1厅1卫,低楼层（22层）,2550 元/月,CD2733219828352417792,2021-06-27,104.091105,30.691344,整租,/权属核验/精装/,有,租用车位,商水,商电,有,暂无数据,2021-07-03 13:59:42,成都
金牛-沙湾-新熙门,110.94㎡,南,3室2厅2卫,高楼层（32层）,3500 元/月,CD2731141096679161856,2021-07-01,104.052236,30.690129,整租,//权属核验/精装/双卫生间/随时看房/,有,租用车位,民水,民电,有,暂无数据,2021-07-03 13:59:45,成都
金牛-华侨城-华侨城原岸,89.63㎡,南北,3室1厅1卫,中楼层（34层）,2800 元/月,CD2734776291222880256,2021-06-22,104.052307,30.73317,整租,/权属核验/随时看房/,有,暂无数据,民水,民电,有,自采暖,2021-07-03 13:59:53,成都
金牛-国宾-锦城豪庭,186.19㎡,南北,4室2厅3卫,低楼层（2层）,8000 元/月,CD2812870796626624512,2021-06-27,104.013989,30.713837,整租,/权属核验/近地铁/精装/,无,暂无数据,民水,民电,有,自采暖,2021-07-03 13:59:56,成都
金牛-花牌坊-筒车巷29号,58.54㎡,东南,2室1厅1卫,中楼层（7层）,2000 元/月,CD2813158697226731520,2021-06-23,104.058081,30.685264,整租,/权属核验/,无,暂无数据,民水,民电,有,自采暖,2021-07-03 14:00:05,成都
金牛-沙湾-新熙门,73.34㎡,东南,2室1厅1卫,中楼层（32层）,4100 元/月,CD2803710706208210944,2021-06-27,104.052236,30.690129,整租,/权属核验/精装/,有,暂无数据,民水,民电,有,暂无数据,2021-07-03 14:00:11,成都
金牛-花牌坊-锦城世家,104.40㎡,东南,3室2厅1卫,高楼层（32层）,4800 元/月,CD2804136545076903936,2021-06-27,104.055648,30.68136,整租,/权属核验/精装/,有,暂无数据,民水,民电,有,自采暖,2021-07-03 14:00:17,成都
金牛-蜀汉路-上层建筑,79.28㎡,东南,2室1厅1卫,高楼层（27层）,2800 元/月,CD2805085495795916800,2021-06-16,104.024212,30.694861,整租,//权属核验/精装/随时看房/,有,暂无数据,民水,民电,有,自采暖,2021-07-03 14:00:20,成都
金牛-华侨城-华侨城云岸,94.83㎡,西南,1室0厅1卫,高楼层（22层）,6600 元/月,CD2805046291686490112,2021-07-01,104.036146,30.719755,整租,/权属核验/精装/随时看房/,无,暂无数据,暂无数据,暂无数据,暂无数据,暂无数据,2021-07-03 14:00:22,成都
金牛-高家庄-高家庄赞城,53.86㎡,东北,2室1厅1卫,低楼层（21层）,1800 元/月,CD2737755131273035776,2021-06-11,104.005358,30.711787,整租,/权属核验/精装/,有,暂无数据,民水,民电,有,暂无数据,2021-07-03 14:00:29,成都
金牛-营门口-锦城名都,12.00㎡,东南,2室1厅1卫,中楼层（33层）,1300 元/月,CD2739882934676242432,2021-06-27,104.04688607,30.70580604,合租,/权属核验/近地铁/,有,暂无数据,民水,民电,有,暂无数据,2021-07-03 14:00:33,成都
金牛-茶店子-西西里一期,87.10㎡,东南,2室1厅1卫,高楼层（33层）,2500 元/月,CD2739212364443287552,2021-06-27,104.026393,30.709008,整租,/权属核验/随时看房/,有,租用车位,民水,民电,有,自采暖,2021-07-03 14:00:38,成都
金牛-华侨城-华侨城天鹅堡,135.34㎡,东南,4室2厅2卫,低楼层（32层）,3300 元/月,CD2738210122399752192,2021-06-29,104.035355,30.725122,整租,/权属核验/近地铁/双卫生间/随时看房/,有,暂无数据,民水,民电,有,自采暖,2021-07-03 14:00:43,成都
金牛-金府-电建地产洺悦府,160.22㎡,东南,4室2厅2卫,高楼层（48层）,3800 元/月,CD2808638857875570688,2021-06-27,104.058212,30.721984,整租,/权属核验/双卫生间/随时看房/,无,暂无数据,暂无数据,暂无数据,暂无数据,暂无数据,2021-07-03 14:00:46,成都
金牛-茶店子-锦城苑(金牛),140.00㎡,东南,3室2厅2卫,中楼层（7层）,2800 元/月,CD2715922844612558848,2021-06-27,104.026456,30.695249,整租,/权属核验/近地铁/双卫生间/随时看房/,无,暂无数据,民水,民电,有,自采暖,2021-07-03 14:00:55,成都
金牛-茶店子-西城公馆,56.66㎡,东南,1室1厅1卫,中楼层（30层）,2100 元/月,CD2800650178833686528,2021-06-26,104.034511,30.7017,整租,//权属核验/近地铁/精装/随时看房/,有,租用车位,民水,民电,有,暂无数据,2021-07-03 14:00:59,成都
金牛-茶店子-金域港湾,118.45㎡,东南,3室1厅2卫,高楼层（11层）,3200 元/月,CD2804178458320838656,2021-07-01,104.01974,30.7004,整租,//权属核验/近地铁/精装/双卫生间/,有,暂无数据,民水,民电,有,自采暖,2021-07-03 14:01:05,成都
金牛-茶店子-锦城苑(金牛),53.60㎡,西南,1室1厅1卫,高楼层（8层）,2100 元/月,CD2694250226994118656,2021-07-01,104.026456,30.695249,整租,/权属核验/近地铁/精装/,无,免费使用,暂无数据,暂无数据,有,自采暖,2021-07-03 14:01:09,成都
金牛-茶店子-金域港湾,52.00㎡,东南,1室1厅1卫,中楼层（11层）,2100 元/月,CD2727332636443025408,2021-06-26,104.01974,30.7004,整租,/权属核验/近地铁/精装/随时看房/,有,暂无数据,民水,民电,有,自采暖,2021-07-03 14:01:16,成都
金牛-茶店子-育苗路14号,60.00㎡,东北,2室1厅1卫,高楼层（7层）,1300 元/月,CD2760127685727625216,2021-06-27,104.027005,30.706001,整租,/权属核验/近地铁/,无,暂无数据,暂无数据,暂无数据,有,暂无数据,2021-07-03 14:01:22,成都
金牛-茶店子-西城公馆,81.66㎡,东南,2室1厅1卫,低楼层（30层）,2800 元/月,CD2778065574461448192,2021-06-27,104.034511,30.7017,整租,/权属核验/近地铁/精装/随时看房/,有,暂无数据,民水,民电,有,暂无数据,2021-07-03 14:01:28,成都
金牛-茶店子-阳曦芙蓉城,87.70㎡,东南,2室2厅1卫,中楼层（28层）,2800 元/月,CD2817944779663884288,2021-06-29,104.022512,30.703881,整租,//权属核验/业主自荐/新上/近地铁/精装/,有,租用车位,民水,民电,有,暂无数据,2021-07-03 14:01:31,成都
金牛-茶店子-阳曦芙蓉城,56.70㎡,东南,1室1厅1卫,中楼层（30层）,2000 元/月,CD2820873484492603392,2021-07-02,104.022512,30.703881,整租,/权属核验/新上/近地铁/,有,暂无数据,民水,民电,有,暂无数据,2021-07-03 14:01:37,成都
金牛-茶店子-锦城苑(金牛),138.34㎡,南,3室2厅1卫,中楼层（7层）,2600 元/月,CD2238378628725612544,2021-06-27,104.026456,30.695249,整租,/权属核验/近地铁/随时看房/,无,暂无数据,民水,民电,有,自采暖,2021-07-03 14:01:45,成都
金牛-茶店子-阳曦芙蓉城,85.96㎡,东南,2室2厅1卫,高楼层（27层）,2100 元/月,CD2695538788947460096,2021-06-27,104.022512,30.703881,整租,//权属核验/近地铁/精装/随时看房/,有,租用车位,民水,民电,有,暂无数据,2021-07-03 14:01:53,成都
金牛-茶店子-育苗路2号,85.53㎡,西南北,3室0厅1卫,中楼层（7层）,1000 元/月,CD2701947852468256768,2021-06-27,104.029391,30.707683,合租,/权属核验/近地铁/精装/随时看房/,无,暂无数据,民水,民电,有,自采暖,2021-07-03 14:02:00,成都
金牛-茶店子-锦城苑(金牛),149.15㎡,东南,3室2厅2卫,高楼层（7层）,3000 元/月,CD2763700740634984448,2021-06-27,104.026456,30.695249,整租,/权属核验/近地铁/精装/双卫生间/随时看房/,无,暂无数据,民水,民电,有,自采暖,2021-07-03 14:02:03,成都
金牛-茶店子-西宸原著御景,137.40㎡,西南,3室2厅2卫,中楼层（33层）,2000 元/月,CD2765205642792157184,2021-06-30,104.020525,30.709541,整租,/权属核验/双卫生间/随时看房/,有,租用车位,商水,商电,有,暂无数据,2021-07-03 14:02:09,成都
金牛-茶店子-锦城苑(金牛),136.38㎡,东南,3室2厅1卫,高楼层（7层）,2800 元/月,CD2784617915314880512,2021-06-27,104.026456,30.695249,整租,//权属核验/近地铁/精装/随时看房/,无,租用车位,民水,民电,有,自采暖,2021-07-03 14:02:13,成都
金牛-国宾-万科金域西岭,90.00㎡,南,2室1厅2卫,中楼层（35层）,2700 元/月,CD2815761454882897920,2021-06-27,104.019802,30.716406,整租,//权属核验/近地铁/精装/双卫生间/随时看房/,有,暂无数据,民水,民电,有,暂无数据,2021-07-03 14:02:21,成都
金牛-华侨城-华侨城云岸,56.00㎡,南,1室1厅1卫,中楼层（22层）,2300 元/月,CD2750126491680645120,2021-06-30,104.036146,30.719755,整租,/权属核验/近地铁/,无,暂无数据,商水,商电,无,暂无数据,2021-07-03 14:02:28,成都
金牛-花牌坊-北成星中心,50.22㎡,南,1室1厅1卫,中楼层（26层）,2200 元/月,CD2749299918136156160,2021-07-01,104.078206,30.687466,整租,/权属核验/精装/随时看房/,有,租用车位,商水,商电,无,暂无数据,2021-07-03 14:02:33,成都
金牛-营门口-汇景新村(金牛),140.39㎡,东南,4室2厅2卫,中楼层（6层）,3000 元/月,CD2751435485187407872,2021-07-01,104.044588,30.699461,整租,/权属核验/近地铁/精装/双卫生间/,无,暂无数据,民水,民电,有,自采暖,2021-07-03 14:02:39,成都
金牛-花照壁-金牛新都会,43.00㎡,东南南,1室0厅1卫,低楼层（37层）,2000 元/月,CD2751396862593875968,2021-06-27,104.03152111,30.71143786,整租,/权属核验/精装/,有,暂无数据,民水,民电,无,暂无数据,2021-07-03 14:02:43,成都
金牛-五块石-映日荷花,86.41㎡,东,3室1厅1卫,低楼层（19层）,1600 元/月,CD2816039827491782656,2021-06-27,104.067165,30.719449,整租,//权属核验/随时看房/,有,暂无数据,民水,民电,有,暂无数据,2021-07-03 14:02:52,成都
金牛-五块石-华润银杏华庭,91.00㎡,东南,3室1厅1卫,高楼层（20层）,3000 元/月,CD2815806590123515904,2021-07-02,104.071387,30.718928,整租,/权属核验/精装/,有,暂无数据,民水,民电,有,自采暖,2021-07-03 14:02:59,成都
金牛-金牛万达-炎华置信花千集,29.00㎡,北,1室1厅1卫,中楼层（20层）,2000 元/月,CD2810700798743822336,2021-07-01,104.07283,30.692703,合租,/权属核验/精装/随时看房/,有,暂无数据,商水,商电,无,暂无数据,2021-07-03 14:03:04,成都
金牛-金牛万达-金牛之心荷花池广场1期,101.11㎡,东南,1室0厅0卫,高楼层（22层）,4000 元/月,CD2818787291991392256,2021-06-29,104.083531,30.698361,整租,/权属核验/新上/近地铁/,有,暂无数据,暂无数据,暂无数据,暂无数据,暂无数据,2021-07-03 14:03:11,成都
金牛-国宾-金樽雅庭,80.00㎡,东南,2室1厅1卫,高楼层（11层）,2600 元/月,CD2811690104161042432,2021-06-19,104.00023589268,30.73009876951,整租,/近地铁/,无,暂无数据,暂无数据,暂无数据,有,暂无数据,2021-07-03 14:03:16,成都
金牛-国宾-电子十所宿舍,90.00㎡,东南,3室1厅1卫,高楼层（6层）,1800 元/月,CD2691259923869728768,2021-06-27,104.02461,30.714485,整租,/权属核验/近地铁/精装/随时看房/,无,暂无数据,民水,民电,有,自采暖,2021-07-03 14:03:18,成都
金牛-花牌坊-天合凯旋港,258.00㎡,东南南,1室1厅1卫,低楼层（21层）,9800 元/月,CD2692639632025190400,2021-06-27,104.078007,30.685117,整租,/权属核验/近地铁/随时看房/,有,租用车位,民水,民电,有,自采暖,2021-07-03 14:03:22,成都
金牛-金牛万达-龙门镇二期,78.34㎡,东南北,3室1厅1卫,高楼层（33层）,2800 元/月,CD2697054972826091520,2021-06-30,104.067817,30.695034,整租,/权属核验/近地铁/精装/,有,暂无数据,民水,民电,有,自采暖,2021-07-03 14:03:27,成都
金牛-营门口-人居花照云庭,115.26㎡,东南,3室1厅2卫,高楼层（32层）,2000 元/月,CD2697086459751972864,2021-06-27,104.04271,30.704972,整租,/权属核验/近地铁/双卫生间/随时看房/,无,暂无数据,暂无数据,暂无数据,有,暂无数据,2021-07-03 14:03:30,成都
金牛-一品天下-金港空中花园,91.68㎡,东,2室1厅1卫,中楼层（7层）,3000 元/月,CD2699212682800152576,2021-06-27,104.031207,30.692295,整租,/权属核验/近地铁/精装/随时看房/,无,租用车位,民水,民电,有,自采暖,2021-07-03 14:03:36,成都
金牛-蜀汉路-德意馨苑,95.71㎡,东南,3室2厅1卫,高楼层（6层）,3000 元/月,CD2748586038527000576,2021-06-30,104.015638,30.701631,整租,/权属核验/近地铁/精装/,无,暂无数据,民水,民电,有,自采暖,2021-07-03 14:03:39,成都
金牛-高家庄-蓝光金悦金沙,82.91㎡,东,3室2厅1卫,低楼层（21层）,3200 元/月,CD2747065268336599040,2021-06-27,104.008022,30.703832,整租,/权属核验/精装/,有,暂无数据,民水,民电,有,自采暖,2021-07-03 14:03:45,成都
金牛-沙湾-现代城,79.00㎡,东南,2室1厅1卫,低楼层（31层）,2800 元/月,CD2697796672817201152,2021-07-02,104.053015,30.697927,整租,/权属核验/新上/近地铁/精装/随时看房/,有,暂无数据,民水,民电,有,自采暖,2021-07-03 14:03:54,成都
金牛-华侨城-华侨城云岸,155.00㎡,南,1室0厅1卫,高楼层（23层）,6800 元/月,CD2731916014718820352,2021-06-27,104.036146,30.719755,整租,/权属核验/近地铁/随时看房/,无,暂无数据,商水,商电,无,暂无数据,2021-07-03 14:03:58,成都
金牛-高家庄-西线阳光,89.53㎡,南,3室1厅1卫,高楼层（18层）,2500 元/月,CD2730283829234507776,2021-06-26,104.000704,30.716025,整租,/权属核验/随时看房/,有,暂无数据,民水,民电,有,自采暖,2021-07-03 14:04:02,成都
金牛-五块石-蓝光中央天地,38.00㎡,东,2室1厅1卫,高楼层（23层）,2100 元/月,CD2763831587342139392,2021-07-02,104.071927,30.713499,整租,/权属核验/近地铁/,有,暂无数据,商水,商电,有,暂无数据,2021-07-03 14:04:05,成都
金牛-通惠门-川裕苑,123.95㎡,南,2室1厅1卫,中楼层（8层）,4100 元/月,CD2657064351508201472,2021-07-01,104.054272,30.67599,整租,/权属核验/近地铁/随时看房/,有,暂无数据,商水,商电,有,自采暖,2021-07-03 14:04:12,成都
金牛-沙湾-圃园路4号,101.69㎡,东南,3室1厅2卫,低楼层（7层）,2200 元/月,CD2662268524265226240,2021-06-27,104.061463,30.699754,整租,/权属核验/近地铁/双卫生间/随时看房/,无,租用车位,民水,民电,有,自采暖,2021-07-03 14:04:19,成都
金牛-营门口-锦城名都,118.99㎡,西南,3室2厅2卫,低楼层（33层）,3300 元/月,CD2663049040995811328,2021-06-27,104.04688607,30.70580604,整租,/权属核验/近地铁/双卫生间/随时看房/,有,租用车位,民水,民电,有,暂无数据,2021-07-03 14:04:27,成都
金牛-营门口-金城丽景,25.76㎡,南,1室0厅0卫,地下室（1层）,400 元/月,CD2657138869543649280,2021-06-27,104.049234,30.700153,整租,/权属核验/近地铁/随时看房/,有,暂无数据,民水,民电,有,暂无数据,2021-07-03 14:04:34,成都
