house_address,house_rental_area,house_orientation,house_layout,house_floor,house_rental_price,house_id,house_update_time,house_longitude,house_latitude,house_rental_method,house_tag,house_elevator,house_parking,house_water,house_electricity,house_gas,house_heating,create_time,city
温江-温江新城-和信孔雀天成,81.16㎡,东南,2室1厅1卫,中楼层（26层）,1800 元/月,CD2814335126048620544,2021-07-02,103.848716,30.689934,整租,//权属核验/近地铁/随时看房/,有,免费使用,民水,民电,有,暂无数据,2021-07-03 13:12:35,成都
温江-光华大道沿线-金河谷一期,17.00㎡,南,5室2厅2卫,高楼层（18层）,580 元/月,CD2819438529896259584,2021-07-02,103.90333258901,30.681696727548,合租,/权属核验/新上/公寓/精装/随时看房/,有,租用车位,民水,民电,有,暂无数据,2021-07-03 13:12:41,成都
温江-珠江新城-佳兆业丽晶港,71.51㎡,东南,2室2厅1卫,中楼层（40层）,1600 元/月,CD2814655833093177344,2021-07-01,103.87781087474,30.688063705979,整租,//权属核验/近地铁/随时看房/,有,暂无数据,民水,民电,有,暂无数据,2021-07-03 13:12:47,成都
温江-光华大道沿线-洲际银海湾,12.00㎡,东南,5室1厅1卫,低楼层（32层）,550 元/月,CD2811793810231926784,2021-06-18,103.89346258924,30.689129389431,合租,/权属核验/公寓/月租/近地铁/精装/押一付一/随时看房/,有,租用车位,民水,民电,有,集中供暖,2021-07-03 13:12:52,成都
温江-光华大道沿线-合能珍宝琥珀三期,79.65㎡,南,3室1厅1卫,中楼层（33层）,1700 元/月,CD2814479443559989248,2021-06-23,103.884081,30.679698,整租,//权属核验/近地铁/精装/,有,租用车位,民水,民电,有,自采暖,2021-07-03 13:12:58,成都
温江-光华大道沿线-中国西部文化城,12.00㎡,东,5室1厅3卫,中楼层（7层）,500 元/月,CD2483525639417118720,2021-07-01,103.88811,30.674774,合租,/权属核验/公寓/月租/精装/押一付一/随时看房/,有,免费使用,民水,民电,有,集中供暖,2021-07-03 13:13:05,成都
温江-花都大道-朝阳时代西锦,87.97㎡,东南,2室1厅1卫,低楼层（33层）,1800 元/月,CD2813177321983582208,2021-06-28,103.873377,30.698827,整租,/权属核验/精装/,有,暂无数据,民水,民电,有,自采暖,2021-07-03 13:13:13,成都
温江-花都大道-千禧河畔C区,80.99㎡,东,3室1厅1卫,中楼层（33层）,2200 元/月,CD2814471349215698944,2021-07-01,103.893591,30.694462,整租,/权属核验/精装/,有,租用车位,民水,民电,有,暂无数据,2021-07-03 13:13:22,成都
温江-温江大学城-西财学府尚郡,127.97㎡,南,4室2厅2卫,低楼层（11层）,2000 元/月,CD2770836525162962944,2021-06-29,103.818163,30.681079,整租,/权属核验/近地铁/双卫生间/,有,暂无数据,民水,民电,有,暂无数据,2021-07-03 13:13:26,成都
温江-花都大道-蓝润光华春天A区,95.00㎡,东,3室2厅2卫,高楼层（34层）,2500 元/月,CD2771745335662886912,2021-06-23,103.89347,30.696434,整租,/权属核验/精装/双卫生间/,有,租用车位,民水,民电,有,自采暖,2021-07-03 13:13:30,成都
温江-花都大道-蓝润光华春天A区,81.00㎡,东,3室1厅1卫,高楼层（27层）,2300 元/月,CD2771742687647506432,2021-06-09,103.89347,30.696434,整租,/权属核验/精装/随时看房/,有,租用车位,民水,民电,有,暂无数据,2021-07-03 13:13:32,成都
温江-温江新城-金恒德时代金悦,15.00㎡,东南,4室1厅1卫,中楼层（32层）,620 元/月,CD2313932563271925760,2021-06-29,103.8684893763,30.681590783187,合租,/权属核验/公寓/月租/精装/押一付一/随时看房/,有,免费使用,民水,民电,有,集中供暖,2021-07-03 13:13:38,成都
温江-花都大道-千禧河畔C区,81.20㎡,东,3室1厅1卫,高楼层（33层）,2200 元/月,CD2771739576019468288,2021-06-09,103.893591,30.694462,整租,/权属核验/精装/,有,租用车位,民水,民电,有,暂无数据,2021-07-03 13:13:41,成都
温江-温江新城-金恒德时代金悦,15.00㎡,东,4室1厅1卫,低楼层（31层）,600 元/月,CD2341395849105915904,2021-06-29,103.87092670736,30.681232340572,合租,/权属核验/公寓/月租/精装/押一付一/随时看房/,有,免费使用,民水,民电,有,集中供暖,2021-07-03 13:13:43,成都
温江-温江大学城-农校家属院,126.81㎡,东南,3室2厅2卫,中楼层（6层）,1600 元/月,CD2770252452006731776,2021-06-09,103.825732,30.70133,整租,/权属核验/双卫生间/随时看房/,无,租用车位,民水,民电,有,自采暖,2021-07-03 13:13:49,成都
温江-温江老城-西蜀尚都,64.37㎡,南,2室2厅1卫,低楼层（18层）,1500 元/月,CD2770368680448491520,2021-06-21,103.862477,30.703537,整租,/权属核验/近地铁/,有,租用车位,民水,民电,有,自采暖,2021-07-03 13:13:54,成都
温江-珠江新城-佳兆业丽晶港,119.80㎡,西南,4室2厅2卫,中楼层（33层）,2800 元/月,CD2771116814284103680,2021-06-30,103.87781087474,30.688063705979,整租,/权属核验/近地铁/精装/双卫生间/随时看房/,有,暂无数据,民水,民电,有,暂无数据,2021-07-03 13:14:00,成都
温江-花都大道-蓝润光华春天B区,81.55㎡,东,3室1厅1卫,中楼层（31层）,2200 元/月,CD2771611621401821184,2021-06-25,103.89658531974,30.696493049215,整租,/权属核验/精装/随时看房/,有,租用车位,民水,民电,有,暂无数据,2021-07-03 13:14:04,成都
温江-光华大道沿线-万科朗润园,124.28㎡,东南,3室1厅2卫,低楼层（33层）,2500 元/月,CD2815232675403530240,2021-07-02,103.897897,30.686096,整租,//权属核验/近地铁/精装/双卫生间/随时看房/,有,租用车位,民水,民电,有,自采暖,2021-07-03 13:14:09,成都
温江-国色天乡-鹭湖宫13区,138.00㎡,南北,4室2厅2卫,中楼层（20层）,900 元/月,CD2815061511628652544,2021-07-01,103.83030165652,30.738985598372,整租,/权属核验/双卫生间/,有,暂无数据,暂无数据,暂无数据,有,自采暖,2021-07-03 13:14:12,成都
温江-温江大学城-明信城,89.00㎡,东南,3室2厅2卫,低楼层（33层）,2200 元/月,CD2815162766975827968,2021-07-02,103.83958,30.68478,整租,/权属核验/近地铁/精装/双卫生间/随时看房/,无,暂无数据,民水,民电,有,暂无数据,2021-07-03 13:14:20,成都
温江-光华大道沿线-合能珍宝琥珀,12.00㎡,东,4室1厅1卫,高楼层（34层）,500 元/月,CD2358124370435506176,2021-06-30,103.89351902102,30.677976167907,合租,/权属核验/公寓/月租/近地铁/精装/押一付一/随时看房/,有,免费使用,民水,民电,有,集中供暖,2021-07-03 13:14:28,成都
温江-花都大道-佳年华新生活A区,79.95㎡,东南,3室2厅1卫,高楼层（33层）,2300 元/月,CD2815152845182214144,2021-07-02,103.889194,30.694426,整租,/权属核验/精装/随时看房/,有,租用车位,商水,商电,有,暂无数据,2021-07-03 13:14:36,成都
温江-光华大道沿线-中国西部文化城,14.50㎡,东,4室1厅1卫,低楼层（18层）,620 元/月,CD2356657940289044480,2021-07-01,103.88881950632,30.674784062447,合租,/权属核验/公寓/月租/精装/押一付一/随时看房/,有,免费使用,民水,民电,有,集中供暖,2021-07-03 13:14:43,成都
温江-温江新城-格凌兰,87.77㎡,西北,3室1厅1卫,中楼层（32层）,2000 元/月,CD2815210094613241856,2021-06-27,103.854266,30.6906,整租,/权属核验/近地铁/精装/,有,暂无数据,民水,民电,有,暂无数据,2021-07-03 13:14:50,成都
温江-光华大道沿线-合能珍宝琥珀三期,15.00㎡,东,4室1厅1卫,中楼层（32层）,550 元/月,CD2357771079218905088,2021-06-21,103.88182069269,30.678000379003,合租,/权属核验/公寓/月租/精装/独立阳台/押一付一/随时看房/,有,免费使用,民水,民电,有,集中供暖,2021-07-03 13:14:55,成都
温江-光华大道沿线-洲际亚洲湾A区,81.56㎡,东南,2室2厅1卫,高楼层（38层）,2200 元/月,CD2815272533757272064,2021-07-01,103.887978,30.68813,整租,//权属核验/精装/随时看房/,有,暂无数据,民水,民电,有,自采暖,2021-07-03 13:15:01,成都
温江-光华大道沿线-洲际春天广场,15.00㎡,东,4室1厅1卫,高楼层（38层）,600 元/月,CD2457398894053826560,2021-06-19,103.87783957602,30.681149432081,合租,/权属核验/公寓/月租/精装/独立阳台/押一付一/随时看房/,有,免费使用,民水,民电,有,集中供暖,2021-07-03 13:15:05,成都
温江-光华大道沿线-金科天宸B区,89.54㎡,南北,3室1厅2卫,中楼层（26层）,1800 元/月,CD2773244861527097344,2021-06-12,103.88633044204,30.671324604197,整租,/权属核验/精装/双卫生间/,有,暂无数据,民水,民电,有,暂无数据,2021-07-03 13:15:13,成都
温江-光华大道沿线-金科天宸,12.00㎡,东,4室1厅1卫,中楼层（34层）,650 元/月,CD2307821470136401920,2021-07-03,103.888806,30.672523,合租,/权属核验/公寓/月租/精装/独立阳台/押一付一/随时看房/,有,免费使用,民水,民电,有,集中供暖,2021-07-03 13:15:22,成都
温江-温江大学城-雅砻阳光花园,82.08㎡,东,2室1厅1卫,低楼层（26层）,1000 元/月,CD2787708013170409472,2021-07-01,103.823483,30.674664,整租,/权属核验/近地铁/随时看房/,有,暂无数据,民水,民电,有,暂无数据,2021-07-03 13:15:28,成都
温江-温江新城-金恒德时代金悦,10.00㎡,东,4室1厅1卫,高楼层（31层）,500 元/月,CD2313930903828561920,2021-07-03,103.87100833288,30.681651560868,合租,/权属核验/公寓/月租/精装/押一付一/随时看房/,有,免费使用,民水,民电,有,集中供暖,2021-07-03 13:15:35,成都
温江-光华大道沿线-瑞泉馨城生活广场,69.28㎡,南北,3室2厅2卫,低楼层（16层）,1800 元/月,CD2767376355929890816,2021-06-21,103.87651014003,30.675837789428,整租,/权属核验/精装/双卫生间/随时看房/,有,租用车位,暂无数据,暂无数据,有,暂无数据,2021-07-03 13:15:40,成都
温江-温江大学城-恒大御景,12.00㎡,东南,4室1厅2卫,高楼层（40层）,700 元/月,CD2812136839438409728,2021-07-01,103.80650739581,30.651639332867,合租,/权属核验/公寓/月租/精装/随时看房/,有,租用车位,民水,民电,有,暂无数据,2021-07-03 13:15:43,成都
温江-光华大道沿线-天来汇景,85.90㎡,北,3室1厅2卫,高楼层（31层）,1700 元/月,CD2768855346330992640,2021-06-27,103.87849,30.682512,整租,/权属核验/近地铁/精装/双卫生间/随时看房/,无,租用车位,暂无数据,暂无数据,有,暂无数据,2021-07-03 13:15:51,成都
温江-温江大学城-恒大御景,25.00㎡,东南,4室1厅2卫,高楼层（40层）,1000 元/月,CD2812136735461883904,2021-07-01,103.80650739581,30.651639332867,合租,/权属核验/公寓/独立卫生间/月租/精装/随时看房/,有,租用车位,民水,民电,有,暂无数据,2021-07-03 13:15:55,成都
温江-温江新城-云鼎,37.99㎡,东南,1室0厅0卫,低楼层（20层）,900 元/月,CD2767294720571867136,2021-06-22,103.860127,30.690846,整租,/权属核验/近地铁/随时看房/,有,租用车位,商水,商电,无,暂无数据,2021-07-03 13:16:01,成都
温江-光华大道沿线-边城香格里,91.03㎡,北,3室1厅1卫,低楼层（24层）,2000 元/月,CD2768750990495850496,2021-06-26,103.88362,30.682243,整租,/权属核验/精装/随时看房/,有,租用车位,民水,民电,有,自采暖,2021-07-03 13:16:04,成都
温江-光华大道沿线-万科朗润园,88.36㎡,东南,3室1厅1卫,高楼层（33层）,2000 元/月,CD2335511362874654720,2021-06-27,103.897897,30.686096,整租,/权属核验/近地铁/精装/随时看房/,有,暂无数据,民水,民电,有,自采暖,2021-07-03 13:16:07,成都
温江-温江新城-依云,92.86㎡,东南,4室2厅3卫,低楼层（5层）,2500 元/月,CD2349886887629692928,2021-06-27,103.87149,30.685399,整租,/权属核验/近地铁/随时看房/,无,租用车位,民水,民电,有,自采暖,2021-07-03 13:16:14,成都
温江-花都大道-尚西花郡,102.00㎡,南,2室2厅1卫,高楼层（17层）,1700 元/月,CD2770895108785586176,2021-06-19,103.871879,30.697543,整租,/权属核验/精装/,有,暂无数据,民水,民电,有,暂无数据,2021-07-03 13:16:19,成都
温江-光华大道沿线-公园大道,11.00㎡,东南,5室2厅2卫,高楼层（12层）,500 元/月,CD2804824131516760064,2021-06-22,103.88698930644,30.686171799326,合租,/权属核验/公寓/月租/精装/独立阳台/随时看房/,有,租用车位,民水,民电,有,暂无数据,2021-07-03 13:16:22,成都
温江-花都大道-嘉瑞国际,131.06㎡,东南,4室2厅2卫,中楼层（33层）,2000 元/月,CD2788382567681245184,2021-06-09,103.866736,30.702542,整租,/权属核验/双卫生间/,有,租用车位,民水,民电,有,自采暖,2021-07-03 13:16:28,成都
温江-花都大道-千禧河畔D区,12.00㎡,东南,4室1厅1卫,低楼层（32层）,700 元/月,CD2804471515800936448,2021-06-19,103.89391240646,30.693307398245,合租,/权属核验/公寓/月租/随时看房/,有,租用车位,民水,民电,有,暂无数据,2021-07-03 13:16:36,成都
温江-花都大道-千禧河畔C区,80.96㎡,东南,3室2厅1卫,低楼层（33层）,2200 元/月,CD2789877272344002560,2021-06-30,103.893591,30.694462,整租,/权属核验/精装/随时看房/,有,暂无数据,民水,民电,有,暂无数据,2021-07-03 13:16:42,成都
温江-国色天乡-鹭湖宫13区,138.45㎡,东南,4室2厅2卫,高楼层（33层）,900 元/月,CD2789881981322928128,2021-06-21,103.83030165652,30.738985598372,整租,/权属核验/双卫生间/,有,暂无数据,民水,民电,有,自采暖,2021-07-03 13:16:46,成都
温江-光华大道沿线-合能珍宝琥珀三期,104.74㎡,西南,3室2厅2卫,中楼层（32层）,1100 元/月,CD2789157568163872768,2021-06-22,103.884081,30.679698,整租,/权属核验/近地铁/双卫生间/随时看房/,有,暂无数据,民水,民电,有,自采暖,2021-07-03 13:16:54,成都
温江-温江大学城-中满春花苑,126.61㎡,南北,4室2厅2卫,中楼层（33层）,2200 元/月,CD2789712211919519744,2021-06-27,103.801586,30.695699,整租,/权属核验/精装/双卫生间/随时看房/,有,暂无数据,暂无数据,民电,有,暂无数据,2021-07-03 13:17:00,成都
温江-花都大道-蓝润光华春天A区,70.97㎡,东南,2室2厅1卫,中楼层（34层）,2200 元/月,CD2771014299076788224,2021-06-30,103.89347,30.696434,整租,/权属核验/精装/,有,租用车位,民水,民电,有,自采暖,2021-07-03 13:17:04,成都
温江-花都大道-佳年华新生活A区,79.00㎡,东南,3室1厅1卫,中楼层（33层）,2300 元/月,CD2769455431973093376,2021-06-27,103.889194,30.694426,整租,/权属核验/精装/随时看房/,有,暂无数据,民水,民电,有,自采暖,2021-07-03 13:17:11,成都
温江-温江大学城-西财学府尚郡,70.09㎡,东南,3室2厅1卫,高楼层（18层）,1500 元/月,CD2370068675290988544,2021-06-29,103.818163,30.681079,整租,/权属核验/近地铁/精装/,有,暂无数据,民水,民电,有,自采暖,2021-07-03 13:17:20,成都
温江-光华大道沿线-公园大道,11.00㎡,东南,5室2厅2卫,高楼层（12层）,500 元/月,CD2804903907858587648,2021-06-22,103.88698930644,30.686171799326,合租,/权属核验/公寓/月租/精装/随时看房/,有,租用车位,民水,民电,有,暂无数据,2021-07-03 13:17:27,成都
温江-珠江新城-佳兆业丽晶港,89.83㎡,东西,3室1厅1卫,中楼层（40层）,2500 元/月,CD2772378418556444672,2021-06-27,103.87781087474,30.688063705979,整租,/权属核验/近地铁/随时看房/,有,暂无数据,民水,民电,有,暂无数据,2021-07-03 13:17:34,成都
温江-光华大道沿线-公园大道,11.00㎡,东南,5室2厅2卫,高楼层（12层）,500 元/月,CD2804903910651723776,2021-06-22,103.88698930644,30.686171799326,合租,/权属核验/公寓/月租/精装/随时看房/,有,租用车位,民水,民电,有,暂无数据,2021-07-03 13:17:42,成都
温江-光华大道沿线-中国西部文化城,107.80㎡,东西,3室2厅2卫,低楼层（18层）,2000 元/月,CD2792541372048220160,2021-06-27,103.88757412838,30.675709334212,整租,/权属核验/双卫生间/,有,暂无数据,民水,民电,有,暂无数据,2021-07-03 13:17:46,成都
温江-光华大道沿线-公园大道,11.00㎡,东南,5室2厅2卫,高楼层（12层）,500 元/月,CD2801978633735118848,2021-06-22,103.88698930644,30.686171799326,合租,/权属核验/公寓/月租/精装/独立阳台/随时看房/,有,租用车位,民水,民电,有,暂无数据,2021-07-03 13:17:49,成都
温江-国色天乡-鹭湖宫七号B组,88.03㎡,东南,2室1厅1卫,中楼层（30层）,2000 元/月,CD2771028523203436544,2021-06-16,103.831247,30.739729,整租,/权属核验/精装/随时看房/,有,暂无数据,民水,民电,有,暂无数据,2021-07-03 13:17:55,成都
温江-温江大学城-恒大御景,18.00㎡,东南,4室1厅2卫,高楼层（40层）,800 元/月,CD2812087786935689216,2021-07-01,103.80650739581,30.651639332867,合租,/权属核验/公寓/月租/精装/独立阳台/随时看房/,有,租用车位,民水,民电,有,暂无数据,2021-07-03 13:18:02,成都
温江-温江老城-欧郡,38.39㎡,东南,1室1厅1卫,中楼层（16层）,700 元/月,CD2774052439891124224,2021-06-27,103.844606,30.691764,整租,/权属核验/近地铁/随时看房/,有,租用车位,商水,商电,有,暂无数据,2021-07-03 13:18:05,成都
温江-温江大学城-恒大御景,13.00㎡,东南,4室1厅2卫,高楼层（40层）,700 元/月,CD2812087818250092544,2021-07-01,103.80650739581,30.651639332867,合租,/权属核验/公寓/月租/精装/随时看房/,有,租用车位,民水,民电,有,暂无数据,2021-07-03 13:18:08,成都
温江-花都大道-蓝润光华春天B区,94.22㎡,南,3室1厅1卫,中楼层（31层）,2500 元/月,CD2792157144878170112,2021-06-27,103.89658531974,30.696493049215,整租,/权属核验/精装/随时看房/,有,暂无数据,民水,民电,有,暂无数据,2021-07-03 13:18:18,成都
温江-光华大道沿线-光华之心,13.00㎡,东南,4室1厅2卫,高楼层（32层）,700 元/月,CD2821008563445702656,2021-07-01,103.88430589232,30.694231156542,合租,/权属核验/新上/公寓/月租/精装/随时看房/,有,租用车位,民水,民电,有,暂无数据,2021-07-03 13:18:25,成都
温江-光华大道沿线-洲际银海湾,142.79㎡,东,4室2厅2卫,高楼层（22层）,2400 元/月,CD2775275979604492288,2021-07-01,103.89409,30.68825,整租,//权属核验/近地铁/精装/双卫生间/随时看房/,有,暂无数据,民水,民电,有,自采暖,2021-07-03 13:18:28,成都
温江-光华大道沿线-光华之心,20.00㎡,东南,4室1厅2卫,高楼层（32层）,850 元/月,CD2821008530956353536,2021-07-01,103.88430589232,30.694231156542,合租,/权属核验/新上/公寓/月租/精装/独立阳台/随时看房/,有,租用车位,民水,民电,有,暂无数据,2021-07-03 13:18:32,成都
温江-温江大学城-中铁丽景书香,106.00㎡,南,3室2厅2卫,低楼层（33层）,1800 元/月,CD2791911866937647104,2021-06-27,103.816062,30.68712,整租,//权属核验/精装/双卫生间/随时看房/,有,租用车位,民水,民电,有,自采暖,2021-07-03 13:18:40,成都
温江-光华大道沿线-光华之心,12.00㎡,东南,4室1厅2卫,高楼层（32层）,700 元/月,CD2821008901129388032,2021-07-01,103.88430589232,30.694231156542,合租,/权属核验/新上/公寓/月租/精装/随时看房/,有,租用车位,民水,民电,有,暂无数据,2021-07-03 13:18:47,成都
温江-温江大学城-西财学府阳光,79.54㎡,南,2室1厅1卫,低楼层（18层）,1600 元/月,CD2794961111517511680,2021-06-26,103.820352,30.683297,整租,/权属核验/近地铁/随时看房/,有,暂无数据,民水,民电,有,暂无数据,2021-07-03 13:18:53,成都
温江-光华大道沿线-春天大道,128.98㎡,北,3室1厅2卫,低楼层（25层）,3500 元/月,CD2770932086734340096,2021-06-27,103.901418,30.684799,整租,/权属核验/近地铁/精装/双卫生间/随时看房/,有,暂无数据,民水,民电,有,自采暖,2021-07-03 13:19:01,成都
温江-花都大道-朝阳时代西锦,111.00㎡,东北,3室2厅1卫,中楼层（33层）,1900 元/月,CD2770823543875969024,2021-06-27,103.873377,30.698827,整租,/权属核验/精装/随时看房/,有,暂无数据,民水,民电,有,自采暖,2021-07-03 13:19:09,成都
温江-温江新城-光华国际,89.83㎡,东南,2室1厅1卫,低楼层（32层）,1800 元/月,CD2771022083117809664,2021-06-21,103.869772,30.687217,整租,/权属核验/近地铁/精装/,有,暂无数据,民水,民电,有,自采暖,2021-07-03 13:19:15,成都
温江-温江大学城-东原城,87.06㎡,南北,3室1厅1卫,高楼层（26层）,1500 元/月,CD2770849837951238144,2021-06-06,103.815115,30.650568,整租,/权属核验/精装/随时看房/,有,暂无数据,民水,民电,有,暂无数据,2021-07-03 13:19:21,成都
温江-光华大道沿线-恒大未来城,125.00㎡,南,3室2厅2卫,中楼层（32层）,2500 元/月,CD2744169071259164672,2021-06-26,103.872129,30.680102,整租,/权属核验/精装/双卫生间/,有,租用车位,暂无数据,暂无数据,有,暂无数据,2021-07-03 13:19:25,成都
温江-光华大道沿线-创＋理想城,48.56㎡,东南,2室1厅2卫,中楼层（18层）,2000 元/月,CD2771597022447542272,2021-06-27,103.879976,30.680393,整租,/权属核验/近地铁/精装/双卫生间/随时看房/,有,暂无数据,商水,商电,有,暂无数据,2021-07-03 13:19:34,成都
温江-温江大学城-西财学府尚郡,100.00㎡,南,3室1厅1卫,高楼层（11层）,700 元/月,CD2741978413517504512,2021-07-01,103.818163,30.681079,整租,/权属核验/近地铁/,有,暂无数据,民水,民电,有,暂无数据,2021-07-03 13:19:42,成都
温江-花都大道-佳年华新生活,80.68㎡,东北,3室1厅1卫,中楼层（31层）,2200 元/月,CD2771227297276239872,2021-06-27,103.889059,30.692109,整租,/权属核验/精装/随时看房/,有,暂无数据,民水,民电,有,自采暖,2021-07-03 13:19:46,成都
温江-光华大道沿线-西班牙森林二期,118.00㎡,南,3室1厅1卫,低楼层（34层）,2000 元/月,CD2772446198299639808,2021-06-30,103.900245,30.696234,整租,/权属核验/精装/随时看房/,有,暂无数据,民水,民电,有,自采暖,2021-07-03 13:19:50,成都
温江-温江新城-云鼎,38.00㎡,东南,1室1厅1卫,低楼层（26层）,1500 元/月,CD2774636585349038080,2021-06-28,103.860127,30.690846,整租,/权属核验/近地铁/随时看房/,无,租用车位,暂无数据,暂无数据,暂无数据,暂无数据,2021-07-03 13:19:54,成都
温江-温江新城-依云,92.86㎡,南,2室1厅1卫,低楼层（28层）,1700 元/月,CD2779512920835899392,2021-06-30,103.87149,30.685399,整租,//权属核验/精装/随时看房/,有,暂无数据,民水,民电,有,暂无数据,2021-07-03 13:19:59,成都
温江-温江大学城-西财学府憬城,89.11㎡,东南,3室2厅1卫,中楼层（26层）,1550 元/月,CD2749871359835512832,2021-06-27,103.821646,30.681115,整租,/权属核验/近地铁/,有,暂无数据,民水,民电,有,暂无数据,2021-07-03 13:20:07,成都
温江-光华大道沿线-天来汇景,109.04㎡,东南,3室2厅2卫,中楼层（32层）,2600 元/月,CD2778176447162875904,2021-06-19,103.87849,30.682512,整租,/权属核验/近地铁/精装/双卫生间/,有,暂无数据,民水,民电,有,暂无数据,2021-07-03 13:20:09,成都
温江-温江大学城-翰城,126.41㎡,南北,3室3厅2卫,中楼层（5层）,2200 元/月,CD2751349276327559168,2021-06-10,103.821586,30.697789,整租,/权属核验/精装/双卫生间/随时看房/,无,暂无数据,民水,民电,有,自采暖,2021-07-03 13:20:15,成都
温江-温江新城-光华国际,96.92㎡,东北,2室1厅1卫,高楼层（30层）,2400 元/月,CD2776807427922993152,2021-06-01,103.869772,30.687217,整租,/权属核验/近地铁/精装/随时看房/,有,暂无数据,民水,民电,有,自采暖,2021-07-03 13:20:20,成都
温江-国色天乡-鹭湖宫六区B组团,88.55㎡,南北,3室2厅2卫,中楼层（30层）,1800 元/月,CD2750728769315807232,2021-06-03,103.840479,30.726362,整租,/权属核验/精装/双卫生间/随时看房/,有,暂无数据,民水,民电,有,自采暖,2021-07-03 13:20:25,成都
温江-温江新城-光华瑞廷,86.08㎡,东,3室1厅2卫,高楼层（25层）,1800 元/月,CD2750743020226740224,2021-06-27,103.848634,30.684865,整租,/权属核验/精装/双卫生间/,有,暂无数据,民水,民电,有,暂无数据,2021-07-03 13:20:31,成都
温江-花都大道-千禧河畔B区,78.57㎡,东南,2室1厅1卫,中楼层（33层）,2300 元/月,CD2780448735220465664,2021-06-27,103.886767,30.6927,整租,/权属核验/精装/,有,暂无数据,民水,民电,有,自采暖,2021-07-03 13:20:37,成都
温江-温江新城-恒大城一期,88.22㎡,东南,3室1厅1卫,低楼层（33层）,1800 元/月,CD2754976083765108736,2021-06-18,103.858672,30.686107,整租,/权属核验/精装/随时看房/,有,暂无数据,民水,民电,有,自采暖,2021-07-03 13:20:43,成都
温江-光华大道沿线-春天大道,165.00㎡,南,4室2厅2卫,高楼层（22层）,4100 元/月,CD2753583041799790592,2021-06-27,103.901418,30.684799,整租,/权属核验/精装/双卫生间/,有,暂无数据,民水,民电,有,自采暖,2021-07-03 13:20:50,成都
温江-温江老城-凯信双子国际,52.96㎡,东南,3室3厅3卫,中楼层（30层）,3800 元/月,CD2753645461515534336,2021-06-27,103.835608,30.707142,整租,/权属核验/近地铁/精装/随时看房/,有,租用车位,暂无数据,暂无数据,有,暂无数据,2021-07-03 13:20:53,成都
温江-花都大道-佳年华新生活A区,79.18㎡,西南,3室2厅1卫,高楼层（31层）,2300 元/月,CD2754185852992094208,2021-06-20,103.889194,30.694426,整租,/权属核验/随时看房/,有,暂无数据,商水,商电,有,暂无数据,2021-07-03 13:20:58,成都
温江-花都大道-佳年华新生活,99.89㎡,东南,2室2厅1卫,低楼层（34层）,2000 元/月,CD2752786845686841344,2021-05-31,103.889059,30.692109,整租,/权属核验/精装/随时看房/,有,暂无数据,民水,民电,有,暂无数据,2021-07-03 13:21:06,成都
温江-光华大道沿线-金河谷四期,110.49㎡,东南,3室1厅1卫,中楼层（31层）,2200 元/月,CD2754860903831969792,2021-07-01,103.902516,30.679058,整租,/权属核验/近地铁/精装/,有,暂无数据,民水,民电,有,暂无数据,2021-07-03 13:21:12,成都
温江-国色天乡-鹭湖宫10区,103.00㎡,东南,3室2厅2卫,高楼层（32层）,2200 元/月,CD2754350789685420032,2021-06-15,103.826691,30.739577,整租,/权属核验/精装/双卫生间/随时看房/,无,租用车位,暂无数据,暂无数据,有,暂无数据,2021-07-03 13:21:20,成都
温江-温江新城-金恒德时代金悦,83.82㎡,西北北,3室1厅1卫,低楼层（31层）,2100 元/月,CD2779519290616061952,2021-06-26,103.86932415003,30.681205516218,整租,/权属核验/精装/随时看房/,有,暂无数据,民水,民电,有,自采暖,2021-07-03 13:21:28,成都
温江-光华大道沿线-金河谷五期,88.92㎡,西南,3室1厅2卫,低楼层（34层）,2000 元/月,CD2780282648717688832,2021-06-27,103.907137,30.679212,整租,/权属核验/精装/双卫生间/,有,租用车位,民水,民电,有,自采暖,2021-07-03 13:21:32,成都
温江-光华大道沿线-合能珍宝琥珀三期,169.31㎡,南,4室2厅3卫,低楼层（31层）,3500 元/月,CD2780428683679105024,2021-07-02,103.884081,30.679698,整租,//权属核验/精装/随时看房/,有,暂无数据,民水,民电,有,自采暖,2021-07-03 13:21:37,成都
温江-花都大道-千禧河畔B区,78.40㎡,南,3室2厅1卫,高楼层（33层）,2500 元/月,CD2781003062163554304,2021-06-13,103.886767,30.6927,整租,/权属核验/精装/随时看房/,有,租用车位,民水,民电,有,自采暖,2021-07-03 13:21:43,成都
温江-花都大道-蓝润光华春天B区,81.00㎡,南,3室2厅1卫,低楼层（31层）,2300 元/月,CD2755745355004903424,2021-06-27,103.89658531974,30.696493049215,整租,/权属核验/精装/,有,暂无数据,民水,民电,有,暂无数据,2021-07-03 13:21:50,成都
温江-花都大道-佳年华新生活A区,90.00㎡,东南,3室2厅1卫,高楼层（33层）,2000 元/月,CD2756365456176070656,2021-06-27,103.889194,30.694426,整租,/权属核验/精装/,有,暂无数据,民水,民电,有,自采暖,2021-07-03 13:21:53,成都
温江-温江新城-云鼎,79.00㎡,南,1室0厅0卫,高楼层（23层）,1600 元/月,CD2755902854450921472,2021-07-02,103.860127,30.690846,整租,/权属核验/近地铁/随时看房/,有,暂无数据,暂无数据,暂无数据,无,暂无数据,2021-07-03 13:22:00,成都
温江-珠江新城-珠江悦湖国际,46.78㎡,东北,1室1厅1卫,低楼层（46层）,1650 元/月,CD2755745217515888640,2021-06-27,103.868519,30.691145,整租,/权属核验/近地铁/精装/,有,暂无数据,暂无数据,商电,无,暂无数据,2021-07-03 13:22:07,成都
温江-温江老城-涤纶厂家属院,79.30㎡,东南,3室1厅1卫,高楼层（6层）,1400 元/月,CD2757155491971858432,2021-06-27,103.837679,30.707554,整租,/权属核验/近地铁/,无,暂无数据,暂无数据,暂无数据,暂无数据,暂无数据,2021-07-03 13:22:15,成都
温江-光华大道沿线-合能珍宝琥珀,84.77㎡,南,3室2厅1卫,低楼层（34层）,1950 元/月,CD2755228751834398720,2021-07-02,103.894555,30.677477,整租,/权属核验/近地铁/精装/,有,暂无数据,民水,民电,有,自采暖,2021-07-03 13:22:23,成都
温江-温江大学城-西财学府阳光,87.81㎡,东南,3室2厅1卫,低楼层（18层）,1800 元/月,CD2757911412918722560,2021-06-28,103.820352,30.683297,整租,//权属核验/随时看房/,有,暂无数据,民水,民电,有,自采暖,2021-07-03 13:22:32,成都
温江-花都大道-千禧河畔A区,78.47㎡,南,3室2厅1卫,低楼层（26层）,2000 元/月,CD2781180463237308416,2021-07-02,103.88658,30.694547,整租,/权属核验/精装/随时看房/,有,暂无数据,暂无数据,暂无数据,有,暂无数据,2021-07-03 13:22:41,成都
温江-花都大道-嘉瑞国际,88.43㎡,东南,2室1厅1卫,中楼层（33层）,2400 元/月,CD2781729842142380032,2021-06-30,103.866736,30.702542,整租,/权属核验/精装/,有,暂无数据,民水,民电,有,自采暖,2021-07-03 13:22:46,成都
温江-花都大道-千禧河畔B区,88.51㎡,南,3室2厅2卫,低楼层（33层）,3000 元/月,CD2781902782867701760,2021-06-18,103.886767,30.6927,整租,/权属核验/精装/双卫生间/随时看房/,有,租用车位,民水,民电,有,自采暖,2021-07-03 13:22:54,成都
温江-花都大道-千禧河畔D区,106.26㎡,东南,3室2厅2卫,低楼层（26层）,2400 元/月,CD2782677309294125056,2021-06-28,103.89377903263,30.693405228556,整租,/权属核验/精装/双卫生间/随时看房/,有,暂无数据,民水,民电,有,暂无数据,2021-07-03 13:23:02,成都
温江-光华大道沿线-恒大未来城,90.00㎡,南北,3室1厅1卫,高楼层（33层）,1800 元/月,CD2783261578970546176,2021-07-02,103.872129,30.680102,整租,//权属核验/精装/随时看房/,无,暂无数据,暂无数据,暂无数据,暂无数据,暂无数据,2021-07-03 13:23:09,成都
温江-光华大道沿线-洲际亚洲湾B区,142.11㎡,南,4室2厅2卫,中楼层（29层）,1500 元/月,CD2758647264716267520,2021-06-27,103.889159,30.68773,整租,/权属核验/近地铁/双卫生间/随时看房/,有,暂无数据,民水,民电,有,自采暖,2021-07-03 13:23:16,成都
温江-花都大道-佳兆业丽晶公馆,85.40㎡,南,3室2厅2卫,高楼层（39层）,1900 元/月,CD2758487878681239552,2021-06-27,103.876984,30.695428,整租,/权属核验/双卫生间/随时看房/,有,暂无数据,民水,民电,有,暂无数据,2021-07-03 13:23:19,成都
温江-国色天乡-鹭湖宫八区,82.14㎡,东南,2室2厅1卫,中楼层（32层）,1800 元/月,CD2760056138274971648,2021-07-02,103.842522,30.720551,整租,/权属核验/,有,暂无数据,民水,民电,有,暂无数据,2021-07-03 13:23:27,成都
温江-花都大道-千禧河畔D区,78.00㎡,西北,3室2厅1卫,中楼层（28层）,2200 元/月,CD2784115977435226112,2021-07-01,103.89377903263,30.693405228556,整租,/权属核验/精装/,有,暂无数据,暂无数据,暂无数据,有,暂无数据,2021-07-03 13:23:33,成都
温江-珠江新城-珠江悦湖国际,54.79㎡,东南,1室1厅1卫,中楼层（46层）,2000 元/月,CD2760738837696086016,2021-06-17,103.868519,30.691145,整租,/权属核验/近地铁/精装/随时看房/,有,暂无数据,暂无数据,商电,无,暂无数据,2021-07-03 13:23:38,成都
温江-温江大学城-金强大学城,83.50㎡,东南,3室1厅1卫,高楼层（18层）,2000 元/月,CD2783962568300175360,2021-06-27,103.829624,30.691805,整租,//权属核验/近地铁/精装/随时看房/,有,暂无数据,民水,民电,有,自采暖,2021-07-03 13:23:44,成都
温江-花都大道-千禧河畔B区,82.04㎡,南,3室2厅1卫,低楼层（26层）,2100 元/月,CD2760889880346370048,2021-07-02,103.886767,30.6927,整租,/权属核验/随时看房/,有,暂无数据,民水,民电,有,自采暖,2021-07-03 13:23:53,成都
温江-温江新城-恒大城三期,118.29㎡,东南,3室2厅2卫,高楼层（30层）,2500 元/月,CD2760682298788814848,2021-06-13,103.855738,30.68701,整租,/权属核验/精装/双卫生间/,有,租用车位,民水,民电,有,暂无数据,2021-07-03 13:23:56,成都
温江-光华大道沿线-合能珍宝琥珀,82.24㎡,西,3室2厅1卫,低楼层（27层）,1800 元/月,CD2761541072684859392,2021-06-22,103.894555,30.677477,整租,/权属核验/近地铁/随时看房/,有,暂无数据,民水,民电,有,暂无数据,2021-07-03 13:24:04,成都
温江-花都大道-尚西花郡,143.32㎡,东南南,3室2厅2卫,低楼层（22层）,2500 元/月,CD2760860222322122752,2021-06-11,103.871879,30.697543,整租,/权属核验/精装/双卫生间/随时看房/,有,暂无数据,民水,民电,有,暂无数据,2021-07-03 13:24:08,成都
温江-温江新城-星光华印象,86.14㎡,东东南,3室1厅1卫,中楼层（42层）,1900 元/月,CD2760958498354503680,2021-06-27,103.874251,30.683779,整租,//权属核验/近地铁/精装/随时看房/,有,暂无数据,民水,民电,有,自采暖,2021-07-03 13:24:16,成都
温江-温江大学城-东原城,88.71㎡,东南,3室2厅2卫,中楼层（33层）,1500 元/月,CD2731882310818873344,2021-06-27,103.815115,30.650568,整租,/权属核验/精装/双卫生间/,有,租用车位,民水,民电,有,暂无数据,2021-07-03 13:24:19,成都
温江-温江大学城-明信仕林府,89.71㎡,东南,3室1厅2卫,高楼层（26层）,2300 元/月,CD2734154002873712640,2021-06-29,103.839683,30.680575,整租,/权属核验/近地铁/精装/双卫生间/,有,暂无数据,民水,民电,有,自采暖,2021-07-03 13:24:25,成都
温江-温江老城-成钞家园,102.28㎡,东南,3室2厅2卫,高楼层（6层）,1200 元/月,CD2733854395267039232,2021-06-23,103.832036,30.707992,整租,/权属核验/近地铁/双卫生间/随时看房/,无,租用车位,民水,民电,有,自采暖,2021-07-03 13:24:31,成都
温江-光华大道沿线-上风瑞庭,95.51㎡,东,2室1厅1卫,高楼层（18层）,3500 元/月,CD2731290527491432448,2021-06-26,103.87433,30.680067,整租,/权属核验/精装/,有,暂无数据,民水,民电,有,暂无数据,2021-07-03 13:24:36,成都
温江-花都大道-佳年华新生活A区,79.00㎡,东,3室1厅1卫,中楼层（31层）,2100 元/月,CD2733126738107170816,2021-06-27,103.889194,30.694426,整租,/权属核验/精装/,有,免费使用,暂无数据,暂无数据,有,自采暖,2021-07-03 13:24:41,成都
温江-珠江新城-珠江御景湾,140.00㎡,东南,3室2厅2卫,中楼层（18层）,3200 元/月,CD2733877293281198080,2021-06-20,103.873617,30.690868,整租,/权属核验/近地铁/精装/双卫生间/,有,暂无数据,民水,民电,有,自采暖,2021-07-03 13:24:45,成都
温江-光华大道沿线-金科天宸,89.58㎡,南,3室2厅2卫,低楼层（33层）,2000 元/月,CD2733385094642540544,2021-06-28,103.88785332848,30.672003384286,整租,/权属核验/精装/双卫生间/,有,免费使用,民水,民电,有,自采暖,2021-07-03 13:24:51,成都
温江-光华大道沿线-金河谷一期,88.72㎡,南,2室2厅1卫,中楼层（18层）,2000 元/月,CD2812185755164876800,2021-07-02,103.902073,30.681937,整租,//权属核验/精装/随时看房/,有,暂无数据,民水,民电,有,暂无数据,2021-07-03 13:24:54,成都
温江-花都大道-世纪光华,85.40㎡,东南,2室2厅1卫,中楼层（18层）,1500 元/月,CD2802947090618531840,2021-06-29,103.868526,30.704063,整租,//权属核验/精装/随时看房/,有,暂无数据,民水,民电,有,自采暖,2021-07-03 13:24:56,成都
温江-花都大道-蓝润光华春天B区,71.46㎡,南,3室1厅1卫,低楼层（34层）,2000 元/月,CD2802882511389335552,2021-06-30,103.89658531974,30.696493049215,整租,/权属核验/精装/随时看房/,有,暂无数据,民水,民电,有,暂无数据,2021-07-03 13:25:05,成都
温江-国色天乡-鹭湖宫十一区,92.00㎡,东南,3室2厅1卫,高楼层（33层）,2000 元/月,CD2802907008641548288,2021-07-02,103.829645,30.740069,整租,/权属核验/精装/,有,暂无数据,暂无数据,暂无数据,有,暂无数据,2021-07-03 13:25:14,成都
温江-珠江新城-珠江克莱公寓,48.70㎡,东南,1室1厅1卫,高楼层（31层）,1500 元/月,CD2803406304872235008,2021-06-27,103.864472,30.693498,整租,/权属核验/近地铁/,有,暂无数据,民水,民电,有,暂无数据,2021-07-03 13:25:20,成都
温江-温江新城-塞纳河畔,132.87㎡,东南,3室1厅2卫,低楼层（6层）,2000 元/月,CD2803598606513209344,2021-07-01,103.858854,30.692582,整租,//权属核验/近地铁/精装/双卫生间/随时看房/,有,暂无数据,民水,民电,有,自采暖,2021-07-03 13:25:25,成都
温江-光华大道沿线-西班牙森林二期,122.75㎡,南北,3室2厅2卫,中楼层（18层）,2800 元/月,CD2802785369589030912,2021-07-02,103.900245,30.696234,整租,/权属核验/精装/双卫生间/,有,暂无数据,民水,民电,有,自采暖,2021-07-03 13:25:30,成都
温江-光华大道沿线-天来汇景,90.00㎡,东南,3室1厅2卫,中楼层（32层）,900 元/月,CD2803611953124622336,2021-06-27,103.87849,30.682512,整租,/权属核验/近地铁/双卫生间/随时看房/,有,暂无数据,民水,民电,有,暂无数据,2021-07-03 13:25:38,成都
温江-光华大道沿线-中南上熙府熙悦,107.00㎡,东北,3室2厅2卫,中楼层（34层）,2800 元/月,CD2804229789211164672,2021-06-27,103.870099,30.677236,整租,/权属核验/精装/双卫生间/随时看房/,有,暂无数据,民水,民电,有,暂无数据,2021-07-03 13:25:42,成都
温江-光华大道沿线-创＋理想城,82.00㎡,东南,3室1厅1卫,高楼层（18层）,2300 元/月,CD2733398529937506304,2021-06-27,103.879976,30.680393,整租,/权属核验/,有,租用车位,民水,民电,有,暂无数据,2021-07-03 13:25:51,成都
温江-光华大道沿线-8号公馆,104.61㎡,东南,3室2厅2卫,低楼层（30层）,1800 元/月,CD2733945352070897664,2021-06-27,103.881222,30.682201,整租,/权属核验/近地铁/双卫生间/随时看房/,有,租用车位,民水,民电,有,自采暖,2021-07-03 13:25:57,成都
温江-光华大道沿线-洲际春天广场,64.10㎡,西北,2室1厅1卫,中楼层（31层）,1500 元/月,CD2804221323143028736,2021-06-27,103.875899,30.681053,整租,//权属核验/精装/随时看房/,有,暂无数据,民水,民电,有,暂无数据,2021-07-03 13:26:03,成都
温江-温江老城-公园壹号,81.62㎡,东南,2室2厅1卫,低楼层（27层）,1650 元/月,CD2812110859382833152,2021-06-27,103.85038,30.703171,整租,/权属核验/精装/,有,暂无数据,民水,民电,有,自采暖,2021-07-03 13:26:08,成都
温江-光华大道沿线-合能珍宝琥珀,67.77㎡,东南,2室2厅1卫,中楼层（34层）,1800 元/月,CD2812110031485403136,2021-06-29,103.894555,30.677477,整租,//权属核验/业主自荐/近地铁/精装/随时看房/,有,暂无数据,民水,民电,有,自采暖,2021-07-03 13:26:14,成都
温江-花都大道-佳年华新生活A区,69.00㎡,南,2室1厅1卫,低楼层（33层）,2000 元/月,CD2811658984414003200,2021-06-29,103.889194,30.694426,整租,//权属核验/精装/随时看房/,无,暂无数据,民水,暂无数据,有,暂无数据,2021-07-03 13:26:17,成都
温江-珠江新城-珠江悦湖国际,54.75㎡,南,1室0厅1卫,中楼层（46层）,1500 元/月,CD2812376069687492608,2021-06-28,103.868519,30.691145,整租,/权属核验/近地铁/精装/,有,暂无数据,暂无数据,商电,无,暂无数据,2021-07-03 13:26:20,成都
温江-温江新城-恒大城四期,90.21㎡,东南,3室2厅1卫,低楼层（30层）,2000 元/月,CD2812834922031480832,2021-07-01,103.85817940764,30.686306013585,整租,//权属核验/精装/随时看房/,有,租用车位,民水,民电,有,自采暖,2021-07-03 13:26:25,成都
温江-光华大道沿线-西班牙森林二期,61.79㎡,东南,2室1厅1卫,中楼层（11层）,1700 元/月,CD2812918445212450816,2021-06-27,103.900245,30.696234,整租,//权属核验/随时看房/,有,暂无数据,民水,民电,有,暂无数据,2021-07-03 13:26:34,成都
温江-国色天乡-蓝光四叶城,89.64㎡,东南,2室2厅1卫,低楼层（26层）,2200 元/月,CD2812353878161899520,2021-06-30,103.841174,30.737573,整租,/权属核验/精装/,有,暂无数据,民水,民电,有,暂无数据,2021-07-03 13:26:38,成都
温江-花都大道-蓝润光华春天A区,80.75㎡,东,3室2厅1卫,中楼层（34层）,2300 元/月,CD2812979139290865664,2021-06-29,103.89347,30.696434,整租,/权属核验/业主自荐/随时看房/,有,租用车位,民水,民电,有,自采暖,2021-07-03 13:26:46,成都
温江-国色天乡-合能枫丹西悦,102.00㎡,西南,3室2厅1卫,中楼层（33层）,2500 元/月,CD2812280532157595648,2021-07-01,103.860576,30.708728,整租,//权属核验/精装/随时看房/,无,租用车位,暂无数据,暂无数据,有,暂无数据,2021-07-03 13:26:52,成都
温江-光华大道沿线-彩叠园二期,132.59㎡,西,2室1厅1卫,高楼层（11层）,2500 元/月,CD2734852760741879808,2021-07-02,103.88733743295,30.678978125276,整租,/权属核验/精装/,有,暂无数据,民水,民电,有,暂无数据,2021-07-03 13:26:57,成都
温江-温江老城-鱼凫阳光,97.00㎡,西北,3室2厅2卫,中楼层（18层）,1400 元/月,CD2735585171758915584,2021-06-27,103.835162,30.718412,整租,/权属核验/双卫生间/,有,暂无数据,民水,民电,有,暂无数据,2021-07-03 13:27:01,成都
温江-温江新城-恒大城一期,92.60㎡,东南,3室1厅1卫,高楼层（33层）,1500 元/月,CD2745665823019638784,2021-06-24,103.858672,30.686107,整租,/权属核验/业主自荐/近地铁/精装/随时看房/,有,免费使用,民水,民电,有,自采暖,2021-07-03 13:27:11,成都
温江-珠江新城-佳兆业丽晶港,120.90㎡,东南,4室2厅2卫,高楼层（33层）,2000 元/月,CD2662113526687989760,2021-06-27,103.87781087474,30.688063705979,整租,/权属核验/近地铁/双卫生间/随时看房/,有,暂无数据,民水,民电,有,暂无数据,2021-07-03 13:27:15,成都
温江-珠江新城-珠江国际花园,129.73㎡,南,4室2厅2卫,低楼层（21层）,2200 元/月,CD2734754357395324928,2021-06-25,103.864618,30.694248,整租,/权属核验/近地铁/精装/双卫生间/随时看房/,有,暂无数据,民水,民电,有,暂无数据,2021-07-03 13:27:22,成都
温江-珠江新城-银诚归墅,254.11㎡,东南,5室3厅3卫,高楼层（3层）,12000 元/月,CD2691803327594758144,2021-06-09,103.859333,30.695816,整租,/权属核验/近地铁/精装/,无,免费使用,民水,民电,有,暂无数据,2021-07-03 13:27:30,成都
温江-珠江新城-珠江国际花园,121.88㎡,东南,3室1厅2卫,低楼层（32层）,2200 元/月,CD2802141691808071680,2021-06-26,103.864618,30.694248,整租,//权属核验/近地铁/精装/双卫生间/随时看房/,有,暂无数据,民水,民电,有,暂无数据,2021-07-03 13:27:34,成都
温江-珠江新城-珠江克莱公寓,54.52㎡,南,1室1厅1卫,高楼层（31层）,1300 元/月,CD2802994347078336512,2021-06-26,103.864472,30.693498,整租,//权属核验/近地铁/精装/随时看房/,有,暂无数据,民水,民电,有,暂无数据,2021-07-03 13:27:37,成都
温江-光华大道沿线-恒大未来城,122.00㎡,东南,3室2厅2卫,中楼层（32层）,1800 元/月,CD2734008652615647232,2021-06-22,103.872129,30.680102,整租,/权属核验/近地铁/精装/双卫生间/随时看房/,有,暂无数据,民水,民电,有,暂无数据,2021-07-03 13:27:42,成都
温江-珠江新城-佳兆业丽晶港,86.25㎡,东北,2室2厅1卫,中楼层（40层）,2000 元/月,CD2812347359038537728,2021-06-27,103.87781087474,30.688063705979,整租,//权属核验/近地铁/精装/随时看房/,有,暂无数据,民水,民电,有,暂无数据,2021-07-03 13:27:46,成都
温江-珠江新城-珠江悦湖国际,48.34㎡,东南南,1室1厅1卫,中楼层（46层）,1800 元/月,CD2817989581851598848,2021-06-30,103.868519,30.691145,整租,/权属核验/新上/近地铁/精装/,无,暂无数据,暂无数据,商电,无,暂无数据,2021-07-03 13:27:52,成都
温江-光华大道沿线-大华水映岛,158.92㎡,南北,5室2厅2卫,低楼层（5层）,1800 元/月,CD2807053187985440768,2021-06-16,103.884922,30.688013,整租,/权属核验/双卫生间/,无,暂无数据,民水,民电,有,自采暖,2021-07-03 13:27:58,成都
温江-光华大道沿线-大华水映岛,86.51㎡,西北,2室2厅1卫,高楼层（11层）,1700 元/月,CD2807221501772693504,2021-07-02,103.884922,30.688013,整租,//权属核验/近地铁/精装/随时看房/,有,暂无数据,民水,民电,有,自采暖,2021-07-03 13:28:03,成都
温江-光华大道沿线-合能珍宝琥珀,84.77㎡,南,3室1厅1卫,高楼层（34层）,2200 元/月,CD2817348246622707712,2021-06-30,103.894555,30.677477,整租,//权属核验/新上/精装/随时看房/,有,暂无数据,民水,民电,有,自采暖,2021-07-03 13:28:10,成都
温江-光华大道沿线-西班牙森林二期,78.44㎡,东南,2室1厅1卫,高楼层（18层）,1850 元/月,CD2817474769757683712,2021-06-26,103.900245,30.696234,整租,/权属核验/新上/,有,暂无数据,民水,民电,有,自采暖,2021-07-03 13:28:13,成都
温江-光华大道沿线-万科朗润园,84.95㎡,西南,2室2厅1卫,低楼层（33层）,1700 元/月,CD2785509018385522688,2021-06-29,103.897897,30.686096,整租,//权属核验/近地铁/精装/随时看房/,有,暂无数据,民水,民电,有,自采暖,2021-07-03 13:28:18,成都
温江-国色天乡-英郦庄园,217.79㎡,东南,4室2厅2卫,低楼层（6层）,1500 元/月,CD2754171049691324416,2021-06-29,103.838068,30.736515,整租,/权属核验/精装/双卫生间/,无,暂无数据,民水,民电,有,自采暖,2021-07-03 13:28:24,成都
温江-芙蓉古城-芙蓉田园,89.60㎡,东,2室1厅1卫,低楼层（24层）,1700 元/月,CD2820114975434489856,2021-07-02,103.913447,30.717951,整租,/权属核验/新上/,有,暂无数据,暂无数据,民电,有,暂无数据,2021-07-03 13:28:30,成都
温江-芙蓉古城-置信学府杏林二期,81.00㎡,东南,2室2厅1卫,中楼层（18层）,800 元/月,CD2778282121486680064,2021-06-27,103.912586,30.719769,整租,/权属核验/,有,暂无数据,民水,民电,有,暂无数据,2021-07-03 13:28:38,成都
温江-芙蓉古城-芙蓉古城紫云园,299.97㎡,南,4室2厅3卫,低楼层（3层）,5000 元/月,CD2781967644557836288,2021-06-11,103.927749,30.72524,整租,/权属核验/,无,暂无数据,民水,民电,有,自采暖,2021-07-03 13:28:44,成都
温江-温江大学城-万盛新区,140.00㎡,北,3室2厅1卫,高楼层（6层）,1500 元/月,CD2812114828335267840,2021-07-01,103.829429,30.695899,整租,/权属核验/精装/,无,暂无数据,民水,民电,有,自采暖,2021-07-03 13:28:48,成都
温江-温江大学城-西财学府憬城,89.00㎡,东南,3室1厅1卫,高楼层（26层）,1000 元/月,CD2545476864500310016,2021-06-29,103.821646,30.681115,整租,/权属核验/近地铁/精装/,有,暂无数据,民水,民电,有,暂无数据,2021-07-03 13:28:56,成都
温江-温江老城-团结巷,110.00㎡,东南,3室2厅1卫,中楼层（6层）,1100 元/月,CD2729093939163840512,2021-06-25,103.847424,30.70238,整租,/权属核验/近地铁/,无,暂无数据,暂无数据,暂无数据,有,暂无数据,2021-07-03 13:29:00,成都
温江-温江老城-金色鱼凫,85.65㎡,东南,2室1厅1卫,低楼层（11层）,1600 元/月,CD2805904518813335552,2021-06-22,103.842916,30.690675,未知,//权属核验/近地铁/精装/随时看房/,有,暂无数据,民水,民电,有,暂无数据,2021-07-03 13:29:04,成都
温江-花都大道-朝阳时代西锦,113.31㎡,南,3室1厅2卫,高楼层（33层）,1300 元/月,CD2681909038194622464,2021-06-22,103.873377,30.698827,整租,/权属核验/双卫生间/,有,暂无数据,民水,民电,有,自采暖,2021-07-03 13:29:10,成都
温江-花都大道-尚西花郡,135.65㎡,东南,3室2厅2卫,中楼层（22层）,1800 元/月,CD2781158681083904000,2021-06-12,103.871879,30.697543,整租,/权属核验/双卫生间/,有,暂无数据,民水,民电,有,暂无数据,2021-07-03 13:29:17,成都
温江-花都大道-千禧河畔D区,77.32㎡,东,3室1厅1卫,高楼层（26层）,600 元/月,CD2816705047772545024,2021-06-25,103.89377903263,30.693405228556,整租,/权属核验/,有,暂无数据,民水,民电,有,暂无数据,2021-07-03 13:29:23,成都
温江-花都大道-朝阳时代西锦,90.90㎡,东南,2室2厅1卫,低楼层（33层）,1500 元/月,CD2817545503791644672,2021-06-27,103.873377,30.698827,整租,/权属核验/新上/精装/随时看房/,有,暂无数据,民水,民电,有,自采暖,2021-07-03 13:29:27,成都
温江-温江新城-格凌兰,126.94㎡,南,2室2厅1卫,中楼层（32层）,1800 元/月,CD2783995576894111744,2021-06-27,103.854266,30.6906,整租,/权属核验/近地铁/精装/,有,租用车位,民水,民电,有,自采暖,2021-07-03 13:29:30,成都
温江-珠江新城-珠江悦湖国际,54.50㎡,东,1室1厅1卫,中楼层（46层）,1700 元/月,CD2820434953350168576,2021-07-01,103.868519,30.691145,整租,/权属核验/新上/近地铁/精装/,无,暂无数据,暂无数据,商电,无,暂无数据,2021-07-03 13:29:34,成都
温江-珠江新城-德坤新天地,56.76㎡,东南,1室1厅1卫,低楼层（32层）,1300 元/月,CD2793304916922474496,2021-06-06,103.862971,30.693856,未知,/权属核验/近地铁/精装/随时看房/,有,暂无数据,民水,民电,有,暂无数据,2021-07-03 13:29:43,成都
温江-温江新城-和信孔雀天成,120.00㎡,东,3室2厅1卫,中楼层（33层）,800 元/月,CD2669430839108452352,2021-06-27,103.848716,30.689934,整租,/权属核验/近地铁/,有,暂无数据,民水,民电,有,自采暖,2021-07-03 13:29:52,成都
温江-光华大道沿线-恒大未来城,134.00㎡,西南,3室2厅2卫,中楼层（17层）,2700 元/月,CD2739650671812026368,2021-06-20,103.872129,30.680102,整租,/权属核验/精装/双卫生间/随时看房/,有,暂无数据,民水,民电,有,暂无数据,2021-07-03 13:29:55,成都
温江-珠江新城-珠江悦湖国际,60.00㎡,东,1室1厅1卫,高楼层（46层）,2200 元/月,CD2738285569565270016,2021-06-27,103.868519,30.691145,整租,/权属核验/近地铁/精装/,有,暂无数据,暂无数据,商电,无,暂无数据,2021-07-03 13:30:02,成都
温江-温江大学城-东原城,80.00㎡,南,3室2厅1卫,低楼层（34层）,1500 元/月,CD2739952611116449792,2021-06-27,103.815115,30.650568,整租,/权属核验/精装/,有,暂无数据,民水,民电,有,暂无数据,2021-07-03 13:30:06,成都
温江-珠江新城-珠江御景湾,141.30㎡,西南东北,4室1厅2卫,中楼层（18层）,5000 元/月,CD2739839719579336704,2021-06-27,103.873617,30.690868,整租,/权属核验/近地铁/精装/双卫生间/随时看房/,有,暂无数据,民水,民电,有,自采暖,2021-07-03 13:30:13,成都
温江-珠江新城-珠江克莱公寓,54.52㎡,西南,1室1厅1卫,高楼层（31层）,1400 元/月,CD2739923098005405696,2021-06-27,103.864472,30.693498,整租,/权属核验/近地铁/精装/,有,暂无数据,民水,民电,有,暂无数据,2021-07-03 13:30:16,成都
温江-花都大道-美茵河谷,51.78㎡,南,1室1厅1卫,高楼层（6层）,1400 元/月,CD2813563065579347968,2021-06-24,103.87962,30.693351,整租,/权属核验/精装/,有,暂无数据,民水,民电,有,自采暖,2021-07-03 13:30:19,成都
温江-花都大道-千禧河畔D区,90.93㎡,南,3室2厅2卫,低楼层（26层）,2200 元/月,CD2813661377498193920,2021-06-27,103.89377903263,30.693405228556,整租,/权属核验/精装/双卫生间/随时看房/,有,暂无数据,民水,民电,有,暂无数据,2021-07-03 13:30:25,成都
温江-温江大学城-中铁丽景书香,71.49㎡,东东南南,2室2厅1卫,高楼层（33层）,1800 元/月,CD2814339286471032832,2021-06-26,103.816062,30.68712,整租,//权属核验/近地铁/精装/,有,暂无数据,民水,民电,有,自采暖,2021-07-03 13:30:29,成都
温江-光华大道沿线-合能珍宝琥珀三期,104.74㎡,东,3室2厅2卫,高楼层（33层）,2300 元/月,CD2804923859156353024,2021-06-27,103.884081,30.679698,整租,//权属核验/近地铁/精装/双卫生间/随时看房/,有,暂无数据,民水,民电,有,自采暖,2021-07-03 13:30:37,成都
温江-花都大道-千禧河畔A区,81.27㎡,东南,2室2厅1卫,中楼层（26层）,2300 元/月,CD2804986780024586240,2021-06-27,103.88658,30.694547,整租,/权属核验/精装/,有,租用车位,民水,民电,有,自采暖,2021-07-03 13:30:44,成都
温江-光华大道沿线-天来汇景,86.00㎡,西南,3室2厅2卫,低楼层（31层）,2200 元/月,CD2804938332432236544,2021-06-30,103.87849,30.682512,整租,//权属核验/精装/双卫生间/随时看房/,无,暂无数据,暂无数据,暂无数据,有,暂无数据,2021-07-03 13:30:51,成都
温江-珠江新城-珠江克莱公寓,78.27㎡,东北,2室1厅1卫,高楼层（31层）,1800 元/月,CD2805634256938999808,2021-06-27,103.864472,30.693498,整租,/权属核验/近地铁/精装/随时看房/,有,暂无数据,民水,民电,有,暂无数据,2021-07-03 13:31:00,成都
温江-光华大道沿线-天来汇景,69.00㎡,南西北,2室1厅1卫,高楼层（32层）,2000 元/月,CD2805781257186197504,2021-06-27,103.87849,30.682512,整租,//权属核验/精装/,有,暂无数据,民水,民电,有,暂无数据,2021-07-03 13:31:04,成都
温江-国色天乡-鹭湖宫10区,102.00㎡,东南,3室2厅2卫,中楼层（32层）,2000 元/月,CD2741906028269674496,2021-06-08,103.826691,30.739577,整租,/权属核验/精装/双卫生间/随时看房/,无,租用车位,暂无数据,暂无数据,有,暂无数据,2021-07-03 13:31:08,成都
温江-芙蓉古城-保利西子城,105.24㎡,西南,3室1厅2卫,中楼层（11层）,700 元/月,CD2741127947791368192,2021-06-27,103.922385,30.725219,整租,/权属核验/双卫生间/,有,暂无数据,暂无数据,暂无数据,有,暂无数据,2021-07-03 13:31:16,成都
温江-温江大学城-东原阅墅,208.00㎡,东南,5室2厅3卫,低楼层（3层）,1000 元/月,CD2741393066777640960,2021-06-05,103.814182,30.64922,整租,/权属核验/,无,免费使用,民水,民电,有,暂无数据,2021-07-03 13:31:18,成都
温江-温江大学城-花样年花样城,89.00㎡,西南,3室1厅1卫,低楼层（25层）,1600 元/月,CD2741370586021232640,2021-06-27,103.846712,30.65578,整租,/权属核验/,有,暂无数据,商水,民电,有,暂无数据,2021-07-03 13:31:27,成都
温江-温江大学城-恒大名城,91.00㎡,东北,3室1厅1卫,高楼层（33层）,2600 元/月,CD2740443500838658048,2021-06-30,103.858471,30.680419,整租,/权属核验/精装/,有,暂无数据,民水,民电,有,暂无数据,2021-07-03 13:31:35,成都
温江-花都大道-紫光兴城(温江),84.30㎡,南,2室2厅1卫,低楼层（6层）,1600 元/月,CD2740569231761612800,2021-06-29,103.88172,30.699764,整租,/权属核验/,无,暂无数据,民水,民电,有,自采暖,2021-07-03 13:31:38,成都
温江-温江老城-巨龙环岛国际社区,93.38㎡,东南,2室2厅1卫,高楼层（33层）,1900 元/月,CD2742574240547995648,2021-07-01,103.854007,30.701135,整租,/权属核验/精装/,有,租用车位,民水,民电,有,自采暖,2021-07-03 13:31:44,成都
温江-光华大道沿线-合能珍宝琥珀,82.71㎡,东,2室2厅1卫,低楼层（34层）,1600 元/月,CD2813916722178818048,2021-06-27,103.894555,30.677477,整租,//权属核验/近地铁/随时看房/,有,暂无数据,民水,民电,有,自采暖,2021-07-03 13:31:49,成都
温江-珠江新城-佳兆业丽晶港,125.90㎡,东南,4室2厅2卫,高楼层（33层）,3000 元/月,CD2805179930617856000,2021-06-27,103.87781087474,30.688063705979,整租,/权属核验/精装/双卫生间/,有,暂无数据,民水,民电,有,暂无数据,2021-07-03 13:31:56,成都
温江-花都大道-朝阳时代西锦,80.86㎡,南,2室2厅1卫,高楼层（33层）,1500 元/月,CD2805823441633017856,2021-06-27,103.873377,30.698827,整租,/权属核验/,有,暂无数据,民水,民电,有,自采暖,2021-07-03 13:32:04,成都
温江-温江新城-金恒德时代金悦,85.26㎡,东北,3室2厅1卫,中楼层（31层）,2600 元/月,CD2744786491195523072,2021-06-23,103.86932415003,30.681205516218,整租,/权属核验/精装/,有,暂无数据,暂无数据,暂无数据,有,自采暖,2021-07-03 13:32:11,成都
温江-光华大道沿线-合能珍宝琥珀三期,88.13㎡,东南,3室2厅2卫,中楼层（33层）,1950 元/月,CD2743632198451609600,2021-06-28,103.884081,30.679698,整租,/权属核验/近地铁/双卫生间/随时看房/,有,租用车位,民水,民电,有,自采暖,2021-07-03 13:32:18,成都
温江-光华大道沿线-洲际春天广场,71.61㎡,西,3室1厅1卫,中楼层（38层）,1600 元/月,CD2744887131288633344,2021-06-08,103.875899,30.681053,整租,/权属核验/随时看房/,有,暂无数据,民水,民电,有,暂无数据,2021-07-03 13:32:22,成都
温江-光华大道沿线-蓝光香瑞湖,105.00㎡,东南,3室1厅1卫,高楼层（26层）,2400 元/月,CD2745513975012655104,2021-07-02,103.89088792167,30.68123045932,整租,/权属核验/近地铁/精装/随时看房/,有,暂无数据,民水,民电,有,自采暖,2021-07-03 13:32:25,成都
温江-温江大学城-成都SBI创业园天府智谷2期,56.81㎡,东,1室0厅1卫,高楼层（23层）,650 元/月,CD2745637798894903296,2021-06-27,103.821799,30.67527,整租,/权属核验/近地铁/,有,暂无数据,暂无数据,暂无数据,有,暂无数据,2021-07-03 13:32:29,成都
温江-温江大学城-成都SBI创业园天府智谷2期,56.81㎡,东,1室0厅1卫,高楼层（23层）,650 元/月,CD2745636715807899648,2021-06-27,103.821799,30.67527,整租,/权属核验/近地铁/,有,暂无数据,暂无数据,暂无数据,有,暂无数据,2021-07-03 13:32:35,成都
温江-花都大道-千禧河畔B区,81.75㎡,西,3室2厅1卫,高楼层（33层）,2299 元/月,CD2814596714705723392,2021-07-01,103.886767,30.6927,整租,/权属核验/精装/,有,租用车位,民水,民电,有,自采暖,2021-07-03 13:32:43,成都
温江-光华大道沿线-蓝光香境,76.02㎡,东南,3室1厅1卫,高楼层（34层）,2000 元/月,CD2545650192116350976,2021-06-27,103.8993,30.692645,整租,/权属核验/近地铁/随时看房/,有,暂无数据,民水,民电,有,自采暖,2021-07-03 13:32:48,成都
温江-花都大道-佳年华新生活A区,79.44㎡,东南,3室1厅1卫,高楼层（33层）,2100 元/月,CD2547868578921578496,2021-06-27,103.889194,30.694426,整租,/权属核验/精装/随时看房/,无,暂无数据,民水,民电,有,自采暖,2021-07-03 13:32:55,成都
温江-温江大学城-海峡新城一期,178.25㎡,南,4室2厅2卫,低楼层（4层）,3000 元/月,CD2541205925096857600,2021-06-27,103.832587,30.693461,整租,/权属核验/近地铁/双卫生间/随时看房/,无,暂无数据,民水,民电,有,自采暖,2021-07-03 13:32:58,成都
温江-光华大道沿线-恒大未来城,96.00㎡,东南,3室2厅1卫,高楼层（32层）,1800 元/月,CD2545556419483009024,2021-06-28,103.872129,30.680102,整租,/权属核验/近地铁/精装/随时看房/,有,免费使用,民水,民电,有,暂无数据,2021-07-03 13:33:07,成都
温江-光华大道沿线-春天大道,121.85㎡,南,3室2厅2卫,中楼层（22层）,2000 元/月,CD2562350945635934208,2021-06-27,103.901418,30.684799,整租,/权属核验/近地铁/双卫生间/随时看房/,有,暂无数据,民水,民电,有,自采暖,2021-07-03 13:33:11,成都
温江-光华大道沿线-金科天宸B区,89.00㎡,南,3室2厅2卫,低楼层（26层）,1500 元/月,CD2566624226744745984,2021-06-15,103.88633044204,30.671324604197,整租,/权属核验/精装/双卫生间/,无,暂无数据,暂无数据,暂无数据,有,暂无数据,2021-07-03 13:33:13,成都
温江-温江新城-恒大城一期,91.58㎡,东北,3室1厅1卫,中楼层（33层）,1700 元/月,CD2552880042317725696,2021-06-27,103.858672,30.686107,整租,/权属核验/近地铁/精装/,有,租用车位,民水,民电,有,自采暖,2021-07-03 13:33:20,成都
温江-光华大道沿线-公园大道,96.23㎡,南,3室2厅2卫,高楼层（13层）,1600 元/月,CD2794184415931006976,2021-06-25,103.885794,30.685259,整租,//权属核验/近地铁/双卫生间/随时看房/,有,租用车位,民水,民电,有,自采暖,2021-07-03 13:33:26,成都
温江-光华大道沿线-上风瑞庭,130.87㎡,西北,3室2厅2卫,低楼层（18层）,800 元/月,CD2780270004174856192,2021-06-27,103.87433,30.680067,整租,/权属核验/双卫生间/随时看房/,有,暂无数据,民水,民电,有,暂无数据,2021-07-03 13:33:35,成都
温江-温江新城-中森光华1号,50.48㎡,东南,3室1厅2卫,低楼层（17层）,2200 元/月,CD2779657809972183040,2021-06-27,103.860908,30.69207,整租,/权属核验/近地铁/精装/双卫生间/,有,租用车位,民水,民电,有,暂无数据,2021-07-03 13:33:37,成都
温江-温江大学城-海峡新城一期,178.25㎡,东南,3室2厅3卫,中楼层（4层）,2300 元/月,CD2796212796352626688,2021-06-27,103.832587,30.693461,整租,//权属核验/近地铁/精装/随时看房/,无,暂无数据,民水,民电,有,自采暖,2021-07-03 13:33:43,成都
温江-光华大道沿线-合能珍宝琥珀三期,79.65㎡,西南,3室2厅1卫,中楼层（33层）,2200 元/月,CD2796334581031649280,2021-06-27,103.884081,30.679698,整租,/权属核验/精装/,有,暂无数据,民水,民电,有,自采暖,2021-07-03 13:33:50,成都
温江-国色天乡-春江青龙湾,126.12㎡,西南,3室2厅2卫,高楼层（17层）,1800 元/月,CD2796216095063670784,2021-06-28,103.848238,30.721888,整租,/权属核验/精装/双卫生间/随时看房/,有,暂无数据,民水,民电,有,自采暖,2021-07-03 13:33:56,成都
温江-光华大道沿线-湟普国际,75.11㎡,南,2室1厅1卫,高楼层（33层）,2400 元/月,CD2780982130296504320,2021-06-29,103.896334,30.681856,整租,//权属核验/近地铁/精装/随时看房/,有,租用车位,民水,民电,有,自采暖,2021-07-03 13:34:03,成都
温江-温江大学城-中南上熙府珑悦,103.45㎡,东南,3室1厅2卫,中楼层（32层）,2700 元/月,CD2589084924136914944,2021-06-27,103.85474049871,30.682051968905,整租,/权属核验/近地铁/双卫生间/随时看房/,无,暂无数据,暂无数据,暂无数据,有,暂无数据,2021-07-03 13:34:07,成都
温江-花都大道-蓝润光华春天A区,98.00㎡,南北,3室2厅2卫,低楼层（32层）,1800 元/月,CD2590400142980939776,2021-06-27,103.89347,30.696434,整租,/权属核验/双卫生间/,有,暂无数据,民水,民电,有,自采暖,2021-07-03 13:34:12,成都
温江-温江新城-恒大城一期,145.00㎡,东南,3室1厅2卫,低楼层（33层）,2200 元/月,CD2582603299400728576,2021-06-20,103.858672,30.686107,整租,/权属核验/精装/双卫生间/随时看房/,有,暂无数据,民水,民电,有,自采暖,2021-07-03 13:34:17,成都
温江-光华大道沿线-西班牙森林二期,62.00㎡,南,2室1厅1卫,低楼层（11层）,2000 元/月,CD2569491536400629760,2021-06-30,103.900245,30.696234,整租,/权属核验/精装/,有,暂无数据,民水,民电,有,暂无数据,2021-07-03 13:34:22,成都
温江-温江大学城-恒大御景,108.00㎡,东,3室2厅2卫,高楼层（40层）,1500 元/月,CD2572257275700060160,2021-06-27,103.807977,30.647873,整租,/权属核验/精装/双卫生间/,有,暂无数据,民水,民电,有,暂无数据,2021-07-03 13:34:25,成都
温江-温江新城-泰合新光华府,99.77㎡,西南,3室2厅1卫,高楼层（24层）,1950 元/月,CD2567522246818545664,2021-06-28,103.866512,30.679679,整租,/权属核验/近地铁/精装/随时看房/,有,暂无数据,民水,民电,有,自采暖,2021-07-03 13:34:30,成都
温江-花都大道-佳年华新生活A区,90.00㎡,东南,3室2厅2卫,中楼层（31层）,2200 元/月,CD2584539011960291328,2021-06-27,103.889194,30.694426,整租,/权属核验/双卫生间/随时看房/,有,暂无数据,暂无数据,暂无数据,有,自采暖,2021-07-03 13:34:38,成都
温江-光华大道沿线-合能珍宝琥珀,82.74㎡,东南,3室2厅1卫,高楼层（34层）,2100 元/月,CD2780450838202818560,2021-07-02,103.894555,30.677477,整租,/权属核验/近地铁/精装/,有,租用车位,民水,民电,有,暂无数据,2021-07-03 13:34:45,成都
温江-光华大道沿线-恒大新城一期,84.00㎡,东南,2室1厅1卫,高楼层（32层）,2200 元/月,CD2781055491315605504,2021-06-27,103.8738,30.668295,整租,/权属核验/近地铁/精装/,有,租用车位,民水,民电,有,暂无数据,2021-07-03 13:34:48,成都
温江-温江大学城-新尚天地,110.00㎡,东,3室1厅1卫,低楼层（31层）,1200 元/月,CD2781147521761165312,2021-06-30,103.820255,30.688726,整租,/权属核验/近地铁/,有,暂无数据,民水,民电,有,暂无数据,2021-07-03 13:34:54,成都
温江-光华大道沿线-合能珍宝琥珀三期,137.78㎡,东南,3室2厅2卫,中楼层（32层）,2400 元/月,CD2781225338951712768,2021-06-29,103.884081,30.679698,整租,/权属核验/近地铁/双卫生间/随时看房/,有,暂无数据,民水,民电,有,自采暖,2021-07-03 13:35:02,成都
温江-光华大道沿线-恒大未来城,96.00㎡,东南,3室2厅1卫,低楼层（32层）,1900 元/月,CD2780524483486679040,2021-06-03,103.872129,30.680102,整租,/权属核验/近地铁/精装/随时看房/,有,暂无数据,民水,民电,有,暂无数据,2021-07-03 13:35:07,成都
温江-花都大道-尚西花郡,86.95㎡,南,2室2厅1卫,中楼层（18层）,1500 元/月,CD2780986588086681600,2021-06-25,103.871879,30.697543,整租,/权属核验/随时看房/,有,暂无数据,民水,民电,有,暂无数据,2021-07-03 13:35:13,成都
温江-花都大道-佳兆业丽晶公馆,79.42㎡,东南,3室2厅2卫,低楼层（34层）,2000 元/月,CD2781717153584521216,2021-06-27,103.876984,30.695428,整租,/权属核验/精装/双卫生间/,有,暂无数据,民水,民电,有,暂无数据,2021-07-03 13:35:16,成都
温江-珠江新城-珠江悦湖国际,54.11㎡,南,1室0厅1卫,高楼层（46层）,1600 元/月,CD2781219502586085376,2021-06-12,103.868519,30.691145,整租,/权属核验/近地铁/精装/,有,暂无数据,暂无数据,商电,无,暂无数据,2021-07-03 13:35:19,成都
温江-珠江新城-珠江悦湖国际,55.00㎡,南,1室0厅0卫,高楼层（46层）,1300 元/月,CD2794041895494352896,2021-06-20,103.868519,30.691145,整租,/权属核验/近地铁/,有,暂无数据,暂无数据,商电,无,暂无数据,2021-07-03 13:35:29,成都
温江-温江大学城-海科名城,95.33㎡,东南,3室1厅1卫,中楼层（18层）,2000 元/月,CD2682677299211943936,2021-06-27,103.822162,30.684502,整租,/权属核验/近地铁/精装/,有,租用车位,民水,民电,有,自采暖,2021-07-03 13:35:37,成都
温江-花都大道-嘉瑞国际,127.83㎡,东南,4室2厅1卫,低楼层（33层）,2700 元/月,CD2684168107182006272,2021-07-01,103.866736,30.702542,整租,/权属核验/精装/,有,租用车位,民水,民电,有,自采暖,2021-07-03 13:35:41,成都
温江-光华大道沿线-中南上熙府熙悦,147.00㎡,西,4室2厅3卫,中楼层（9层）,4300 元/月,CD2687047073001373696,2021-06-16,103.870099,30.677236,整租,/权属核验/近地铁/精装/随时看房/,有,暂无数据,民水,民电,有,暂无数据,2021-07-03 13:35:47,成都
温江-珠江新城-珠江悦湖国际,55.00㎡,东南,1室0厅0卫,高楼层（46层）,1300 元/月,CD2794048643827769344,2021-06-20,103.868519,30.691145,整租,/权属核验/近地铁/,有,暂无数据,暂无数据,商电,无,暂无数据,2021-07-03 13:35:50,成都
温江-珠江新城-珠江悦湖国际,48.00㎡,南,1室0厅0卫,高楼层（46层）,1200 元/月,CD2794046873890201600,2021-06-20,103.868519,30.691145,整租,/权属核验/近地铁/,有,暂无数据,暂无数据,商电,无,暂无数据,2021-07-03 13:35:53,成都
温江-温江新城-恒大城二期,91.84㎡,东南,3室2厅1卫,低楼层（30层）,2300 元/月,CD2794174287072722944,2021-06-30,103.857856,30.68433,整租,/权属核验/精装/,有,暂无数据,民水,民电,无,自采暖,2021-07-03 13:36:01,成都
温江-温江新城-新华苑(温江),105.22㎡,东南,3室2厅2卫,中楼层（7层）,1800 元/月,CD2805144162591588352,2021-06-27,103.861609,30.683794,整租,//权属核验/近地铁/精装/双卫生间/随时看房/,无,暂无数据,暂无数据,暂无数据,有,自采暖,2021-07-03 13:36:09,成都
温江-花都大道-朝阳时代西锦,85.29㎡,南,2室1厅1卫,高楼层（33层）,1800 元/月,CD2805021758405746688,2021-06-27,103.873377,30.698827,整租,/权属核验/精装/,有,租用车位,民水,民电,有,自采暖,2021-07-03 13:36:14,成都
温江-花都大道-中铁瑞景澜庭,86.60㎡,南,2室2厅1卫,中楼层（6层）,2000 元/月,CD2805104425503834112,2021-06-27,103.877595,30.698641,整租,/权属核验/精装/,无,暂无数据,民水,民电,有,自采暖,2021-07-03 13:36:16,成都
温江-温江老城-巨龙环岛国际社区,126.76㎡,东南,3室1厅2卫,低楼层（17层）,1800 元/月,CD2804968168102035456,2021-06-29,103.854007,30.701135,整租,//权属核验/近地铁/双卫生间/随时看房/,有,租用车位,民水,民电,有,自采暖,2021-07-03 13:36:23,成都
温江-温江老城-公园壹号,81.46㎡,南,2室1厅1卫,中楼层（29层）,1750 元/月,CD2805208451742449664,2021-06-24,103.85038,30.703171,整租,/权属核验/精装/,有,租用车位,民水,民电,有,自采暖,2021-07-03 13:36:27,成都
温江-温江新城-光华瑞廷,86.08㎡,西南,3室1厅1卫,中楼层（33层）,1800 元/月,CD2805142477294534656,2021-06-21,103.848634,30.684865,整租,/权属核验/精装/随时看房/,有,暂无数据,民水,民电,有,自采暖,2021-07-03 13:36:34,成都
温江-花都大道-蓝润光华春天B区,88.26㎡,南,3室2厅2卫,中楼层（33层）,2600 元/月,CD2805803990296559616,2021-06-27,103.89658531974,30.696493049215,整租,/权属核验/精装/双卫生间/随时看房/,有,暂无数据,民水,民电,有,暂无数据,2021-07-03 13:36:38,成都
温江-温江大学城-恒大御景,89.00㎡,西南,3室2厅2卫,中楼层（26层）,1200 元/月,CD2691211425384775680,2021-06-27,103.807977,30.647873,整租,/权属核验/精装/双卫生间/,有,租用车位,民水,民电,有,暂无数据,2021-07-03 13:36:43,成都
温江-光华大道沿线-洲际银海湾,113.96㎡,北,4室3厅2卫,中楼层（32层）,2000 元/月,CD2691133343910862848,2021-06-27,103.89409,30.68825,整租,/权属核验/近地铁/精装/双卫生间/,有,暂无数据,民水,民电,有,暂无数据,2021-07-03 13:36:48,成都
温江-珠江新城-佳兆业丽晶港,73.31㎡,南北,2室1厅1卫,高楼层（33层）,2450 元/月,CD2695419817858433024,2021-06-27,103.87781087474,30.688063705979,整租,/权属核验/,有,暂无数据,民水,民电,有,暂无数据,2021-07-03 13:36:52,成都
温江-国色天乡-花语岸,88.00㎡,西南,3室1厅1卫,低楼层（18层）,1800 元/月,CD2690534637154861056,2021-07-01,103.847522,30.719984,整租,/权属核验/精装/,有,暂无数据,民水,民电,有,暂无数据,2021-07-03 13:37:00,成都
温江-光华大道沿线-大华水映岛,97.53㎡,西南,2室2厅2卫,中楼层（11层）,3300 元/月,CD2692098011450327040,2021-06-27,103.884922,30.688013,整租,/权属核验/近地铁/精装/双卫生间/随时看房/,有,暂无数据,民水,民电,有,自采暖,2021-07-03 13:37:04,成都
温江-花都大道-千禧河畔D区,106.26㎡,南,3室2厅2卫,高楼层（26层）,500 元/月,CD2694698039377141760,2021-07-02,103.89377903263,30.693405228556,整租,/权属核验/双卫生间/,有,租用车位,民水,民电,有,暂无数据,2021-07-03 13:37:12,成都
温江-温江大学城-恒大御景,86.33㎡,南,3室2厅1卫,高楼层（40层）,1300 元/月,CD2691071468380356608,2021-06-27,103.807977,30.647873,整租,/权属核验/精装/,有,租用车位,民水,民电,有,暂无数据,2021-07-03 13:37:20,成都
温江-光华大道沿线-边城香格里,112.28㎡,南北,4室1厅2卫,高楼层（18层）,7600 元/月,CD2695535107196067840,2021-06-30,103.88362,30.682243,整租,/权属核验/精装/双卫生间/,有,暂无数据,民水,民电,有,自采暖,2021-07-03 13:37:24,成都
温江-芙蓉古城-芙蓉花开,98.86㎡,南,3室2厅1卫,中楼层（6层）,1000 元/月,CD2691161813453635584,2021-06-21,103.921707,30.706808,整租,/权属核验/随时看房/,无,暂无数据,暂无数据,暂无数据,有,自采暖,2021-07-03 13:37:28,成都
温江-温江老城-万春东路10号,111.01㎡,东南,3室1厅1卫,中楼层（5层）,1200 元/月,CD2691272242792775680,2021-07-01,103.848438,30.70714,整租,/权属核验/精装/随时看房/,无,租用车位,暂无数据,暂无数据,暂无数据,暂无数据,2021-07-03 13:37:32,成都
温江-温江老城-欧郡,115.54㎡,东南,3室2厅1卫,高楼层（25层）,2100 元/月,CD2694972285605396480,2021-07-01,103.844606,30.691764,整租,/权属核验/近地铁/精装/,有,租用车位,民水,民电,有,暂无数据,2021-07-03 13:37:39,成都
温江-温江新城-金恒德时代金悦,82.77㎡,东南,3室1厅1卫,中楼层（28层）,900 元/月,CD2796159334504480768,2021-06-26,103.86932415003,30.681205516218,整租,/权属核验/,有,暂无数据,暂无数据,暂无数据,有,自采暖,2021-07-03 13:37:43,成都
温江-珠江新城-珠江克莱公寓,54.52㎡,南,1室1厅1卫,中楼层（31层）,1400 元/月,CD2795700607451660288,2021-06-24,103.864472,30.693498,整租,/权属核验/近地铁/精装/,有,暂无数据,民水,民电,有,暂无数据,2021-07-03 13:37:50,成都
温江-花都大道-蓝润光华春天A区,71.00㎡,东,2室1厅1卫,中楼层（32层）,2200 元/月,CD2805735124749533184,2021-06-27,103.89347,30.696434,整租,//权属核验/精装/随时看房/,有,暂无数据,民水,民电,有,自采暖,2021-07-03 13:37:59,成都
温江-光华大道沿线-洲际亚洲湾B区,80.00㎡,西南,2室2厅1卫,中楼层（32层）,2800 元/月,CD2795637664664535040,2021-07-01,103.889159,30.68773,整租,/权属核验/近地铁/精装/,有,租用车位,民水,民电,有,暂无数据,2021-07-03 13:38:04,成都
温江-温江新城-光华国际,91.39㎡,东南,2室2厅1卫,低楼层（30层）,2200 元/月,CD2794912493074923520,2021-06-29,103.869772,30.687217,整租,/权属核验/近地铁/精装/,有,租用车位,民水,民电,有,自采暖,2021-07-03 13:38:09,成都
温江-光华大道沿线-天来汇景,112.00㎡,南北,4室2厅2卫,低楼层（31层）,2600 元/月,CD2815965220143366144,2021-06-28,103.87849,30.682512,整租,/权属核验/精装/双卫生间/,无,暂无数据,暂无数据,暂无数据,有,暂无数据,2021-07-03 13:38:13,成都
温江-国色天乡-鹭湖宫十一区,109.00㎡,东南,3室1厅1卫,低楼层（31层）,2000 元/月,CD2816564878318510080,2021-06-30,103.829645,30.740069,整租,/权属核验/精装/,有,暂无数据,民水,民电,有,自采暖,2021-07-03 13:38:17,成都
温江-花都大道-千禧河畔B区,86.88㎡,东南,3室2厅2卫,中楼层（33层）,2600 元/月,CD2816668276401381376,2021-07-02,103.886767,30.6927,整租,/权属核验/精装/双卫生间/,有,暂无数据,民水,民电,有,自采暖,2021-07-03 13:38:24,成都
温江-温江大学城-中铁丽景书香,75.24㎡,东东南南,2室1厅1卫,中楼层（31层）,1600 元/月,CD2816628198257721344,2021-06-26,103.816062,30.68712,整租,/权属核验/近地铁/精装/,有,暂无数据,民水,民电,有,自采暖,2021-07-03 13:38:27,成都
温江-光华大道沿线-恒大未来城,91.63㎡,东南,3室1厅1卫,中楼层（38层）,2500 元/月,CD2816512883729907712,2021-07-01,103.872129,30.680102,整租,//权属核验/精装/,有,暂无数据,暂无数据,暂无数据,有,暂无数据,2021-07-03 13:38:35,成都
温江-珠江新城-珠江悦湖国际,48.00㎡,南北,1室0厅1卫,高楼层（46层）,1850 元/月,CD2778986429366140928,2021-06-07,103.868519,30.691145,整租,/权属核验/近地铁/精装/随时看房/,有,暂无数据,暂无数据,商电,无,暂无数据,2021-07-03 13:38:38,成都
温江-光华大道沿线-春天大道,91.00㎡,南,2室2厅1卫,低楼层（24层）,2500 元/月,CD2777601127334813696,2021-06-27,103.901418,30.684799,整租,/权属核验/近地铁/精装/,有,暂无数据,民水,民电,有,自采暖,2021-07-03 13:38:43,成都
温江-花都大道-美茵河谷,128.57㎡,南,3室1厅2卫,低楼层（6层）,3800 元/月,CD2778367364037877760,2021-06-25,103.87962,30.693351,整租,//权属核验/精装/双卫生间/随时看房/,有,暂无数据,民水,民电,有,自采暖,2021-07-03 13:38:51,成都
温江-花都大道-佳兆业丽晶公馆,81.32㎡,东南,3室1厅1卫,中楼层（39层）,1950 元/月,CD2779011165450412032,2021-06-12,103.876984,30.695428,整租,/权属核验/精装/,有,暂无数据,民水,民电,有,暂无数据,2021-07-03 13:38:55,成都
温江-温江新城-恒大城二期,92.72㎡,西南,3室1厅1卫,中楼层（30层）,2000 元/月,CD2778176062612578304,2021-06-18,103.857856,30.68433,整租,/权属核验/精装/随时看房/,有,暂无数据,民水,民电,有,自采暖,2021-07-03 13:38:58,成都
温江-光华大道沿线-8号公馆,79.27㎡,西南,2室1厅1卫,高楼层（30层）,2000 元/月,CD2778123721020547072,2021-06-29,103.881222,30.682201,整租,//权属核验/近地铁/精装/随时看房/,有,暂无数据,民水,民电,有,自采暖,2021-07-03 13:39:02,成都
温江-珠江新城-珠江悦湖国际,47.92㎡,东南,1室0厅1卫,高楼层（46层）,1900 元/月,CD2779663148549423104,2021-06-08,103.868519,30.691145,整租,/权属核验/近地铁/精装/随时看房/,有,暂无数据,暂无数据,商电,无,暂无数据,2021-07-03 13:39:06,成都
温江-珠江新城-珠江国际花园,107.59㎡,东南,3室2厅2卫,低楼层（31层）,2600 元/月,CD2778312052408852480,2021-06-27,103.864618,30.694248,整租,/权属核验/近地铁/精装/双卫生间/,有,租用车位,民水,民电,有,暂无数据,2021-07-03 13:39:11,成都
温江-光华大道沿线-恒大未来城,121.83㎡,南,3室2厅2卫,中楼层（32层）,1800 元/月,CD2777590062240768000,2021-06-10,103.872129,30.680102,整租,/权属核验/精装/双卫生间/,有,租用车位,民水,民电,有,暂无数据,2021-07-03 13:39:17,成都
温江-国色天乡-鹭湖宫八区,111.18㎡,西南,3室2厅2卫,高楼层（9层）,1500 元/月,CD2816529206207856640,2021-07-02,103.842522,30.720551,整租,//权属核验/双卫生间/随时看房/,无,租用车位,暂无数据,暂无数据,暂无数据,暂无数据,2021-07-03 13:39:24,成都
温江-花都大道-朝阳时代西锦,87.40㎡,东,2室2厅1卫,高楼层（33层）,1650 元/月,CD2816113367918313472,2021-06-30,103.873377,30.698827,整租,//权属核验/精装/随时看房/,有,租用车位,民水,民电,有,自采暖,2021-07-03 13:39:29,成都
温江-花都大道-森宇音乐花园,206.00㎡,西南,4室2厅3卫,低楼层（6层）,3500 元/月,CD2817265449962840064,2021-06-30,103.880288,30.692427,整租,/权属核验/精装/,无,租用车位,民水,民电,有,自采暖,2021-07-03 13:39:35,成都
温江-温江新城-和信孔雀天成,80.75㎡,南,2室1厅1卫,高楼层（26层）,1700 元/月,CD2816782389605842944,2021-06-30,103.848716,30.689934,整租,//权属核验/近地铁/随时看房/,有,租用车位,民水,民电,有,暂无数据,2021-07-03 13:39:41,成都
温江-温江老城-柳春苑,86.93㎡,东,2室1厅1卫,中楼层（6层）,1000 元/月,CD2816755942740738048,2021-06-30,103.838484,30.709331,整租,/权属核验/近地铁/随时看房/,无,暂无数据,民水,民电,有,暂无数据,2021-07-03 13:39:47,成都
温江-光华大道沿线-洲际银海湾,110.24㎡,南,3室1厅2卫,高楼层（32层）,2200 元/月,CD2780468088376926208,2021-06-27,103.89409,30.68825,整租,//权属核验/近地铁/精装/双卫生间/随时看房/,有,免费使用,民水,民电,有,自采暖,2021-07-03 13:39:50,成都
温江-国色天乡-花语岸,111.43㎡,东,3室1厅2卫,中楼层（32层）,1900 元/月,CD2781138276785340416,2021-06-16,103.847522,30.719984,整租,/权属核验/精装/双卫生间/随时看房/,有,租用车位,民水,民电,有,暂无数据,2021-07-03 13:39:54,成都
温江-温江新城-天来国际文化广场,130.15㎡,西南东北,3室2厅2卫,高楼层（33层）,2000 元/月,CD2780512909288554496,2021-06-27,103.874794,30.684431,整租,/权属核验/近地铁/双卫生间/,有,暂无数据,暂无数据,暂无数据,有,暂无数据,2021-07-03 13:39:57,成都
温江-花都大道-蓝润光华春天A区,94.17㎡,东,3室2厅2卫,高楼层（34层）,2600 元/月,CD2781878947854688256,2021-06-27,103.89347,30.696434,整租,/权属核验/精装/双卫生间/随时看房/,有,暂无数据,民水,民电,有,自采暖,2021-07-03 13:40:03,成都
温江-花都大道-千禧河畔A区,86.88㎡,东南,3室2厅2卫,高楼层（33层）,2200 元/月,CD2781901422118043648,2021-07-02,103.88658,30.694547,整租,/权属核验/双卫生间/随时看房/,有,暂无数据,暂无数据,暂无数据,有,自采暖,2021-07-03 13:40:10,成都
温江-花都大道-朝阳时代西锦,111.41㎡,东南,3室1厅1卫,中楼层（33层）,2200 元/月,CD2782500216677335040,2021-06-23,103.873377,30.698827,整租,/权属核验/精装/,有,暂无数据,民水,民电,有,自采暖,2021-07-03 13:40:14,成都
温江-珠江新城-西花汀,132.03㎡,西南,3室2厅2卫,中楼层（20层）,2500 元/月,CD2782051909920628736,2021-06-27,103.865146,30.696138,整租,/权属核验/近地铁/精装/双卫生间/,有,暂无数据,民水,民电,有,自采暖,2021-07-03 13:40:20,成都
温江-光华大道沿线-洲际春天广场,66.23㎡,西北北,2室2厅1卫,中楼层（32层）,1700 元/月,CD2817478873145679872,2021-06-26,103.875899,30.681053,整租,/权属核验/新上/精装/,有,暂无数据,民水,民电,有,自采暖,2021-07-03 13:40:29,成都
温江-光华大道沿线-8号公馆,124.70㎡,南,3室2厅2卫,中楼层（8层）,3200 元/月,CD2817562527138062336,2021-06-28,103.881222,30.682201,整租,/权属核验/新上/近地铁/精装/双卫生间/,有,暂无数据,民水,民电,有,自采暖,2021-07-03 13:40:37,成都
温江-花都大道-佳年华新生活A区,79.18㎡,东南,3室2厅1卫,高楼层（31层）,2400 元/月,CD2817940437627568128,2021-06-28,103.889194,30.694426,整租,/权属核验/新上/精装/随时看房/,有,暂无数据,民水,民电,有,暂无数据,2021-07-03 13:40:41,成都
温江-温江大学城-明信城,84.00㎡,东南,3室1厅2卫,中楼层（32层）,2300 元/月,CD2817417262058192896,2021-06-27,103.83958,30.68478,整租,/权属核验/新上/精装/双卫生间/,无,暂无数据,民水,民电,有,暂无数据,2021-07-03 13:40:45,成都
温江-国色天乡-鹭湖宫六区B组团,76.51㎡,南,2室1厅1卫,中楼层（30层）,1700 元/月,CD2782627164502638592,2021-07-02,103.840479,30.726362,整租,/权属核验/,有,暂无数据,民水,民电,有,自采暖,2021-07-03 13:40:53,成都
温江-光华大道沿线-春天大道,132.06㎡,南北,3室2厅2卫,高楼层（25层）,2800 元/月,CD2783868377184616448,2021-06-27,103.901418,30.684799,整租,/权属核验/近地铁/双卫生间/,有,暂无数据,民水,民电,有,自采暖,2021-07-03 13:40:57,成都
温江-光华大道沿线-合能珍宝琥珀,82.79㎡,东,3室1厅1卫,低楼层（34层）,2000 元/月,CD2782720529440702464,2021-06-27,103.894555,30.677477,整租,/权属核验/精装/,有,暂无数据,民水,民电,有,暂无数据,2021-07-03 13:41:03,成都
温江-温江大学城-恒大御景,86.00㎡,东南,2室1厅1卫,低楼层（37层）,1300 元/月,CD2783359229178675200,2021-06-27,103.807977,30.647873,整租,/权属核验/精装/,有,租用车位,民水,民电,有,暂无数据,2021-07-03 13:41:10,成都
温江-温江大学城-明信城,108.00㎡,东南,4室1厅2卫,高楼层（33层）,3000 元/月,CD2818040005078302720,2021-07-02,103.83958,30.68478,整租,/权属核验/新上/近地铁/精装/双卫生间/,有,暂无数据,民水,民电,有,暂无数据,2021-07-03 13:41:16,成都
温江-珠江新城-德坤新天地,81.22㎡,东南,2室1厅1卫,中楼层（32层）,2000 元/月,CD2785296192044023808,2021-06-29,103.862971,30.693856,整租,/权属核验/近地铁/,有,暂无数据,民水,民电,有,暂无数据,2021-07-03 13:41:24,成都
温江-光华大道沿线-中南上熙府熙悦,147.11㎡,南北,4室2厅3卫,高楼层（9层）,3800 元/月,CD2783950161800331264,2021-06-12,103.870099,30.677236,整租,/权属核验/精装/随时看房/,有,暂无数据,民水,民电,有,暂无数据,2021-07-03 13:41:30,成都
温江-珠江新城-珠江悦湖国际,54.14㎡,东南,1室1厅1卫,高楼层（46层）,1200 元/月,CD2783984980387438592,2021-06-19,103.868519,30.691145,整租,/权属核验/近地铁/随时看房/,有,暂无数据,暂无数据,商电,无,暂无数据,2021-07-03 13:41:37,成都
温江-花都大道-蓝润光华春天B区,72.00㎡,东,3室1厅1卫,中楼层（31层）,1900 元/月,CD2784858422175342592,2021-06-13,103.89658531974,30.696493049215,整租,/权属核验/精装/随时看房/,有,暂无数据,民水,民电,有,暂无数据,2021-07-03 13:41:44,成都
温江-花都大道-蓝润光华春天A区,75.63㎡,东南,3室1厅1卫,中楼层（32层）,2500 元/月,CD2784768228214448128,2021-06-17,103.89347,30.696434,整租,//权属核验/精装/随时看房/,有,暂无数据,民水,民电,有,自采暖,2021-07-03 13:41:48,成都
温江-花都大道-蓝润光华春天A区,81.00㎡,东,3室1厅1卫,中楼层（27层）,2300 元/月,CD2818684851300081664,2021-06-30,103.89347,30.696434,整租,/权属核验/新上/精装/,有,暂无数据,民水,民电,有,暂无数据,2021-07-03 13:41:50,成都
温江-光华大道沿线-金河谷五期,76.32㎡,南,3室2厅1卫,中楼层（34层）,1500 元/月,CD2784131092406878208,2021-06-27,103.907137,30.679212,整租,/权属核验/,有,暂无数据,民水,民电,有,自采暖,2021-07-03 13:41:53,成都
温江-光华大道沿线-恒大新城一期,82.90㎡,东南,3室2厅2卫,低楼层（32层）,2600 元/月,CD2785325216183107584,2021-06-27,103.8738,30.668295,整租,/权属核验/近地铁/精装/双卫生间/,有,租用车位,民水,民电,有,暂无数据,2021-07-03 13:41:56,成都
温江-光华大道沿线-西班牙森林二期,78.39㎡,南,2室1厅1卫,中楼层（18层）,2100 元/月,CD2784545681900044288,2021-07-02,103.900245,30.696234,整租,/权属核验/精装/随时看房/,有,暂无数据,民水,民电,有,自采暖,2021-07-03 13:42:01,成都
温江-温江大学城-世纪滨江,118.78㎡,西南,3室2厅2卫,高楼层（6层）,1800 元/月,CD2786807776255680512,2021-06-30,103.828643,30.705459,整租,//权属核验/精装/双卫生间/随时看房/,无,暂无数据,民水,民电,有,暂无数据,2021-07-03 13:42:06,成都
温江-光华大道沿线-恒大未来城,94.20㎡,东南,3室2厅1卫,低楼层（32层）,2500 元/月,CD2785595531458781184,2021-06-27,103.872129,30.680102,整租,//权属核验/精装/随时看房/,有,暂无数据,暂无数据,暂无数据,有,暂无数据,2021-07-03 13:42:15,成都
温江-光华大道沿线-洲际春天广场,95.37㎡,东南,3室2厅2卫,高楼层（32层）,2000 元/月,CD2785516487635369984,2021-06-27,103.875899,30.681053,整租,/权属核验/双卫生间/,有,暂无数据,民水,民电,有,自采暖,2021-07-03 13:42:19,成都
温江-温江新城-星光华印象,106.68㎡,南,3室1厅1卫,中楼层（42层）,1800 元/月,CD2785531328458924032,2021-06-30,103.874251,30.683779,整租,/权属核验/近地铁/精装/,有,租用车位,民水,民电,有,自采暖,2021-07-03 13:42:22,成都
温江-光华大道沿线-彩叠园二期,85.22㎡,东南南,2室1厅1卫,低楼层（11层）,2000 元/月,CD2819398252850585600,2021-07-01,103.88733743295,30.678978125276,整租,/权属核验/新上/精装/,有,租用车位,民水,民电,有,暂无数据,2021-07-03 13:42:30,成都
温江-光华大道沿线-洲际亚洲湾B区,106.00㎡,南,3室2厅2卫,低楼层（32层）,2500 元/月,CD2819596831166562304,2021-07-01,103.889159,30.68773,整租,/权属核验/新上/近地铁/精装/双卫生间/,有,暂无数据,民水,民电,有,自采暖,2021-07-03 13:42:35,成都
温江-花都大道-七彩花都B区二期,82.08㎡,西南,3室1厅1卫,高楼层（18层）,1800 元/月,CD2787667234367995904,2021-07-02,103.86945,30.703014,整租,//权属核验/精装/随时看房/,有,暂无数据,民水,民电,有,暂无数据,2021-07-03 13:42:41,成都
温江-温江大学城-金强大学城,45.69㎡,东南,1室1厅1卫,中楼层（28层）,1200 元/月,CD2787658421313748992,2021-07-01,103.829624,30.691805,整租,/权属核验/精装/,有,暂无数据,民水,民电,有,自采暖,2021-07-03 13:42:48,成都
温江-光华大道沿线-洲际银海湾,122.47㎡,东,3室2厅2卫,低楼层（32层）,2600 元/月,CD2787730484933689344,2021-06-27,103.89409,30.68825,整租,/权属核验/近地铁/双卫生间/,有,暂无数据,民水,民电,有,暂无数据,2021-07-03 13:42:56,成都
温江-花都大道-蓝润光华春天A区,81.00㎡,东南,3室2厅1卫,中楼层（34层）,2000 元/月,CD2787471080812986368,2021-06-21,103.89347,30.696434,整租,//权属核验/精装/随时看房/,有,暂无数据,民水,民电,有,自采暖,2021-07-03 13:42:58,成都
温江-花都大道-七彩花都B区一期,138.48㎡,东,4室2厅2卫,高楼层（5层）,2500 元/月,CD2787591221836005376,2021-07-01,103.870906,30.702146,整租,/权属核验/双卫生间/随时看房/,无,暂无数据,民水,民电,有,自采暖,2021-07-03 13:43:05,成都
温江-花都大道-蓝润光华春天A区,81.17㎡,东南南西南,3室2厅1卫,高楼层（34层）,2500 元/月,CD2786924905114116096,2021-07-02,103.89347,30.696434,整租,/权属核验/精装/随时看房/,有,暂无数据,暂无数据,民电,有,暂无数据,2021-07-03 13:43:09,成都
温江-光华大道沿线-恒大未来城,96.00㎡,东南南,3室2厅1卫,低楼层（22层）,2100 元/月,CD2819710315351523328,2021-07-02,103.872129,30.680102,整租,/权属核验/新上/近地铁/精装/,有,租用车位,暂无数据,暂无数据,有,暂无数据,2021-07-03 13:43:18,成都
温江-光华大道沿线-合能珍宝琥珀三期,79.65㎡,东南,3室1厅1卫,高楼层（33层）,2000 元/月,CD2820121003932794880,2021-07-01,103.884081,30.679698,整租,/权属核验/新上/近地铁/精装/,有,租用车位,民水,民电,有,自采暖,2021-07-03 13:43:21,成都
温江-光华大道沿线-春天大道,98.90㎡,南,2室1厅1卫,低楼层（18层）,2200 元/月,CD2820104130474024960,2021-07-01,103.901418,30.684799,整租,//权属核验/新上/近地铁/精装/随时看房/,有,暂无数据,民水,民电,有,自采暖,2021-07-03 13:43:27,成都
温江-温江大学城-中铁丽景书香,81.02㎡,东南,2室1厅1卫,低楼层（33层）,1600 元/月,CD2820162025827598336,2021-07-02,103.816062,30.68712,整租,//权属核验/新上/随时看房/,有,暂无数据,民水,民电,有,自采暖,2021-07-03 13:43:34,成都
温江-温江大学城-西财学府阳光,77.94㎡,东南,2室2厅1卫,中楼层（33层）,1500 元/月,CD2806585248086245376,2021-06-26,103.820352,30.683297,整租,/权属核验/近地铁/,有,暂无数据,暂无数据,暂无数据,有,暂无数据,2021-07-03 13:43:39,成都
温江-珠江新城-佳兆业丽晶港,87.04㎡,东南,3室2厅1卫,高楼层（33层）,2300 元/月,CD2806436775361789952,2021-06-17,103.87781087474,30.688063705979,整租,/权属核验/近地铁/精装/,有,暂无数据,民水,民电,有,暂无数据,2021-07-03 13:43:47,成都
温江-温江新城-依云,91.81㎡,西南,2室2厅1卫,中楼层（28层）,1800 元/月,CD2795471518375608320,2021-07-01,103.87149,30.685399,整租,/权属核验/近地铁/随时看房/,有,暂无数据,民水,民电,有,暂无数据,2021-07-03 13:43:53,成都
温江-温江大学城-西财学府憬城,81.21㎡,东南,2室2厅1卫,高楼层（11层）,1600 元/月,CD2806408769314234368,2021-06-30,103.821646,30.681115,整租,/权属核验/近地铁/精装/,有,暂无数据,商水,民电,有,暂无数据,2021-07-03 13:43:56,成都
温江-光华大道沿线-8号公馆,88.66㎡,南,2室1厅2卫,低楼层（31层）,1800 元/月,CD2796365743275917312,2021-06-27,103.881222,30.682201,整租,/权属核验/精装/双卫生间/,有,暂无数据,民水,民电,有,自采暖,2021-07-03 13:43:59,成都
温江-光华大道沿线-合能珍宝琥珀,82.77㎡,西,3室2厅1卫,高楼层（34层）,1800 元/月,CD2796314074945175552,2021-06-03,103.894555,30.677477,整租,/权属核验/近地铁/,有,暂无数据,民水,民电,有,暂无数据,2021-07-03 13:44:02,成都
温江-温江老城-文武路71号,99.75㎡,东南,2室2厅1卫,中楼层（5层）,1200 元/月,CD2798655292101885952,2021-07-02,103.844864,30.702144,整租,/权属核验/近地铁/,无,暂无数据,暂无数据,暂无数据,暂无数据,暂无数据,2021-07-03 13:44:08,成都
温江-温江新城-和信孔雀天成,51.00㎡,东南,1室1厅1卫,低楼层（33层）,1800 元/月,CD2798434875764375552,2021-06-07,103.848716,30.689934,整租,/权属核验/近地铁/精装/,有,租用车位,民水,民电,有,暂无数据,2021-07-03 13:44:16,成都
温江-温江老城-边城水恋,98.59㎡,西南东北,2室1厅1卫,中楼层（5层）,1700 元/月,CD2798485206565126144,2021-06-28,103.85014,30.71192,整租,/权属核验/,无,暂无数据,暂无数据,暂无数据,有,暂无数据,2021-07-03 13:44:22,成都
温江-温江老城-西蜀尚都,89.70㎡,东南,2室2厅1卫,中楼层（32层）,1200 元/月,CD2808105439177482240,2021-06-30,103.862477,30.703537,整租,/权属核验/,有,租用车位,民水,民电,有,自采暖,2021-07-03 13:44:25,成都
温江-温江新城-光华国际,79.98㎡,东南,1室1厅1卫,低楼层（30层）,2100 元/月,CD2809213118373167104,2021-07-02,103.869772,30.687217,整租,//权属核验/近地铁/精装/随时看房/,有,租用车位,民水,民电,有,自采暖,2021-07-03 13:44:29,成都
温江-花都大道-佳年华新生活A区,90.71㎡,东南,3室2厅2卫,中楼层（31层）,2200 元/月,CD2720885242704429056,2021-06-27,103.889194,30.694426,整租,/权属核验/双卫生间/随时看房/,有,暂无数据,民水,民电,有,暂无数据,2021-07-03 13:44:37,成都
温江-光华大道沿线-春天大道,132.54㎡,东南,3室1厅2卫,中楼层（20层）,2900 元/月,CD2725210530179448832,2021-07-01,103.901418,30.684799,整租,//权属核验/近地铁/精装/双卫生间/随时看房/,有,暂无数据,民水,民电,有,自采暖,2021-07-03 13:44:41,成都
温江-光华大道沿线-金河谷五期,88.65㎡,东,3室2厅2卫,低楼层（34层）,2000 元/月,CD2723232154972078080,2021-06-01,103.907137,30.679212,整租,/权属核验/精装/双卫生间/随时看房/,有,租用车位,民水,民电,有,自采暖,2021-07-03 13:44:48,成都
温江-花都大道-千禧河畔B区,86.75㎡,南,3室2厅2卫,高楼层（33层）,2400 元/月,CD2725192306608586752,2021-06-07,103.886767,30.6927,整租,/权属核验/精装/双卫生间/随时看房/,有,暂无数据,民水,民电,有,自采暖,2021-07-03 13:44:52,成都
温江-光华大道沿线-蓝光香境,108.00㎡,南,4室1厅2卫,高楼层（27层）,4500 元/月,CD2725934400268140544,2021-06-30,103.8993,30.692645,整租,/权属核验/精装/双卫生间/随时看房/,有,暂无数据,民水,民电,有,自采暖,2021-07-03 13:44:57,成都
温江-珠江新城-珠江御景湾,139.65㎡,南,4室2厅2卫,中楼层（18层）,4000 元/月,CD2724614735244042240,2021-06-26,103.873617,30.690868,整租,/权属核验/近地铁/精装/双卫生间/随时看房/,有,暂无数据,民水,民电,有,自采暖,2021-07-03 13:45:02,成都
温江-光华大道沿线-恒大未来城,91.00㎡,东南,3室1厅1卫,低楼层（35层）,2300 元/月,CD2726003029920202752,2021-06-30,103.872129,30.680102,整租,/权属核验/近地铁/精装/随时看房/,有,暂无数据,民水,民电,有,暂无数据,2021-07-03 13:45:11,成都
温江-温江新城-恒大城三期,90.47㎡,东南,3室1厅1卫,高楼层（30层）,1800 元/月,CD2726012317652221952,2021-06-27,103.855738,30.68701,整租,/权属核验/近地铁/精装/,有,租用车位,民水,民电,有,暂无数据,2021-07-03 13:45:17,成都
温江-花都大道-优取舍,141.37㎡,东南,3室2厅2卫,中楼层（11层）,2500 元/月,CD2809239383046094848,2021-06-27,103.865019,30.700005,整租,/权属核验/精装/双卫生间/,有,租用车位,民水,民电,有,自采暖,2021-07-03 13:45:26,成都
温江-光华大道沿线-湟普国际,109.13㎡,东南,3室1厅2卫,低楼层（26层）,2900 元/月,CD2800020212408393728,2021-07-01,103.896334,30.681856,整租,//权属核验/近地铁/精装/双卫生间/随时看房/,有,暂无数据,民水,民电,有,自采暖,2021-07-03 13:45:32,成都
温江-光华大道沿线-合能珍宝琥珀三期,79.65㎡,南,3室2厅1卫,中楼层（33层）,1900 元/月,CD2809293503266291712,2021-06-27,103.884081,30.679698,整租,//权属核验/随时看房/,有,暂无数据,民水,民电,有,自采暖,2021-07-03 13:45:41,成都
温江-光华大道沿线-洲际春天广场,77.00㎡,南,3室2厅1卫,高楼层（32层）,1700 元/月,CD2799977637873713152,2021-06-08,103.875899,30.681053,整租,/权属核验/精装/随时看房/,有,租用车位,民水,民电,有,自采暖,2021-07-03 13:45:46,成都
温江-珠江新城-珠江悦湖国际,53.00㎡,北,1室1厅1卫,低楼层（46层）,1500 元/月,CD2799863292431450112,2021-06-24,103.868519,30.691145,整租,/权属核验/近地铁/,无,暂无数据,暂无数据,商电,无,暂无数据,2021-07-03 13:45:50,成都
温江-国色天乡-蓝光四叶城,90.43㎡,南,3室1厅1卫,高楼层（26层）,2000 元/月,CD2809304814826569728,2021-06-18,103.841174,30.737573,未知,/权属核验/精装/,有,暂无数据,民水,民电,有,暂无数据,2021-07-03 13:45:59,成都
温江-花都大道-千禧河畔A区,78.00㎡,东南,3室1厅1卫,低楼层（33层）,2100 元/月,CD2808642052358160384,2021-06-27,103.88658,30.694547,整租,//权属核验/精装/随时看房/,有,暂无数据,暂无数据,暂无数据,有,自采暖,2021-07-03 13:46:07,成都
温江-温江大学城-海科名城,115.47㎡,东南,3室1厅1卫,高楼层（27层）,500 元/月,CD2800729068986187776,2021-07-02,103.822162,30.684502,整租,/权属核验/近地铁/,有,暂无数据,民水,民电,有,自采暖,2021-07-03 13:46:12,成都
温江-光华大道沿线-公园大道,124.97㎡,北,2室2厅1卫,中楼层（21层）,2000 元/月,CD2801545496861351936,2021-06-27,103.885794,30.685259,整租,/权属核验/近地铁/精装/,有,暂无数据,民水,民电,无,自采暖,2021-07-03 13:46:19,成都
温江-温江大学城-新尚天地,41.00㎡,东南,1室1厅1卫,低楼层（31层）,1400 元/月,CD2811375797070471168,2021-07-01,103.820255,30.688726,整租,/权属核验/近地铁/随时看房/,有,暂无数据,商水,商电,有,暂无数据,2021-07-03 13:46:23,成都
温江-珠江新城-珠江悦湖国际,47.37㎡,南北,1室1厅1卫,高楼层（46层）,1000 元/月,CD2747772171140481024,2021-06-13,103.868519,30.691145,整租,/权属核验/近地铁/,有,暂无数据,暂无数据,商电,无,暂无数据,2021-07-03 13:46:32,成都
温江-国色天乡-德坤海地亚,88.54㎡,东南,3室1厅1卫,高楼层（18层）,1400 元/月,CD2814422300622340096,2021-06-27,103.84991,30.715828,整租,//权属核验/随时看房/,有,暂无数据,民水,民电,有,自采暖,2021-07-03 13:46:35,成都
温江-花都大道-佳年华新生活,99.47㎡,东南,3室2厅2卫,中楼层（32层）,2400 元/月,CD2806448482167029760,2021-06-27,103.889059,30.692109,整租,/权属核验/精装/双卫生间/随时看房/,有,免费使用,商水,商电,有,自采暖,2021-07-03 13:46:41,成都
温江-花都大道-朝阳时代西锦,90.94㎡,西南,2室1厅1卫,低楼层（33层）,1500 元/月,CD2806646561990246400,2021-06-17,103.873377,30.698827,整租,/权属核验/随时看房/,有,暂无数据,民水,民电,有,自采暖,2021-07-03 13:46:46,成都
温江-温江老城-公园壹号,81.62㎡,东南,2室2厅1卫,低楼层（27层）,1800 元/月,CD2807244588287533056,2021-06-23,103.85038,30.703171,整租,/权属核验/精装/,有,租用车位,民水,民电,有,自采暖,2021-07-03 13:46:53,成都
温江-温江新城-恒大城一期,88.51㎡,东南,3室1厅1卫,高楼层（33层）,2000 元/月,CD2750787801150144512,2021-06-24,103.858672,30.686107,整租,/权属核验/近地铁/精装/随时看房/,有,暂无数据,民水,民电,有,自采暖,2021-07-03 13:47:01,成都
温江-温江新城-恒大城四期,88.69㎡,西南,3室2厅2卫,高楼层（30层）,2400 元/月,CD2750012752348594176,2021-06-28,103.85817940764,30.686306013585,整租,/权属核验/精装/双卫生间/随时看房/,有,租用车位,民水,民电,有,自采暖,2021-07-03 13:47:06,成都
温江-温江新城-新城府景,79.72㎡,东南南,2室1厅1卫,高楼层（25层）,1600 元/月,CD2750675337649332224,2021-06-27,103.863502,30.682232,整租,/权属核验/精装/随时看房/,有,暂无数据,民水,民电,有,自采暖,2021-07-03 13:47:12,成都
温江-光华大道沿线-8号公馆,81.17㎡,东南,2室2厅1卫,低楼层（31层）,1700 元/月,CD2750045990580404224,2021-06-23,103.881222,30.682201,整租,/权属核验/精装/随时看房/,有,暂无数据,民水,民电,有,自采暖,2021-07-03 13:47:16,成都
温江-温江大学城-东原城,109.18㎡,东南,3室2厅2卫,高楼层（34层）,1800 元/月,CD2749851949729062912,2021-06-27,103.815115,30.650568,整租,/权属核验/双卫生间/,有,租用车位,民水,民电,有,暂无数据,2021-07-03 13:47:18,成都
温江-花都大道-佳年华新生活A区,90.00㎡,东南西南,3室1厅2卫,低楼层（33层）,2600 元/月,CD2807239289464176640,2021-06-27,103.889194,30.694426,整租,/权属核验/精装/双卫生间/,无,租用车位,民水,暂无数据,有,暂无数据,2021-07-03 13:47:23,成都
温江-温江大学城-中铁丽景书香,140.17㎡,东南,4室2厅2卫,高楼层（33层）,2000 元/月,CD2807089213903224832,2021-06-27,103.816062,30.68712,整租,//权属核验/精装/双卫生间/随时看房/,有,租用车位,民水,民电,有,自采暖,2021-07-03 13:47:29,成都
温江-国色天乡-大庆蜀苑,98.71㎡,南北,2室1厅1卫,高楼层（5层）,1300 元/月,CD2807237329910513664,2021-07-02,103.850175,30.718978,整租,/权属核验/随时看房/,无,暂无数据,民水,民电,有,自采暖,2021-07-03 13:47:32,成都
温江-花都大道-佳年华新生活A区,90.38㎡,南,3室2厅2卫,低楼层（33层）,2400 元/月,CD2807909730914410496,2021-06-27,103.889194,30.694426,整租,/权属核验/精装/双卫生间/,有,暂无数据,民水,民电,有,自采暖,2021-07-03 13:47:38,成都
温江-温江大学城-中铁丽景书香,75.78㎡,东,2室2厅1卫,高楼层（23层）,1550 元/月,CD2807909259332034560,2021-06-27,103.816062,30.68712,整租,//权属核验/近地铁/精装/,有,租用车位,民水,民电,有,自采暖,2021-07-03 13:47:41,成都
温江-花都大道-千禧河畔A区,78.39㎡,南,2室1厅1卫,高楼层（33层）,2000 元/月,CD2807988302441873408,2021-06-25,103.88658,30.694547,整租,//权属核验/精装/随时看房/,有,租用车位,民水,民电,有,自采暖,2021-07-03 13:47:43,成都
温江-光华大道沿线-合能珍宝琥珀,67.97㎡,东南,2室1厅1卫,高楼层（34层）,1700 元/月,CD2753584494412824576,2021-06-27,103.894555,30.677477,整租,//权属核验/近地铁/精装/随时看房/,有,暂无数据,暂无数据,民电,有,自采暖,2021-07-03 13:47:47,成都
温江-光华大道沿线-合能珍宝琥珀,81.90㎡,东,3室1厅1卫,高楼层（34层）,2200 元/月,CD2753695484387262464,2021-06-26,103.894555,30.677477,整租,/权属核验/近地铁/精装/随时看房/,有,暂无数据,民水,民电,有,暂无数据,2021-07-03 13:47:54,成都
温江-温江老城-兴城丽景,124.27㎡,东南,3室2厅2卫,低楼层（6层）,1500 元/月,CD2752874335168364544,2021-06-09,103.828695,30.713522,整租,/权属核验/精装/双卫生间/随时看房/,无,租用车位,暂无数据,暂无数据,有,暂无数据,2021-07-03 13:47:59,成都
温江-花都大道-佳年华新生活A区,90.75㎡,东南,3室2厅2卫,高楼层（31层）,2500 元/月,CD2752679471260901376,2021-06-27,103.889194,30.694426,整租,/权属核验/精装/双卫生间/随时看房/,有,免费使用,商水,商电,有,暂无数据,2021-07-03 13:48:02,成都
温江-温江大学城-新尚天地,44.90㎡,东南,1室1厅1卫,低楼层（31层）,1300 元/月,CD2752119501486030848,2021-06-27,103.820255,30.688726,整租,/权属核验/近地铁/精装/随时看房/,有,租用车位,商水,商电,有,暂无数据,2021-07-03 13:48:05,成都
温江-光华大道沿线-洲际春天广场,71.65㎡,东西,3室2厅1卫,中楼层（31层）,1600 元/月,CD2751568731993292800,2021-06-27,103.875899,30.681053,整租,/权属核验/,有,暂无数据,民水,暂无数据,有,暂无数据,2021-07-03 13:48:08,成都
温江-珠江新城-珠江悦湖国际,55.00㎡,南,1室1厅1卫,高楼层（46层）,1200 元/月,CD2754239695599697920,2021-06-27,103.868519,30.691145,整租,/权属核验/近地铁/随时看房/,有,暂无数据,暂无数据,商电,无,暂无数据,2021-07-03 13:48:11,成都
温江-光华大道沿线-金科天宸,79.92㎡,南,2室2厅1卫,低楼层（33层）,1800 元/月,CD2815795577064005632,2021-06-26,103.88785332848,30.672003384286,整租,/权属核验/精装/,有,暂无数据,民水,民电,有,自采暖,2021-07-03 13:48:19,成都
温江-温江大学城-明信城,89.20㎡,东南,3室2厅2卫,低楼层（32层）,2200 元/月,CD2815977724798582784,2021-06-27,103.83958,30.68478,整租,/权属核验/精装/双卫生间/,无,暂无数据,民水,民电,有,暂无数据,2021-07-03 13:48:25,成都
温江-光华大道沿线-洲际春天广场,80.19㎡,西北,3室2厅1卫,中楼层（31层）,2000 元/月,CD2807768084645937152,2021-06-27,103.875899,30.681053,整租,/权属核验/精装/随时看房/,有,暂无数据,民水,暂无数据,有,暂无数据,2021-07-03 13:48:29,成都
温江-光华大道沿线-天来汇景,86.65㎡,西南,3室1厅2卫,中楼层（32层）,700 元/月,CD2808740086588375040,2021-06-24,103.87849,30.682512,整租,/权属核验/业主自荐/近地铁/双卫生间/随时看房/,无,暂无数据,民水,民电,有,暂无数据,2021-07-03 13:48:37,成都
温江-光华大道沿线-中国西部文化城,127.51㎡,东南,3室2厅2卫,高楼层（7层）,2000 元/月,CD2809218762757652480,2021-06-18,103.88757412838,30.675709334212,整租,/权属核验/双卫生间/,有,暂无数据,民水,民电,有,暂无数据,2021-07-03 13:48:43,成都
温江-花都大道-佳年华新生活A区,68.00㎡,东南,2室1厅1卫,中楼层（31层）,2500 元/月,CD2808639671905820672,2021-06-27,103.889194,30.694426,整租,/权属核验/精装/,有,暂无数据,暂无数据,暂无数据,有,自采暖,2021-07-03 13:48:46,成都
温江-温江新城-格凌兰,89.00㎡,东南,3室2厅2卫,低楼层（32层）,2000 元/月,CD2754351290359758848,2021-06-30,103.854266,30.6906,整租,/权属核验/近地铁/精装/双卫生间/,有,租用车位,民水,民电,有,暂无数据,2021-07-03 13:48:50,成都
温江-温江大学城-榕树岭,111.56㎡,东南南,3室2厅2卫,高楼层（26层）,1600 元/月,CD2800847277089374208,2021-06-27,103.838796,30.686415,整租,//权属核验/近地铁/双卫生间/,有,暂无数据,民水,民电,有,自采暖,2021-07-03 13:48:56,成都
温江-花都大道-朝阳时代西锦,86.60㎡,西南,2室1厅1卫,低楼层（33层）,1400 元/月,CD2801998822346334208,2021-06-27,103.873377,30.698827,整租,//权属核验/精装/随时看房/,有,暂无数据,民水,民电,有,自采暖,2021-07-03 13:49:05,成都
温江-光华大道沿线-大华水映岛,97.53㎡,东,2室2厅1卫,高楼层（11层）,2000 元/月,CD2802131528941830144,2021-07-02,103.884922,30.688013,整租,/权属核验/近地铁/随时看房/,有,免费使用,民水,民电,有,自采暖,2021-07-03 13:49:11,成都
温江-光华大道沿线-彩叠园二期,85.21㎡,南,2室2厅1卫,中楼层（11层）,1700 元/月,CD2801961767943536640,2021-06-29,103.88733743295,30.678978125276,整租,/权属核验/随时看房/,有,暂无数据,民水,民电,有,暂无数据,2021-07-03 13:49:13,成都
温江-光华大道沿线-洲际亚洲湾A区,121.17㎡,南,3室2厅2卫,低楼层（29层）,2400 元/月,CD2802148772665638912,2021-06-27,103.887978,30.68813,整租,//权属核验/精装/双卫生间/随时看房/,有,暂无数据,民水,民电,有,自采暖,2021-07-03 13:49:17,成都
温江-花都大道-佳年华新生活,67.00㎡,西南,2室2厅1卫,低楼层（32层）,2400 元/月,CD2801554733423132672,2021-06-27,103.889059,30.692109,整租,/权属核验/精装/,有,免费使用,商水,商电,有,自采暖,2021-07-03 13:49:25,成都
温江-国色天乡-合能枫丹西悦,112.54㎡,西北,4室2厅2卫,高楼层（17层）,1100 元/月,CD2802033029294596096,2021-06-27,103.860576,30.708728,整租,/权属核验/双卫生间/随时看房/,无,暂无数据,暂无数据,暂无数据,有,暂无数据,2021-07-03 13:49:32,成都
温江-光华大道沿线-洲际春天广场,76.20㎡,西南,3室1厅1卫,中楼层（31层）,1700 元/月,CD2802175415731355648,2021-06-27,103.875899,30.681053,整租,/权属核验/近地铁/精装/,有,暂无数据,民水,民电,有,自采暖,2021-07-03 13:49:41,成都
温江-光华大道沿线-蓝光香瑞湖,310.04㎡,南,5室3厅5卫,低楼层（3层）,20000 元/月,CD2802197179412774912,2021-07-02,103.89088792167,30.68123045932,整租,/权属核验/精装/,无,暂无数据,民水,民电,有,自采暖,2021-07-03 13:49:47,成都
温江-温江老城-东关人家,126.90㎡,东北,3室2厅1卫,高楼层（5层）,1400 元/月,CD2786985724233662464,2021-07-02,103.85686278109,30.705561849459,整租,/权属核验/精装/随时看房/,无,暂无数据,暂无数据,暂无数据,有,暂无数据,2021-07-03 13:49:51,成都
温江-温江老城-漫城,117.91㎡,东南,2室1厅1卫,高楼层（11层）,1500 元/月,CD2788958384291332096,2021-06-23,103.864007,30.705241,整租,/权属核验/精装/,有,暂无数据,民水,民电,有,自采暖,2021-07-03 13:49:59,成都
温江-温江大学城-中铁丽景书香,85.94㎡,南,3室1厅1卫,高楼层（33层）,1800 元/月,CD2789651530071425024,2021-06-23,103.816062,30.68712,整租,/权属核验/近地铁/精装/,有,租用车位,民水,民电,有,自采暖,2021-07-03 13:50:05,成都
温江-光华大道沿线-蓝光香境,73.93㎡,东南,2室1厅1卫,高楼层（34层）,1900 元/月,CD2789642619138088960,2021-06-13,103.8993,30.692645,整租,/权属核验/近地铁/精装/,有,租用车位,民水,民电,有,自采暖,2021-07-03 13:50:09,成都
温江-温江新城-塞纳河畔,84.44㎡,西北,2室1厅1卫,中楼层（12层）,1600 元/月,CD2788916640287834112,2021-07-01,103.858854,30.692582,整租,/权属核验/近地铁/,有,租用车位,民水,民电,有,自采暖,2021-07-03 13:50:16,成都
温江-温江大学城-恒大御景,109.00㎡,南,3室1厅2卫,高楼层（47层）,1300 元/月,CD2661565639512031232,2021-06-27,103.807977,30.647873,整租,/权属核验/精装/双卫生间/,有,租用车位,民水,民电,有,暂无数据,2021-07-03 13:50:20,成都
温江-光华大道沿线-天来汇景,88.00㎡,东,3室2厅2卫,高楼层（31层）,1800 元/月,CD2667286695803617280,2021-06-27,103.87849,30.682512,整租,/权属核验/近地铁/精装/双卫生间/随时看房/,无,暂无数据,暂无数据,暂无数据,有,暂无数据,2021-07-03 13:50:27,成都
温江-花都大道-佳年华新生活,48.50㎡,东南,3室2厅2卫,低楼层（32层）,2500 元/月,CD2665796250808352768,2021-06-27,103.889059,30.692109,整租,/权属核验/精装/双卫生间/,有,暂无数据,商水,商电,有,自采暖,2021-07-03 13:50:33,成都
温江-光华大道沿线-湟普国际,74.00㎡,南,2室1厅1卫,中楼层（32层）,2500 元/月,CD2663585990031187968,2021-06-28,103.896334,30.681856,整租,/权属核验/近地铁/精装/随时看房/,有,暂无数据,民水,民电,有,暂无数据,2021-07-03 13:50:41,成都
温江-花都大道-蓝润光华春天B区,95.00㎡,南,3室2厅2卫,高楼层（26层）,2600 元/月,CD2663043637709389824,2021-06-27,103.89658531974,30.696493049215,整租,/权属核验/精装/双卫生间/,有,暂无数据,民水,民电,有,暂无数据,2021-07-03 13:50:46,成都
温江-温江大学城-海峡新城四期,116.55㎡,东南,3室2厅2卫,中楼层（6层）,2100 元/月,CD2664295945684402176,2021-06-27,103.834981,30.693566,整租,/权属核验/近地铁/精装/双卫生间/随时看房/,无,暂无数据,民水,民电,有,自采暖,2021-07-03 13:50:51,成都
温江-温江大学城-恒大御景,110.00㎡,南北,3室2厅2卫,低楼层（26层）,1500 元/月,CD2663755731970564096,2021-06-27,103.807977,30.647873,整租,/权属核验/精装/双卫生间/,有,租用车位,民水,民电,有,暂无数据,2021-07-03 13:50:54,成都
温江-温江大学城-新尚天地,36.97㎡,南,1室1厅1卫,中楼层（31层）,800 元/月,CD2668705534533697536,2021-06-25,103.820255,30.688726,整租,/权属核验/近地铁/随时看房/,有,租用车位,商水,商电,有,暂无数据,2021-07-03 13:50:57,成都
温江-花都大道-朝阳时代西锦,85.29㎡,南,2室1厅1卫,低楼层（33层）,1650 元/月,CD2802188240914743296,2021-06-28,103.873377,30.698827,整租,//权属核验/精装/随时看房/,有,暂无数据,民水,民电,有,自采暖,2021-07-03 13:51:00,成都
温江-温江新城-金恒德时代金悦,69.50㎡,东,2室1厅1卫,中楼层（31层）,600 元/月,CD2789105206414557184,2021-06-19,103.86932415003,30.681205516218,整租,/权属核验/近地铁/随时看房/,有,租用车位,民水,民电,有,自采暖,2021-07-03 13:51:02,成都
温江-花都大道-蓝润光华春天A区,70.96㎡,西,3室1厅1卫,低楼层（34层）,2100 元/月,CD2789008973947748352,2021-06-27,103.89347,30.696434,整租,//权属核验/精装/随时看房/,有,暂无数据,暂无数据,民电,有,暂无数据,2021-07-03 13:51:10,成都
温江-花都大道-蓝润光华春天A区,81.17㎡,东,3室1厅1卫,低楼层（34层）,2800 元/月,CD2788975979212062720,2021-06-27,103.89347,30.696434,整租,/权属核验/精装/随时看房/,有,暂无数据,暂无数据,民电,有,暂无数据,2021-07-03 13:51:18,成都
温江-温江新城-恒大城一期,88.14㎡,东南,3室2厅1卫,低楼层（33层）,1800 元/月,CD2789676624902365184,2021-06-28,103.858672,30.686107,整租,/权属核验/近地铁/精装/随时看房/,有,租用车位,民水,民电,有,自采暖,2021-07-03 13:51:26,成都
温江-光华大道沿线-西班牙森林二期,73.80㎡,南,2室1厅1卫,低楼层（34层）,2100 元/月,CD2789983539096199168,2021-06-27,103.900245,30.696234,整租,/权属核验/精装/随时看房/,有,暂无数据,民水,民电,有,自采暖,2021-07-03 13:51:29,成都
温江-温江大学城-中铁丽景书香,75.76㎡,东南,2室1厅1卫,高楼层（23层）,1600 元/月,CD2668202695298383872,2021-06-29,103.816062,30.68712,整租,/权属核验/精装/,有,租用车位,民水,民电,有,自采暖,2021-07-03 13:51:31,成都
温江-温江新城-和信孔雀天成,86.00㎡,西南,2室1厅1卫,高楼层（32层）,1800 元/月,CD2802697776096886784,2021-06-27,103.848716,30.689934,整租,//权属核验/精装/,有,租用车位,民水,民电,有,自采暖,2021-07-03 13:51:38,成都
温江-温江新城-天来国际文化广场,134.81㎡,西南,3室2厅2卫,高楼层（33层）,2350 元/月,CD2615949876240064512,2021-06-25,103.874794,30.684431,整租,/权属核验/近地铁/双卫生间/随时看房/,有,暂无数据,民水,民电,有,暂无数据,2021-07-03 13:51:45,成都
温江-光华大道沿线-万科朗润园,121.85㎡,东南,3室2厅2卫,高楼层（33层）,2500 元/月,CD2602992866037080064,2021-06-27,103.897897,30.686096,整租,/权属核验/近地铁/双卫生间/随时看房/,有,暂无数据,民水,民电,有,自采暖,2021-07-03 13:51:52,成都
温江-温江新城-光华国际,89.78㎡,东南,2室1厅1卫,中楼层（30层）,2000 元/月,CD2614412201057845248,2021-06-27,103.869772,30.687217,整租,/权属核验/近地铁/精装/随时看房/,有,暂无数据,民水,民电,有,自采暖,2021-07-03 13:51:58,成都
温江-花都大道-佳年华新生活,79.40㎡,东南,3室1厅1卫,中楼层（34层）,2200 元/月,CD2610200529124728832,2021-06-27,103.889059,30.692109,整租,/权属核验/精装/随时看房/,有,暂无数据,民水,民电,有,暂无数据,2021-07-03 13:52:06,成都
温江-温江老城-丹桂苑(温江),125.40㎡,东,3室2厅2卫,中楼层（7层）,2200 元/月,CD2615945118271668224,2021-06-09,103.836627,30.696411,整租,/权属核验/近地铁/精装/双卫生间/随时看房/,无,租用车位,民水,民电,有,自采暖,2021-07-03 13:52:11,成都
温江-珠江新城-佳兆业丽晶港,127.83㎡,东南,4室2厅2卫,高楼层（33层）,3000 元/月,CD2613764221045055488,2021-06-27,103.87781087474,30.688063705979,整租,/权属核验/近地铁/精装/双卫生间/,有,暂无数据,民水,民电,有,暂无数据,2021-07-03 13:52:17,成都
温江-光华大道沿线-合能珍宝琥珀,85.50㎡,南,3室2厅1卫,低楼层（34层）,2000 元/月,CD2597759656701476864,2021-06-29,103.894555,30.677477,整租,/权属核验/近地铁/精装/,有,暂无数据,民水,民电,有,自采暖,2021-07-03 13:52:20,成都
温江-光华大道沿线-恒大未来城,93.00㎡,南,3室2厅1卫,低楼层（33层）,2500 元/月,CD2618077741265715200,2021-06-28,103.872129,30.680102,整租,/权属核验/精装/,有,暂无数据,民水,民电,有,暂无数据,2021-07-03 13:52:25,成都
温江-光华大道沿线-彩叠园1A期,87.84㎡,东南,2室2厅1卫,高楼层（18层）,1700 元/月,CD2629652375819780096,2021-06-27,103.890976,30.679573,整租,/权属核验/近地铁/随时看房/,有,暂无数据,民水,民电,有,自采暖,2021-07-03 13:52:29,成都
温江-光华大道沿线-恒大新城一期,90.00㎡,东南,2室2厅1卫,高楼层（32层）,1800 元/月,CD2625937320201175040,2021-06-26,103.8738,30.668295,整租,/权属核验/近地铁/精装/随时看房/,无,暂无数据,民水,民电,有,暂无数据,2021-07-03 13:52:38,成都
温江-珠江新城-佳兆业丽晶港,61.75㎡,东南,3室2厅2卫,高楼层（33层）,3000 元/月,CD2634127477609873408,2021-06-27,103.87781087474,30.688063705979,整租,/权属核验/近地铁/精装/双卫生间/随时看房/,有,暂无数据,民水,民电,有,暂无数据,2021-07-03 13:52:43,成都
温江-花都大道-佳年华新生活A区,79.00㎡,东南,3室1厅1卫,低楼层（31层）,2200 元/月,CD2634614462711611392,2021-06-27,103.889194,30.694426,整租,/权属核验/,有,暂无数据,暂无数据,暂无数据,有,自采暖,2021-07-03 13:52:48,成都
温江-温江新城-金恒德时代金悦,87.00㎡,南,3室2厅1卫,中楼层（31层）,800 元/月,CD2631936346104799232,2021-06-27,103.86932415003,30.681205516218,整租,/权属核验/近地铁/,有,暂无数据,民水,民电,有,自采暖,2021-07-03 13:52:52,成都
温江-光华大道沿线-恒大未来城,96.00㎡,南,3室2厅1卫,中楼层（38层）,2000 元/月,CD2624506503033798656,2021-06-28,103.872129,30.680102,整租,/权属核验/近地铁/精装/,有,暂无数据,暂无数据,暂无数据,有,暂无数据,2021-07-03 13:52:57,成都
温江-温江大学城-恒大御景,90.84㎡,西南,3室2厅2卫,高楼层（37层）,1300 元/月,CD2636969063171506176,2021-06-27,103.807977,30.647873,整租,/权属核验/精装/双卫生间/,有,租用车位,民水,民电,有,自采暖,2021-07-03 13:53:02,成都
温江-温江大学城-明信仕林府,116.29㎡,东南,3室1厅2卫,高楼层（33层）,4500 元/月,CD2646258257941250048,2021-06-27,103.839683,30.680575,整租,/权属核验/近地铁/精装/双卫生间/,有,暂无数据,民水,民电,有,自采暖,2021-07-03 13:53:07,成都
温江-光华大道沿线-光华之心,90.70㎡,东北,3室1厅1卫,中楼层（32层）,2400 元/月,CD2645503090836643840,2021-06-30,103.886426,30.687874,整租,/权属核验/精装/随时看房/,有,暂无数据,民水,民电,有,自采暖,2021-07-03 13:53:15,成都
温江-温江新城-格凌兰,82.11㎡,南,3室2厅2卫,低楼层（26层）,1700 元/月,CD2647799299009675264,2021-06-26,103.854266,30.6906,整租,/权属核验/近地铁/精装/双卫生间/,有,租用车位,民水,民电,有,自采暖,2021-07-03 13:53:22,成都
温江-光华大道沿线-西班牙森林二期,90.17㎡,东南,3室2厅1卫,中楼层（34层）,2100 元/月,CD2644259165991600128,2021-06-30,103.900245,30.696234,整租,/权属核验/精装/随时看房/,有,暂无数据,民水,民电,有,自采暖,2021-07-03 13:53:31,成都
温江-光华大道沿线-合能珍宝琥珀三期,79.76㎡,东南,3室2厅1卫,低楼层（28层）,1200 元/月,CD2639000836608901120,2021-06-26,103.884081,30.679698,整租,/权属核验/近地铁/,有,暂无数据,民水,民电,有,自采暖,2021-07-03 13:53:40,成都
温江-珠江新城-珠江国际花园,147.42㎡,东南,4室2厅2卫,高楼层（32层）,4000 元/月,CD2645470761376563200,2021-06-27,103.864618,30.694248,整租,/权属核验/近地铁/精装/双卫生间/随时看房/,有,暂无数据,民水,民电,有,暂无数据,2021-07-03 13:53:43,成都
温江-光华大道沿线-创＋理想城,48.00㎡,西南,2室1厅1卫,中楼层（18层）,800 元/月,CD2652029966736162816,2021-06-27,103.879976,30.680393,整租,/权属核验/近地铁/随时看房/,有,暂无数据,商水,商电,有,暂无数据,2021-07-03 13:53:47,成都
温江-花都大道-千禧河畔D区,90.83㎡,南,3室2厅2卫,高楼层（28层）,2200 元/月,CD2655571604964655104,2021-06-08,103.89377903263,30.693405228556,整租,/权属核验/精装/双卫生间/随时看房/,有,暂无数据,民水,民电,有,暂无数据,2021-07-03 13:53:51,成都
温江-温江大学城-新尚天地,50.00㎡,东,2室1厅1卫,中楼层（31层）,1950 元/月,CD2652077645855981568,2021-06-29,103.820255,30.688726,整租,/权属核验/近地铁/精装/,有,暂无数据,商水,商电,有,暂无数据,2021-07-03 13:53:54,成都
温江-温江大学城-恒大御景,84.61㎡,东南,4室2厅2卫,低楼层（26层）,2000 元/月,CD2655639221414936576,2021-06-27,103.807977,30.647873,整租,/权属核验/精装/双卫生间/,有,租用车位,民水,民电,有,自采暖,2021-07-03 13:54:01,成都
温江-花都大道-美茵河谷,134.69㎡,东南,3室2厅2卫,中楼层（6层）,2200 元/月,CD2654269230203281408,2021-06-27,103.87962,30.693351,整租,/权属核验/精装/双卫生间/随时看房/,有,租用车位,民水,民电,有,自采暖,2021-07-03 13:54:03,成都
温江-光华大道沿线-湟普国际,130.29㎡,北,3室2厅2卫,中楼层（33层）,2300 元/月,CD2651937496174706688,2021-06-27,103.896334,30.681856,整租,/权属核验/近地铁/双卫生间/随时看房/,有,暂无数据,民水,民电,有,自采暖,2021-07-03 13:54:09,成都
温江-光华大道沿线-洲际春天广场,69.73㎡,西北,3室1厅1卫,高楼层（32层）,1800 元/月,CD2664334766643888128,2021-06-23,103.875899,30.681053,整租,/权属核验/随时看房/,有,租用车位,民水,民电,有,自采暖,2021-07-03 13:54:13,成都
温江-光华大道沿线-春天大道,134.91㎡,南,3室2厅2卫,中楼层（25层）,2800 元/月,CD2657038352763076608,2021-06-27,103.901418,30.684799,整租,/权属核验/近地铁/精装/双卫生间/随时看房/,有,暂无数据,民水,民电,有,自采暖,2021-07-03 13:54:15,成都
温江-珠江新城-佳兆业丽晶港,121.98㎡,东南西北,4室2厅2卫,中楼层（33层）,2600 元/月,CD2657350042918330368,2021-06-27,103.87781087474,30.688063705979,整租,/权属核验/近地铁/精装/双卫生间/,有,租用车位,商水,民电,有,暂无数据,2021-07-03 13:54:24,成都
温江-花都大道-佳年华新生活,65.43㎡,东南,2室1厅1卫,低楼层（34层）,2050 元/月,CD2803532672910237696,2021-06-27,103.889059,30.692109,整租,/权属核验/精装/随时看房/,有,暂无数据,民水,民电,有,暂无数据,2021-07-03 13:54:29,成都
温江-珠江新城-佳兆业丽晶港,71.67㎡,东南,2室2厅1卫,高楼层（33层）,1700 元/月,CD2803571562949910528,2021-06-27,103.87781087474,30.688063705979,整租,//权属核验/近地铁/随时看房/,有,暂无数据,民水,民电,有,暂无数据,2021-07-03 13:54:33,成都
温江-温江大学城-恒大御景,108.00㎡,东南,3室2厅2卫,高楼层（37层）,1300 元/月,CD2789871649929822208,2021-07-01,103.807977,30.647873,整租,/权属核验/精装/双卫生间/,有,暂无数据,民水,民电,有,自采暖,2021-07-03 13:54:37,成都
温江-光华大道沿线-汇智栖岸名居,61.80㎡,东,3室2厅1卫,高楼层（21层）,1800 元/月,CD2792025754807320576,2021-06-30,103.903272,30.696279,整租,/权属核验/随时看房/,无,暂无数据,民水,民电,有,暂无数据,2021-07-03 13:54:41,成都
温江-国色天乡-万和嘉苑,116.01㎡,南北,3室2厅1卫,高楼层（18层）,900 元/月,CD2792045094910296064,2021-06-22,103.792867,30.758505,整租,/权属核验/,无,暂无数据,暂无数据,暂无数据,暂无数据,暂无数据,2021-07-03 13:54:48,成都
温江-花都大道-佳兆业丽晶公馆,87.39㎡,东南,3室2厅2卫,高楼层（34层）,2000 元/月,CD2791147786106568704,2021-06-30,103.876984,30.695428,整租,/权属核验/精装/双卫生间/随时看房/,有,暂无数据,民水,民电,有,暂无数据,2021-07-03 13:54:57,成都
温江-光华大道沿线-西班牙森林二期,76.18㎡,北,3室1厅2卫,中楼层（11层）,2100 元/月,CD2792545167138635776,2021-06-30,103.900245,30.696234,整租,/权属核验/精装/双卫生间/,有,暂无数据,民水,民电,有,暂无数据,2021-07-03 13:55:02,成都
温江-光华大道沿线-西班牙森林二期,94.03㎡,南,3室2厅2卫,低楼层（11层）,1900 元/月,CD2678231344177758208,2021-06-30,103.900245,30.696234,整租,/权属核验/精装/双卫生间/随时看房/,有,暂无数据,民水,民电,有,暂无数据,2021-07-03 13:55:07,成都
温江-光华大道沿线-西班牙森林一期,210.78㎡,南北,5室2厅3卫,低楼层（6层）,3200 元/月,CD2679723157874540544,2021-06-30,103.899548,30.694301,整租,/权属核验/,有,暂无数据,民水,民电,有,自采暖,2021-07-03 13:55:15,成都
温江-温江大学城-中铁丽景书香,89.83㎡,南北,2室1厅1卫,中楼层（33层）,1200 元/月,CD2678150388104314880,2021-06-20,103.816062,30.68712,整租,/权属核验/近地铁/,有,暂无数据,民水,民电,有,自采暖,2021-07-03 13:55:19,成都
温江-光华大道沿线-合能珍宝琥珀三期,79.65㎡,西,3室1厅1卫,低楼层（33层）,900 元/月,CD2680480752969457664,2021-06-26,103.884081,30.679698,整租,/权属核验/近地铁/,有,暂无数据,民水,民电,有,自采暖,2021-07-03 13:55:28,成都
温江-温江大学城-西财学府尚郡,87.61㎡,东,4室2厅2卫,中楼层（11层）,1500 元/月,CD2677501800261107712,2021-06-29,103.818163,30.681079,整租,/权属核验/近地铁/双卫生间/随时看房/,有,暂无数据,民水,民电,有,自采暖,2021-07-03 13:55:34,成都
温江-光华大道沿线-春天大道,130.00㎡,南,3室2厅2卫,低楼层（24层）,1500 元/月,CD2679581137004929024,2021-07-01,103.901418,30.684799,整租,/权属核验/近地铁/双卫生间/,有,暂无数据,民水,民电,有,自采暖,2021-07-03 13:55:37,成都
温江-温江新城-金恒德时代金悦,83.83㎡,东南,4室2厅2卫,中楼层（24层）,1500 元/月,CD2804416749766975488,2021-06-26,103.86932415003,30.681205516218,整租,/权属核验/双卫生间/,有,暂无数据,民水,民电,有,自采暖,2021-07-03 13:55:39,成都
温江-花都大道-朝阳时代西锦,90.94㎡,东北,3室2厅1卫,高楼层（33层）,1200 元/月,CD2804885551562899456,2021-06-20,103.873377,30.698827,整租,/权属核验/,有,暂无数据,民水,民电,有,自采暖,2021-07-03 13:55:46,成都
温江-光华大道沿线-合能珍宝琥珀,65.17㎡,西北,2室1厅1卫,中楼层（34层）,2000 元/月,CD2792769106976448512,2021-07-02,103.894555,30.677477,整租,/权属核验/精装/随时看房/,有,暂无数据,民水,民电,有,暂无数据,2021-07-03 13:55:51,成都
温江-国色天乡-鹭湖宫七号B组,89.97㎡,北,2室1厅1卫,低楼层（30层）,1800 元/月,CD2804216464670720000,2021-07-02,103.831247,30.739729,整租,/权属核验/精装/随时看房/,有,暂无数据,民水,民电,有,暂无数据,2021-07-03 13:55:54,成都
温江-国色天乡-鹭湖宫10区,118.00㎡,南北,3室2厅2卫,中楼层（32层）,2450 元/月,CD2793471212662571008,2021-07-02,103.826691,30.739577,整租,/权属核验/精装/双卫生间/,无,暂无数据,暂无数据,暂无数据,有,暂无数据,2021-07-03 13:55:58,成都
温江-光华大道沿线-洲际亚洲湾B区,121.63㎡,南,3室2厅2卫,高楼层（38层）,2000 元/月,CD2792562200274018304,2021-06-28,103.889159,30.68773,整租,/权属核验/近地铁/双卫生间/随时看房/,有,暂无数据,民水,民电,有,自采暖,2021-07-03 13:56:03,成都
温江-温江大学城-悦彩广场,43.00㎡,东南,2室1厅1卫,高楼层（21层）,650 元/月,CD2685517053774790656,2021-06-29,103.836577,30.678065,整租,/权属核验/随时看房/,无,暂无数据,商水,商电,有,暂无数据,2021-07-03 13:56:05,成都
温江-温江新城-恒大城二期,139.83㎡,西北,3室2厅2卫,低楼层（30层）,2500 元/月,CD2684773325720256512,2021-06-30,103.857856,30.68433,整租,/权属核验/近地铁/精装/双卫生间/随时看房/,有,租用车位,民水,民电,有,自采暖,2021-07-03 13:56:09,成都
温江-温江新城-塞纳河畔,130.34㎡,西,3室2厅2卫,高楼层（6层）,2000 元/月,CD2792768104588124160,2021-06-05,103.858854,30.692582,整租,/权属核验/近地铁/双卫生间/,无,暂无数据,民水,民电,有,自采暖,2021-07-03 13:56:13,成都
温江-光华大道沿线-宁和苑,92.33㎡,南北,3室2厅1卫,中楼层（6层）,1350 元/月,CD2793344223632965632,2021-06-26,103.878682,30.674761,整租,/,无,暂无数据,暂无数据,暂无数据,有,自采暖,2021-07-03 13:56:16,成都
温江-光华大道沿线-蓝光香境,73.94㎡,西北,2室1厅1卫,中楼层（34层）,1800 元/月,CD2794055001126223872,2021-06-27,103.8993,30.692645,整租,/权属核验/精装/随时看房/,有,暂无数据,民水,民电,有,自采暖,2021-07-03 13:56:24,成都
温江-花都大道-佳年华新生活A区,78.46㎡,东南,3室1厅1卫,低楼层（33层）,2000 元/月,CD2793523287362109440,2021-06-19,103.889194,30.694426,整租,/权属核验/精装/,有,暂无数据,商水,商电,有,自采暖,2021-07-03 13:56:31,成都
温江-光华大道沿线-洲际亚洲湾A区,102.06㎡,东南,2室1厅1卫,高楼层（32层）,2200 元/月,CD2746926313972432896,2021-06-27,103.887978,30.68813,整租,/权属核验/近地铁/随时看房/,有,暂无数据,民水,民电,有,自采暖,2021-07-03 13:56:34,成都
温江-温江新城-恒大城一期,88.88㎡,南,3室1厅1卫,中楼层（33层）,2200 元/月,CD2637006271017910272,2021-06-27,103.858672,30.686107,整租,/权属核验/近地铁/精装/随时看房/,有,暂无数据,民水,民电,有,自采暖,2021-07-03 13:56:39,成都
温江-光华大道沿线-金河谷四期,123.73㎡,南,3室1厅2卫,低楼层（32层）,2000 元/月,CD2642007532884721664,2021-06-20,103.902516,30.679058,整租,//权属核验/近地铁/精装/双卫生间/随时看房/,有,暂无数据,民水,民电,有,暂无数据,2021-07-03 13:56:44,成都
温江-光华大道沿线-蓝光香境,107.44㎡,东,3室2厅2卫,低楼层（34层）,3000 元/月,CD2638220305566810112,2021-06-30,103.8993,30.692645,整租,/权属核验/精装/双卫生间/,有,暂无数据,民水,民电,有,自采暖,2021-07-03 13:56:52,成都
温江-温江新城-恒大城三期,91.20㎡,东南西南,3室1厅1卫,高楼层（30层）,1500 元/月,CD2633154273084981248,2021-06-24,103.855738,30.68701,整租,/权属核验/近地铁/精装/随时看房/,有,暂无数据,民水,民电,有,暂无数据,2021-07-03 13:56:59,成都
温江-光华大道沿线-湟普国际,130.11㎡,东南北,3室2厅2卫,高楼层（33层）,2300 元/月,CD2631999505427873792,2021-06-19,103.896334,30.681856,整租,/权属核验/近地铁/双卫生间/随时看房/,有,租用车位,民水,民电,有,自采暖,2021-07-03 13:57:02,成都
温江-光华大道沿线-蓝光香瑞湖,137.88㎡,东南,3室2厅1卫,中楼层（26层）,3000 元/月,CD2638980085239529472,2021-06-24,103.89088792167,30.68123045932,整租,/权属核验/近地铁/精装/随时看房/,有,暂无数据,民水,民电,有,自采暖,2021-07-03 13:57:05,成都
温江-温江新城-格凌兰,96.10㎡,南,3室2厅2卫,中楼层（25层）,2500 元/月,CD2637734737031987200,2021-06-20,103.854266,30.6906,整租,/权属核验/近地铁/精装/双卫生间/随时看房/,有,租用车位,民水,民电,有,自采暖,2021-07-03 13:57:09,成都
温江-花都大道-佳年华新生活,90.00㎡,西南,3室2厅2卫,中楼层（32层）,2400 元/月,CD2648529011176636416,2021-06-27,103.889059,30.692109,整租,/权属核验/精装/双卫生间/,有,暂无数据,商水,商电,有,自采暖,2021-07-03 13:57:14,成都
温江-温江大学城-花样年花样城五期,86.16㎡,东,3室1厅1卫,低楼层（33层）,1500 元/月,CD2646255407567749120,2021-07-01,103.810751,30.649175,整租,/权属核验/精装/随时看房/,有,暂无数据,民水,民电,有,暂无数据,2021-07-03 13:57:23,成都
温江-光华大道沿线-春天大道,119.19㎡,南,3室2厅2卫,高楼层（17层）,2320 元/月,CD2725189967218483200,2021-06-27,103.901418,30.684799,整租,/权属核验/双卫生间/随时看房/,有,暂无数据,民水,民电,有,自采暖,2021-07-03 13:57:27,成都
温江-珠江新城-珠江悦湖国际,53.00㎡,西南,1室1厅1卫,中楼层（46层）,1600 元/月,CD2725975373367492608,2021-06-27,103.868519,30.691145,整租,/权属核验/近地铁/精装/随时看房/,有,暂无数据,暂无数据,商电,无,暂无数据,2021-07-03 13:57:30,成都
温江-珠江新城-珠江悦湖国际,61.00㎡,西南,1室1厅1卫,中楼层（46层）,1600 元/月,CD2725978374232350720,2021-06-27,103.868519,30.691145,整租,/权属核验/近地铁/精装/,有,暂无数据,暂无数据,商电,无,暂无数据,2021-07-03 13:57:35,成都
温江-花都大道-七彩花都B区一期,96.04㎡,东南,2室1厅1卫,中楼层（5层）,1700 元/月,CD2725206646883090432,2021-07-01,103.870906,30.702146,整租,//权属核验/精装/随时看房/,无,暂无数据,民水,民电,有,自采暖,2021-07-03 13:57:42,成都
温江-光华大道沿线-天来汇景,89.00㎡,东南,3室2厅2卫,中楼层（31层）,2200 元/月,CD2726799166457257984,2021-06-26,103.87849,30.682512,整租,/权属核验/近地铁/精装/双卫生间/随时看房/,无,暂无数据,暂无数据,暂无数据,有,暂无数据,2021-07-03 13:57:51,成都
温江-温江大学城-中铁丽景书香,75.80㎡,东南,3室2厅2卫,高楼层（23层）,2000 元/月,CD2725965107246415872,2021-06-20,103.816062,30.68712,整租,/权属核验/精装/双卫生间/,有,暂无数据,民水,民电,有,自采暖,2021-07-03 13:57:54,成都
温江-光华大道沿线-中南上熙府熙悦,112.00㎡,南,3室2厅2卫,高楼层（34层）,2800 元/月,CD2716492075259936768,2021-06-27,103.870099,30.677236,整租,/权属核验/近地铁/精装/双卫生间/,有,暂无数据,民水,民电,有,暂无数据,2021-07-03 13:57:57,成都
温江-珠江新城-珠江悦湖国际,53.00㎡,西南,1室1厅1卫,中楼层（46层）,1600 元/月,CD2725976588364546048,2021-06-27,103.868519,30.691145,整租,/权属核验/近地铁/精装/随时看房/,有,暂无数据,暂无数据,商电,无,暂无数据,2021-07-03 13:58:01,成都
温江-芙蓉古城-西贵堂,181.58㎡,西南,4室2厅3卫,低楼层（2层）,2300 元/月,CD2725393124623908864,2021-06-11,103.923499,30.70271,整租,/权属核验/随时看房/,无,暂无数据,暂无数据,暂无数据,有,暂无数据,2021-07-03 13:58:06,成都
温江-光华大道沿线-金河谷五期,89.35㎡,东南,3室1厅2卫,中楼层（34层）,2000 元/月,CD2727465112335024128,2021-07-02,103.907137,30.679212,整租,/权属核验/双卫生间/,有,暂无数据,民水,民电,有,自采暖,2021-07-03 13:58:12,成都
温江-光华大道沿线-恒大未来城,94.00㎡,西南,3室2厅1卫,中楼层（33层）,1800 元/月,CD2727544447192530944,2021-06-26,103.872129,30.680102,整租,/权属核验/精装/,无,暂无数据,暂无数据,暂无数据,暂无数据,暂无数据,2021-07-03 13:58:19,成都
温江-光华大道沿线-金河谷五期,89.34㎡,东南,3室1厅2卫,低楼层（34层）,1600 元/月,CD2727358212847714304,2021-07-02,103.907137,30.679212,整租,/权属核验/双卫生间/随时看房/,有,暂无数据,民水,民电,有,自采暖,2021-07-03 13:58:27,成都
温江-花都大道-千禧河畔A区,78.52㎡,西北,2室2厅1卫,中楼层（33层）,2200 元/月,CD2727391404975194112,2021-06-27,103.88658,30.694547,整租,/权属核验/随时看房/,有,免费使用,暂无数据,暂无数据,有,自采暖,2021-07-03 13:58:34,成都
温江-温江大学城-恒大御景,84.00㎡,东,2室1厅1卫,低楼层（37层）,1000 元/月,CD2728268717031948288,2021-06-27,103.807977,30.647873,整租,/权属核验/精装/,有,租用车位,民水,民电,有,暂无数据,2021-07-03 13:58:38,成都
温江-光华大道沿线-西班牙森林二期,76.02㎡,北,2室2厅1卫,低楼层（34层）,1800 元/月,CD2727542592160923648,2021-06-30,103.900245,30.696234,整租,/权属核验/精装/,有,暂无数据,民水,民电,有,自采暖,2021-07-03 13:58:41,成都
温江-温江大学城-西财学府憬城,86.65㎡,东南,2室1厅1卫,中楼层（26层）,800 元/月,CD2728339477281390592,2021-06-29,103.821646,30.681115,整租,/权属核验/近地铁/,有,暂无数据,民水,民电,有,暂无数据,2021-07-03 13:58:47,成都
温江-光华大道沿线-恒大新城二期,129.00㎡,东南,3室2厅2卫,高楼层（32层）,2500 元/月,CD2726837265484750848,2021-06-26,103.876232,30.668573,整租,/权属核验/近地铁/精装/双卫生间/,有,暂无数据,民水,暂无数据,有,暂无数据,2021-07-03 13:58:55,成都
温江-光华大道沿线-洲际亚洲湾A区,89.59㎡,东,3室1厅1卫,低楼层（38层）,2300 元/月,CD2730292828885491712,2021-06-19,103.887978,30.68813,整租,//权属核验/近地铁/精装/随时看房/,有,暂无数据,民水,民电,有,自采暖,2021-07-03 13:58:58,成都
温江-温江新城-恒大城一期,93.00㎡,东北,3室1厅1卫,中楼层（33层）,1900 元/月,CD2649122215903371264,2021-06-27,103.858672,30.686107,整租,/权属核验/近地铁/精装/随时看房/,有,租用车位,民水,民电,有,自采暖,2021-07-03 13:59:01,成都
温江-珠江新城-珠江国际花园,108.76㎡,东,3室2厅2卫,高楼层（32层）,2300 元/月,CD2731860975476285440,2021-06-27,103.864618,30.694248,整租,/权属核验/精装/双卫生间/随时看房/,有,暂无数据,民水,民电,有,暂无数据,2021-07-03 13:59:10,成都
温江-温江新城-和信孔雀天成,105.02㎡,西南,3室2厅1卫,低楼层（33层）,2500 元/月,CD2680276024260042752,2021-06-27,103.848716,30.689934,整租,/权属核验/精装/随时看房/,有,暂无数据,民水,民电,有,暂无数据,2021-07-03 13:59:18,成都
温江-温江大学城-怡和茗居,87.56㎡,东南,2室2厅1卫,低楼层（6层）,1300 元/月,CD2742069366899081216,2021-06-25,103.832299,30.697441,整租,//权属核验/近地铁/随时看房/,无,租用车位,民水,民电,有,自采暖,2021-07-03 13:59:22,成都
温江-珠江新城-珠江悦湖国际,78.50㎡,西南,1室1厅1卫,中楼层（46层）,1800 元/月,CD2742148831939936256,2021-06-27,103.868519,30.691145,整租,/权属核验/近地铁/,有,暂无数据,暂无数据,商电,无,暂无数据,2021-07-03 13:59:25,成都
温江-花都大道-尚西花郡,88.00㎡,西南,2室1厅1卫,高楼层（18层）,1600 元/月,CD2748398022466740224,2021-06-27,103.871879,30.697543,整租,/权属核验/精装/随时看房/,有,暂无数据,民水,民电,有,暂无数据,2021-07-03 13:59:34,成都
温江-国色天乡-鹭湖宫六区C组团,80.48㎡,北,3室2厅2卫,中楼层（32层）,1800 元/月,CD2748392284163940352,2021-07-02,103.840981,30.724613,整租,/权属核验/精装/双卫生间/随时看房/,有,暂无数据,民水,民电,有,自采暖,2021-07-03 13:59:37,成都
温江-温江大学城-恒大御景,113.00㎡,南,3室1厅2卫,低楼层（40层）,1600 元/月,CD2695773234485534720,2021-06-27,103.807977,30.647873,整租,/权属核验/精装/双卫生间/,无,租用车位,民水,民电,有,暂无数据,2021-07-03 13:59:43,成都
温江-花都大道-千禧河畔D区,77.75㎡,东北,3室1厅1卫,中楼层（28层）,2100 元/月,CD2750820148981276672,2021-07-01,103.89377903263,30.693405228556,整租,/权属核验/精装/随时看房/,有,暂无数据,民水,民电,有,暂无数据,2021-07-03 13:59:50,成都
温江-温江新城-格凌兰,65.48㎡,南,4室2厅2卫,高楼层（32层）,1600 元/月,CD2700693432141086720,2021-06-28,103.854266,30.6906,整租,/权属核验/近地铁/双卫生间/随时看房/,有,暂无数据,民水,民电,有,自采暖,2021-07-03 13:59:56,成都
温江-光华大道沿线-洲际银海湾,142.05㎡,西北,4室2厅2卫,高楼层（39层）,1000 元/月,CD2704366695220248576,2021-06-27,103.89409,30.68825,整租,/权属核验/近地铁/双卫生间/随时看房/,有,暂无数据,民水,民电,有,自采暖,2021-07-03 14:00:02,成都
温江-温江新城-光华瑞廷,85.51㎡,东南,3室2厅1卫,中楼层（33层）,1600 元/月,CD2699898174268506112,2021-06-27,103.848634,30.684865,整租,/权属核验/精装/,有,暂无数据,民水,民电,有,自采暖,2021-07-03 14:00:06,成都
温江-温江大学城-恒大名城,114.00㎡,东,3室2厅2卫,高楼层（37层）,2100 元/月,CD2757042047692587008,2021-07-01,103.858471,30.680419,整租,//权属核验/精装/双卫生间/随时看房/,有,暂无数据,民水,民电,有,自采暖,2021-07-03 14:00:13,成都
温江-光华大道沿线-金河谷五期,88.23㎡,南,3室2厅2卫,中楼层（32层）,1600 元/月,CD2708741460240367616,2021-06-27,103.907137,30.679212,整租,/权属核验/精装/双卫生间/,有,暂无数据,民水,民电,有,自采暖,2021-07-03 14:00:16,成都
温江-光华大道沿线-恒大未来城,122.00㎡,南,3室2厅2卫,低楼层（32层）,2300 元/月,CD2756549293795188736,2021-06-27,103.872129,30.680102,整租,/权属核验/近地铁/精装/双卫生间/随时看房/,有,暂无数据,民水,民电,有,暂无数据,2021-07-03 14:00:24,成都
温江-温江新城-天来国际文化广场,95.00㎡,东南,2室1厅1卫,低楼层（33层）,2000 元/月,CD2714354628841455616,2021-06-27,103.874794,30.684431,整租,/权属核验/近地铁/精装/随时看房/,有,暂无数据,民水,民电,有,暂无数据,2021-07-03 14:00:32,成都
温江-珠江新城-佳兆业丽晶港,88.19㎡,东,3室2厅1卫,高楼层（33层）,1800 元/月,CD2710881006587478016,2021-06-26,103.87781087474,30.688063705979,整租,/权属核验/近地铁/精装/随时看房/,有,暂无数据,民水,民电,有,暂无数据,2021-07-03 14:00:41,成都
温江-温江新城-恒大城一期,145.17㎡,西北,3室1厅2卫,中楼层（33层）,2300 元/月,CD2712320348140863488,2021-06-27,103.858672,30.686107,整租,/权属核验/近地铁/精装/双卫生间/随时看房/,有,租用车位,民水,民电,有,自采暖,2021-07-03 14:00:45,成都
温江-珠江新城-西花汀,126.90㎡,东南,1室0厅0卫,低楼层（8层）,10160 元/月,CD2712937241021251584,2021-06-27,103.865146,30.696138,整租,/权属核验/近地铁/,有,暂无数据,民水,民电,有,自采暖,2021-07-03 14:00:49,成都
温江-光华大道沿线-合能珍宝琥珀三期,89.52㎡,北,3室2厅2卫,低楼层（33层）,2000 元/月,CD2756459910089670656,2021-06-23,103.884081,30.679698,整租,//权属核验/近地铁/精装/双卫生间/随时看房/,有,租用车位,民水,民电,有,自采暖,2021-07-03 14:00:52,成都
温江-温江大学城-水韵尚城,121.10㎡,东南,3室2厅1卫,中楼层（25层）,2100 元/月,CD2756587469645553664,2021-06-27,103.829655,30.68162,整租,//权属核验/近地铁/精装/随时看房/,有,暂无数据,民水,民电,有,自采暖,2021-07-03 14:00:57,成都
温江-珠江新城-珠江悦湖国际,85.29㎡,南,2室2厅1卫,高楼层（46层）,3200 元/月,CD2754917023602442240,2021-06-27,103.868519,30.691145,整租,/权属核验/近地铁/精装/随时看房/,有,暂无数据,暂无数据,商电,无,暂无数据,2021-07-03 14:01:01,成都
温江-花都大道-蓝润光华春天A区,80.00㎡,东南,3室1厅1卫,高楼层（34层）,2500 元/月,CD2755752816244441088,2021-06-27,103.89347,30.696434,整租,/权属核验/精装/随时看房/,有,暂无数据,民水,民电,有,自采暖,2021-07-03 14:01:09,成都
温江-光华大道沿线-汇智栖岸名居,80.00㎡,东,3室2厅1卫,高楼层（21层）,1950 元/月,CD2759260617495298048,2021-06-27,103.903272,30.696279,整租,//权属核验/精装/随时看房/,无,免费使用,民水,民电,有,暂无数据,2021-07-03 14:01:13,成都
温江-光华大道沿线-天来汇景,88.00㎡,西北,3室2厅2卫,低楼层（31层）,1600 元/月,CD2758799535743434752,2021-06-27,103.87849,30.682512,整租,/权属核验/近地铁/精装/双卫生间/随时看房/,无,暂无数据,暂无数据,暂无数据,有,暂无数据,2021-07-03 14:01:21,成都
温江-温江大学城-月映长滩栖湖,88.66㎡,西南,3室2厅2卫,低楼层（21层）,1400 元/月,CD2759219828685815808,2021-06-15,103.808912,30.645244,整租,/权属核验/精装/双卫生间/,有,暂无数据,民水,民电,有,暂无数据,2021-07-03 14:01:25,成都
温江-珠江新城-佳兆业丽晶港,140.80㎡,东北,4室2厅2卫,低楼层（33层）,4500 元/月,CD2712993607384055808,2021-06-27,103.87781087474,30.688063705979,整租,/权属核验/近地铁/精装/双卫生间/随时看房/,有,暂无数据,民水,民电,有,暂无数据,2021-07-03 14:01:32,成都
温江-温江新城-恒大城一期,123.36㎡,西北,3室1厅2卫,高楼层（33层）,1900 元/月,CD2715205492120231936,2021-06-27,103.858672,30.686107,整租,/权属核验/精装/双卫生间/随时看房/,有,租用车位,民水,民电,有,自采暖,2021-07-03 14:01:39,成都
温江-温江大学城-东原城,85.88㎡,南西南,3室1厅1卫,高楼层（34层）,1500 元/月,CD2711682732043272192,2021-06-27,103.815115,30.650568,整租,/权属核验/精装/随时看房/,有,租用车位,民水,民电,有,暂无数据,2021-07-03 14:01:43,成都
温江-光华大道沿线-恒大未来城,91.00㎡,东南,3室2厅1卫,低楼层（33层）,2000 元/月,CD2758561042081513472,2021-06-26,103.872129,30.680102,整租,/权属核验/精装/,有,暂无数据,民水,民电,有,暂无数据,2021-07-03 14:01:47,成都
温江-珠江新城-珠江悦湖国际,62.00㎡,东南,2室1厅1卫,高楼层（46层）,2200 元/月,CD2716583027852984320,2021-06-12,103.868519,30.691145,整租,/权属核验/近地铁/精装/,有,暂无数据,暂无数据,商电,无,暂无数据,2021-07-03 14:01:53,成都
温江-温江新城-和信孔雀天成,105.54㎡,西南,3室1厅1卫,中楼层（26层）,2300 元/月,CD2693535159600553984,2021-06-25,103.848716,30.689934,整租,/权属核验/近地铁/精装/,有,租用车位,民水,民电,有,暂无数据,2021-07-03 14:02:02,成都
温江-温江大学城-东原城,96.15㎡,南,3室2厅2卫,低楼层（34层）,1700 元/月,CD2698386677063221248,2021-06-27,103.815115,30.650568,整租,/权属核验/精装/双卫生间/,有,租用车位,民水,民电,有,暂无数据,2021-07-03 14:02:06,成都
温江-温江新城-泰基花溪谷,182.75㎡,东南,4室2厅3卫,中楼层（5层）,4800 元/月,CD2697620464536125440,2021-06-27,103.867947,30.684605,整租,/权属核验/近地铁/精装/随时看房/,无,免费使用,民水,民电,有,自采暖,2021-07-03 14:02:13,成都
温江-温江大学城-西财学府尚郡,89.28㎡,东南,4室2厅2卫,中楼层（11层）,4500 元/月,CD2697169409008738304,2021-06-20,103.818163,30.681079,整租,/权属核验/近地铁/精装/双卫生间/随时看房/,有,暂无数据,民水,民电,有,暂无数据,2021-07-03 14:02:20,成都
温江-花都大道-千禧河畔C区,128.89㎡,东西,4室2厅2卫,中楼层（33层）,3000 元/月,CD2785474013193830400,2021-07-01,103.893591,30.694462,整租,//权属核验/精装/双卫生间/随时看房/,有,免费使用,民水,暂无数据,有,暂无数据,2021-07-03 14:02:29,成都
温江-光华大道沿线-大华水映岛,158.92㎡,南北,4室2厅2卫,低楼层（5层）,2200 元/月,CD2762208317605953536,2021-06-26,103.884922,30.688013,整租,/权属核验/近地铁/双卫生间/随时看房/,无,租用车位,民水,民电,有,自采暖,2021-07-03 14:02:33,成都
温江-花都大道-佳年华新生活A区,90.00㎡,东南,3室1厅1卫,高楼层（33层）,3000 元/月,CD2786799124933525504,2021-07-01,103.889194,30.694426,整租,/权属核验/精装/随时看房/,有,暂无数据,民水,民电,有,自采暖,2021-07-03 14:02:38,成都
温江-花都大道-蓝润光华春天A区,80.67㎡,东南南西南,3室2厅1卫,高楼层（34层）,2000 元/月,CD2786989480216117248,2021-07-02,103.89347,30.696434,整租,/权属核验/精装/随时看房/,有,暂无数据,民水,民电,有,自采暖,2021-07-03 14:02:43,成都
温江-国色天乡-锦汇城B区,120.00㎡,南,3室2厅2卫,中楼层（30层）,2500 元/月,CD2762132322362073088,2021-06-30,103.86048364038,30.712779405085,整租,/权属核验/精装/双卫生间/,有,暂无数据,民水,民电,有,暂无数据,2021-07-03 14:02:50,成都
温江-光华大道沿线-天来汇景,86.00㎡,西北,3室1厅2卫,中楼层（33层）,2300 元/月,CD2765236761557729280,2021-06-27,103.87849,30.682512,整租,/权属核验/近地铁/精装/双卫生间/随时看房/,有,租用车位,暂无数据,暂无数据,有,暂无数据,2021-07-03 14:02:55,成都
温江-珠江新城-珠江御景湾,140.61㎡,西南东北,4室2厅2卫,低楼层（18层）,3400 元/月,CD2787486968223899648,2021-06-27,103.873617,30.690868,整租,/权属核验/近地铁/精装/双卫生间/随时看房/,有,暂无数据,民水,民电,有,暂无数据,2021-07-03 14:02:59,成都
温江-温江新城-云鼎,40.00㎡,西南,1室1厅1卫,低楼层（26层）,1200 元/月,CD2766693260541042688,2021-06-30,103.860127,30.690846,整租,/权属核验/近地铁/,有,暂无数据,商水,商电,无,暂无数据,2021-07-03 14:03:02,成都
温江-花都大道-蓝润光华春天B区,71.00㎡,西,2室1厅1卫,中楼层（32层）,2200 元/月,CD2766011879087685632,2021-06-27,103.89658531974,30.696493049215,整租,/权属核验/精装/,有,暂无数据,民水,民电,有,暂无数据,2021-07-03 14:03:11,成都
温江-温江新城-和信孔雀天成,79.77㎡,南,2室2厅1卫,低楼层（33层）,1600 元/月,CD2766529956858306560,2021-06-27,103.848716,30.689934,整租,//权属核验/随时看房/,有,暂无数据,民水,民电,有,暂无数据,2021-07-03 14:03:15,成都
温江-花都大道-蓝润光华春天A区,88.27㎡,东南,3室2厅2卫,高楼层（34层）,3300 元/月,CD2766849987898769408,2021-06-27,103.89347,30.696434,整租,/权属核验/精装/双卫生间/随时看房/,有,暂无数据,民水,民电,有,暂无数据,2021-07-03 14:03:18,成都
温江-花都大道-蓝润光华春天B区,81.55㎡,东南,3室1厅1卫,中楼层（27层）,2200 元/月,CD2787649128304214016,2021-06-27,103.89658531974,30.696493049215,整租,/权属核验/精装/,有,暂无数据,民水,民电,有,暂无数据,2021-07-03 14:03:22,成都
温江-温江大学城-西财学府阳光,89.09㎡,东南,3室2厅2卫,低楼层（33层）,2000 元/月,CD2787723873352171520,2021-06-26,103.820352,30.683297,整租,//权属核验/近地铁/精装/双卫生间/,有,暂无数据,民水,民电,有,暂无数据,2021-07-03 14:03:31,成都
温江-光华大道沿线-彩叠园1B期,216.00㎡,南,5室1厅4卫,地下室（4层）,3800 元/月,CD2770401286607347712,2021-06-30,103.887976,30.681848,整租,/权属核验/近地铁/随时看房/,无,免费使用,民水,民电,有,暂无数据,2021-07-03 14:03:39,成都
温江-光华大道沿线-恒大新城二期,124.15㎡,南,3室2厅2卫,高楼层（33层）,2000 元/月,CD2789716547638403072,2021-06-20,103.876232,30.668573,整租,//权属核验/近地铁/精装/双卫生间/随时看房/,有,免费使用,民水,民电,有,暂无数据,2021-07-03 14:03:47,成都
温江-温江新城-恒大城四期,92.79㎡,西北,3室2厅1卫,低楼层（33层）,2300 元/月,CD2770994413705633792,2021-06-27,103.85817940764,30.686306013585,整租,//权属核验/近地铁/精装/随时看房/,有,租用车位,民水,民电,有,自采暖,2021-07-03 14:03:50,成都
温江-光华大道沿线-天来汇景,99.12㎡,西,3室1厅2卫,高楼层（32层）,2300 元/月,CD2789758281525239808,2021-06-27,103.87849,30.682512,整租,/权属核验/近地铁/精装/双卫生间/随时看房/,无,暂无数据,民水,民电,有,暂无数据,2021-07-03 14:03:56,成都
温江-国色天乡-英郦庄园,116.91㎡,东南,3室1厅1卫,低楼层（8层）,1000 元/月,CD2770119664569950208,2021-06-27,103.838068,30.736515,整租,/权属核验/,有,暂无数据,民水,民电,有,暂无数据,2021-07-03 14:04:05,成都
温江-珠江新城-德坤新天地,50.70㎡,南,1室0厅1卫,高楼层（22层）,1500 元/月,CD2790373195784658944,2021-06-27,103.862971,30.693856,整租,/权属核验/近地铁/精装/,有,暂无数据,民水,民电,有,暂无数据,2021-07-03 14:04:10,成都
温江-温江新城-星光华印象,80.53㎡,东北,3室1厅1卫,高楼层（34层）,1800 元/月,CD2791085977023037440,2021-07-02,103.874251,30.683779,整租,//权属核验/近地铁/精装/随时看房/,有,暂无数据,民水,民电,有,自采暖,2021-07-03 14:04:18,成都
温江-光华大道沿线-光华之心,49.95㎡,东南,1室0厅1卫,高楼层（17层）,1500 元/月,CD2773172068031152128,2021-07-01,103.886426,30.687874,整租,/权属核验/随时看房/,有,租用车位,商水,商电,无,自采暖,2021-07-03 14:04:23,成都
温江-光华大道沿线-8号公馆,117.31㎡,南,3室2厅1卫,中楼层（8层）,1800 元/月,CD2771108454289915904,2021-07-02,103.881222,30.682201,整租,//权属核验/近地铁/随时看房/,有,暂无数据,民水,民电,有,自采暖,2021-07-03 14:04:28,成都
温江-花都大道-千禧河畔A区,81.14㎡,东,3室2厅1卫,低楼层（33层）,2300 元/月,CD2792614608413147136,2021-06-30,103.88658,30.694547,整租,/权属核验/精装/,有,暂无数据,暂无数据,暂无数据,有,自采暖,2021-07-03 14:04:30,成都
温江-花都大道-千禧河畔A区,86.74㎡,南,3室2厅2卫,低楼层（26层）,2500 元/月,CD2674480674043600896,2021-07-01,103.88658,30.694547,整租,/权属核验/双卫生间/随时看房/,有,暂无数据,民水,民电,有,自采暖,2021-07-03 14:04:35,成都
温江-温江大学城-恒大御景,106.00㎡,东南,3室1厅1卫,中楼层（40层）,1500 元/月,CD2674659868686172160,2021-06-27,103.807977,30.647873,整租,/权属核验/精装/,有,租用车位,民水,民电,有,暂无数据,2021-07-03 14:04:40,成都
温江-花都大道-世纪光华,86.59㎡,南,3室1厅2卫,中楼层（11层）,1350 元/月,CD2426721605926526976,2021-06-30,103.868526,30.704063,整租,/权属核验/双卫生间/随时看房/,有,暂无数据,民水,民电,有,自采暖,2021-07-03 14:04:43,成都
温江-温江大学城-西财学府阳光,100.40㎡,东南西南,3室1厅2卫,中楼层（33层）,2000 元/月,CD2367840292042194944,2021-06-25,103.820352,30.683297,整租,//权属核验/近地铁/精装/双卫生间/随时看房/,有,暂无数据,民水,民电,有,自采暖,2021-07-03 14:04:48,成都
温江-温江大学城-西财学府阳光,72.50㎡,东南,3室2厅2卫,低楼层（33层）,1500 元/月,CD2402141620532690944,2021-06-25,103.820352,30.683297,整租,//权属核验/近地铁/双卫生间/随时看房/,有,暂无数据,民水,民电,有,暂无数据,2021-07-03 14:04:53,成都
温江-光华大道沿线-水韵华府,85.49㎡,南,2室2厅1卫,中楼层（18层）,1700 元/月,CD2468058290462916608,2021-06-30,103.902804,30.692349,整租,/权属核验/精装/随时看房/,有,暂无数据,民水,民电,有,自采暖,2021-07-03 14:04:56,成都
温江-花都大道-森宇音乐花园,206.00㎡,东南,3室2厅3卫,中楼层（6层）,3400 元/月,CD2405932144540532736,2021-06-18,103.880288,30.692427,整租,/权属核验/精装/随时看房/,无,租用车位,民水,民电,有,自采暖,2021-07-03 14:05:01,成都
温江-温江大学城-海科名城,87.00㎡,南,2室1厅1卫,高楼层（18层）,600 元/月,CD2471042995248701440,2021-07-01,103.822162,30.684502,整租,/权属核验/近地铁/随时看房/,有,暂无数据,民水,民电,有,自采暖,2021-07-03 14:05:04,成都
温江-温江新城-恒大城二期,89.17㎡,东,3室2厅1卫,高楼层（30层）,1700 元/月,CD2681080301849427968,2021-06-27,103.857856,30.68433,整租,/权属核验/近地铁/精装/随时看房/,有,租用车位,民水,民电,有,自采暖,2021-07-03 14:05:12,成都
温江-温江大学城-恒大御景,108.00㎡,东,3室2厅2卫,中楼层（40层）,1500 元/月,CD2679732558291542016,2021-06-27,103.807977,30.647873,整租,/权属核验/精装/双卫生间/,无,租用车位,民水,民电,有,暂无数据,2021-07-03 14:05:19,成都
温江-花都大道-蓝润光华春天A区,94.00㎡,东,3室2厅1卫,低楼层（34层）,2500 元/月,CD2684125620224933888,2021-06-27,103.89347,30.696434,整租,/权属核验/随时看房/,有,暂无数据,民水,民电,有,暂无数据,2021-07-03 14:05:25,成都
温江-光华大道沿线-边城香格里,116.92㎡,东南,3室2厅2卫,高楼层（24层）,2100 元/月,CD2683130247502897152,2021-07-02,103.88362,30.682243,整租,/权属核验/近地铁/精装/双卫生间/随时看房/,有,暂无数据,民水,民电,有,自采暖,2021-07-03 14:05:28,成都
温江-光华大道沿线-春天大道,136.21㎡,南北,3室2厅2卫,低楼层（24层）,2500 元/月,CD2691135428111122432,2021-07-02,103.901418,30.684799,整租,/权属核验/近地铁/双卫生间/随时看房/,有,暂无数据,民水,民电,有,自采暖,2021-07-03 14:05:32,成都
温江-光华大道沿线-金科天宸,76.75㎡,东南,3室1厅1卫,中楼层（33层）,1000 元/月,CD2688397120943161344,2021-06-26,103.88785332848,30.672003384286,整租,/权属核验/,有,暂无数据,民水,民电,有,自采暖,2021-07-03 14:05:38,成都
温江-光华大道沿线-恒大新城二期,88.99㎡,东南,2室2厅1卫,高楼层（32层）,1700 元/月,CD2801533092332830720,2021-06-27,103.876232,30.668573,整租,/权属核验/近地铁/精装/,有,租用车位,民水,民电,有,暂无数据,2021-07-03 14:05:47,成都
温江-花都大道-佳年华新生活A区,83.69㎡,南,3室1厅1卫,低楼层（31层）,2000 元/月,CD2801996217289015296,2021-06-27,103.889194,30.694426,整租,//权属核验/精装/随时看房/,有,免费使用,民水,民电,有,暂无数据,2021-07-03 14:05:54,成都
温江-花都大道-佳年华新生活,64.88㎡,南,2室1厅1卫,中楼层（32层）,2000 元/月,CD2802197437932896256,2021-06-27,103.889059,30.692109,整租,/权属核验/精装/,有,暂无数据,商水,商电,有,自采暖,2021-07-03 14:06:02,成都
温江-花都大道-千禧河畔C区,80.99㎡,南,3室1厅1卫,中楼层（33层）,2300 元/月,CD2802271160023121920,2021-06-27,103.893591,30.694462,整租,/权属核验/精装/,有,暂无数据,民水,民电,有,暂无数据,2021-07-03 14:06:06,成都
温江-花都大道-蓝润光华春天A区,88.17㎡,南北,3室1厅2卫,高楼层（34层）,2200 元/月,CD2802712393438724096,2021-06-27,103.89347,30.696434,整租,/权属核验/精装/双卫生间/,有,暂无数据,民水,民电,有,自采暖,2021-07-03 14:06:14,成都
温江-花都大道-佳兆业丽晶公馆,91.92㎡,西,3室2厅2卫,中楼层（39层）,2000 元/月,CD2802712705234894848,2021-06-27,103.876984,30.695428,整租,/权属核验/精装/双卫生间/随时看房/,有,暂无数据,民水,民电,有,暂无数据,2021-07-03 14:06:22,成都
温江-花都大道-千禧河畔B区,78.40㎡,南,2室1厅1卫,低楼层（33层）,2200 元/月,CD2802893735791435776,2021-06-27,103.886767,30.6927,整租,/权属核验/精装/随时看房/,有,暂无数据,民水,民电,有,自采暖,2021-07-03 14:06:27,成都
温江-温江新城-金恒德时代金悦,80.14㎡,东南,3室1厅1卫,高楼层（31层）,2000 元/月,CD2802988069370994688,2021-06-28,103.86932415003,30.681205516218,整租,/权属核验/精装/,有,暂无数据,民水,暂无数据,有,自采暖,2021-07-03 14:06:36,成都
温江-温江新城-恒大城一期,108.52㎡,南,3室2厅1卫,低楼层（11层）,2200 元/月,CD2803025230267170816,2021-06-20,103.858672,30.686107,整租,/权属核验/近地铁/精装/随时看房/,有,租用车位,民水,民电,有,自采暖,2021-07-03 14:06:42,成都
温江-光华大道沿线-洲际春天广场,80.24㎡,西北,3室2厅1卫,高楼层（38层）,2200 元/月,CD2803558412044992512,2021-06-27,103.875899,30.681053,整租,//权属核验/精装/随时看房/,有,暂无数据,民水,民电,有,暂无数据,2021-07-03 14:06:46,成都
温江-花都大道-蓝润光华春天A区,95.00㎡,南北,3室2厅2卫,高楼层（34层）,2000 元/月,CD2803025760829308928,2021-06-25,103.89347,30.696434,整租,//权属核验/精装/双卫生间/随时看房/,有,暂无数据,民水,民电,有,暂无数据,2021-07-03 14:06:55,成都
温江-温江大学城-西财学府阳光,87.81㎡,东南,2室2厅1卫,高楼层（32层）,2000 元/月,CD2802958554783825920,2021-06-20,103.820352,30.683297,整租,/权属核验/近地铁/精装/,有,暂无数据,民水,民电,有,暂无数据,2021-07-03 14:07:04,成都
温江-光华大道沿线-恒大新城二期,89.58㎡,东,3室2厅1卫,低楼层（33层）,2200 元/月,CD2802978135631462400,2021-06-27,103.876232,30.668573,整租,/权属核验/近地铁/精装/,有,暂无数据,民水,民电,有,暂无数据,2021-07-03 14:07:10,成都
温江-温江老城-太极花园,116.30㎡,东南,3室2厅2卫,中楼层（6层）,1500 元/月,CD2804238466412445696,2021-06-28,103.863009,30.704583,整租,/权属核验/近地铁/双卫生间/随时看房/,无,租用车位,民水,民电,有,暂无数据,2021-07-03 14:07:16,成都
温江-花都大道-汇厦香悦云庭,105.59㎡,南,3室1厅2卫,高楼层（6层）,1200 元/月,CD2804368414204755968,2021-06-09,103.881231,30.697057,整租,/权属核验/双卫生间/随时看房/,无,暂无数据,暂无数据,暂无数据,暂无数据,暂无数据,2021-07-03 14:07:20,成都
温江-温江新城-恒大城四期,139.90㎡,西北,3室2厅2卫,高楼层（33层）,2500 元/月,CD2804221777956577280,2021-06-30,103.85817940764,30.686306013585,整租,/权属核验/精装/双卫生间/随时看房/,有,租用车位,民水,民电,有,自采暖,2021-07-03 14:07:23,成都
温江-花都大道-佳年华新生活A区,79.19㎡,东南,3室1厅1卫,低楼层（33层）,2200 元/月,CD2804356796385869824,2021-06-27,103.889194,30.694426,整租,/权属核验/精装/随时看房/,有,暂无数据,商水,商电,有,暂无数据,2021-07-03 14:07:29,成都
温江-光华大道沿线-公园大道,84.97㎡,南,2室2厅1卫,低楼层（27层）,2000 元/月,CD2804224811294007296,2021-06-18,103.885794,30.685259,整租,/权属核验/近地铁/精装/,有,暂无数据,民水,民电,有,自采暖,2021-07-03 14:07:33,成都
温江-花都大道-珠江青云台,125.85㎡,南,4室2厅1卫,高楼层（31层）,3500 元/月,CD2804907371782995968,2021-06-11,103.87554,30.69308,整租,/权属核验/精装/,有,租用车位,民水,民电,有,自采暖,2021-07-03 14:07:40,成都
